{
"type": "FeatureCollection",
"crs": { "type": "name", "properties": { "name": "urn:ogc:def:crs:OGC:1.3:CRS84" } },
                                                                                
"features": [
{ "type": "Feature", "properties": { "RegionName": "Andalucía", "DeptName": "Jaén", "Admin3Name": "Sierra Mágina", "CityName": "Albanchez de Mágina", "Population": 1186 }, "geometry": { "type": "Point", "coordinates": [ -3.4681212, 37.7918878 ] } },
{ "type": "Feature", "properties": { "RegionName": "Andalucía", "DeptName": "Jaén", "Admin3Name": "Campiña", "CityName": "Arjona", "Population": 5692 }, "geometry": { "type": "Point", "coordinates": [ -4.0580482, 37.9364973 ] } },
{ "type": "Feature", "properties": { "RegionName": "Andalucía", "DeptName": "Jaén", "Admin3Name": "Campiña", "CityName": "Arjonilla", "Population": 3729 }, "geometry": { "type": "Point", "coordinates": [ -4.1066092, 37.9744861 ] } },
{ "type": "Feature", "properties": { "RegionName": "Andalucía", "DeptName": "Jaén", "Admin3Name": "El Condado", "CityName": "Arquillos", "Population": 1872 }, "geometry": { "type": "Point", "coordinates": [ -3.428383, 38.1810037 ] } },
{ "type": "Feature", "properties": { "RegionName": "Andalucía", "DeptName": "Jaén", "Admin3Name": "Sierra Morena", "CityName": "Baños de la Encina", "Population": 2672 }, "geometry": { "type": "Point", "coordinates": [ -3.7746699, 38.173827 ] } },
{ "type": "Feature", "properties": { "RegionName": "Andalucía", "DeptName": "Jaén", "Admin3Name": "Sierra de Segura", "CityName": "Beas de Segura", "Population": 5439 }, "geometry": { "type": "Point", "coordinates": [ -2.8888912, 38.2534703 ] } },
{ "type": "Feature", "properties": { "RegionName": "Andalucía", "DeptName": "Jaén", "Admin3Name": "La Loma", "CityName": "Begíjar", "Population": 3133 }, "geometry": { "type": "Point", "coordinates": [ -3.5340911, 37.9819167 ] } },
{ "type": "Feature", "properties": { "RegionName": "Andalucía", "DeptName": "Jaén", "Admin3Name": "Sierra Mágina", "CityName": "Bélmez de la Moraleda", "Population": 1693 }, "geometry": { "type": "Point", "coordinates": [ -3.3828551, 37.724010799999988 ] } },
{ "type": "Feature", "properties": { "RegionName": "Andalucía", "DeptName": "Jaén", "Admin3Name": "Sierra Mágina", "CityName": "Cabra del Santo Cristo", "Population": 1937 }, "geometry": { "type": "Point", "coordinates": [ -3.2872875, 37.703349 ] } },
{ "type": "Feature", "properties": { "RegionName": "Andalucía", "DeptName": "Jaén", "Admin3Name": "Sierra Mágina", "CityName": "Cambil", "Population": 2857 }, "geometry": { "type": "Point", "coordinates": [ -3.5654535, 37.6786907 ] } },
{ "type": "Feature", "properties": { "RegionName": "Andalucía", "DeptName": "Jaén", "Admin3Name": "Sierra Mágina", "CityName": "Campillo de Arenas", "Population": 1941 }, "geometry": { "type": "Point", "coordinates": [ -3.6357134, 37.5549229 ] } },
{ "type": "Feature", "properties": { "RegionName": "Andalucía", "DeptName": "Jaén", "Admin3Name": "La Loma", "CityName": "Canena", "Population": 1959 }, "geometry": { "type": "Point", "coordinates": [ -3.4839237, 38.0473893 ] } },
{ "type": "Feature", "properties": { "RegionName": "Andalucía", "DeptName": "Jaén", "Admin3Name": "El Condado", "CityName": "Castellar", "Population": 3440 }, "geometry": { "type": "Point", "coordinates": [ -3.1315471, 38.2525362 ] } },
{ "type": "Feature", "properties": { "RegionName": "Andalucía", "DeptName": "Jaén", "Admin3Name": "Sierra Sur de Jaén", "CityName": "Castillo de Locubín", "Population": 4293 }, "geometry": { "type": "Point", "coordinates": [ -3.9413043, 37.527183699999988 ] } },
{ "type": "Feature", "properties": { "RegionName": "Andalucía", "DeptName": "Jaén", "Admin3Name": "Sierra de Cazorla", "CityName": "Cazorla", "Population": 7692 }, "geometry": { "type": "Point", "coordinates": [ -3.0038121, 37.9124527 ] } },
{ "type": "Feature", "properties": { "RegionName": "Andalucía", "DeptName": "Jaén", "Admin3Name": "El Condado", "CityName": "Chiclana de Segura", "Population": 1023 }, "geometry": { "type": "Point", "coordinates": [ -3.0444752, 38.3107885 ] } },
{ "type": "Feature", "properties": { "RegionName": "Andalucía", "DeptName": "Jaén", "Admin3Name": "Sierra de Cazorla", "CityName": "Chilluévar", "Population": 1509 }, "geometry": { "type": "Point", "coordinates": [ -3.0312716, 38.0013623 ] } },
{ "type": "Feature", "properties": { "RegionName": "Andalucía", "DeptName": "Jaén", "Admin3Name": "Sierra Sur de Jaén", "CityName": "Frailes", "Population": 1651 }, "geometry": { "type": "Point", "coordinates": [ -3.8381772, 37.4866445 ] } },
{ "type": "Feature", "properties": { "RegionName": "Andalucía", "DeptName": "Jaén", "Admin3Name": "Área Metropolitana de Jaén", "CityName": "Fuensanta de Martos", "Population": 3160 }, "geometry": { "type": "Point", "coordinates": [ -3.9072583, 37.6460707 ] } },
{ "type": "Feature", "properties": { "RegionName": "Andalucía", "DeptName": "Jaén", "Admin3Name": "Área Metropolitana de Jaén", "CityName": "Fuerte del Rey", "Population": 1409 }, "geometry": { "type": "Point", "coordinates": [ -3.8846224, 37.8761645 ] } },
{ "type": "Feature", "properties": { "RegionName": "Andalucía", "DeptName": "Jaén", "Admin3Name": "Área Metropolitana de Jaén", "CityName": "La Guardia de Jaén", "Population": 4832 }, "geometry": { "type": "Point", "coordinates": [ -3.6933872, 37.7424654 ] } },
{ "type": "Feature", "properties": { "RegionName": "Andalucía", "DeptName": "Jaén", "Admin3Name": "Sierra Morena", "CityName": "Guarromán", "Population": 2876 }, "geometry": { "type": "Point", "coordinates": [ -3.6864121, 38.1837566 ] } },
{ "type": "Feature", "properties": { "RegionName": "Andalucía", "DeptName": "Jaén", "Admin3Name": "Campiña", "CityName": "Lahiguera", "Population": 1783 }, "geometry": { "type": "Point", "coordinates": [ -3.9916696, 37.9705003 ] } },
{ "type": "Feature", "properties": { "RegionName": "Andalucía", "DeptName": "Jaén", "Admin3Name": "Sierra Mágina", "CityName": "Huelma", "Population": 6089 }, "geometry": { "type": "Point", "coordinates": [ -3.4561456, 37.6480579 ] } },
{ "type": "Feature", "properties": { "RegionName": "Andalucía", "DeptName": "Jaén", "Admin3Name": "Sierra de Cazorla", "CityName": "Huesa", "Population": 2584 }, "geometry": { "type": "Point", "coordinates": [ -3.0777102, 37.7642961 ] } },
{ "type": "Feature", "properties": { "RegionName": "Andalucía", "DeptName": "Jaén", "Admin3Name": "La Loma", "CityName": "Ibros", "Population": 2973 }, "geometry": { "type": "Point", "coordinates": [ -3.5016088, 38.0204378 ] } },
{ "type": "Feature", "properties": { "RegionName": "Andalucía", "DeptName": "Jaén", "Admin3Name": "Sierra de Cazorla", "CityName": "La Iruela", "Population": 1999 }, "geometry": { "type": "Point", "coordinates": [ -2.9916199, 37.9203757 ] } },
{ "type": "Feature", "properties": { "RegionName": "Andalucía", "DeptName": "Jaén", "Admin3Name": "Las Villas", "CityName": "Iznatoraf", "Population": 1016 }, "geometry": { "type": "Point", "coordinates": [ -3.0332112, 38.156888599999988 ] } },
{ "type": "Feature", "properties": { "RegionName": "Andalucía", "DeptName": "Jaén", "Admin3Name": "Sierra Morena", "CityName": "Jabalquinto", "Population": 2201 }, "geometry": { "type": "Point", "coordinates": [ -3.7244696, 38.0188957 ] } },
{ "type": "Feature", "properties": { "RegionName": "Andalucía", "DeptName": "Jaén", "Admin3Name": "Área Metropolitana de Jaén", "CityName": "Jamilena", "Population": 3404 }, "geometry": { "type": "Point", "coordinates": [ -3.9126371, 37.7480139 ] } },
{ "type": "Feature", "properties": { "RegionName": "Andalucía", "DeptName": "Jaén", "Admin3Name": "Sierra Mágina", "CityName": "Jimena", "Population": 1344 }, "geometry": { "type": "Point", "coordinates": [ -3.4757149, 37.8418859 ] } },
{ "type": "Feature", "properties": { "RegionName": "Andalucía", "DeptName": "Jaén", "Admin3Name": "Campiña", "CityName": "Lopera", "Population": 3779 }, "geometry": { "type": "Point", "coordinates": [ -4.2141149, 37.9442504 ] } },
{ "type": "Feature", "properties": { "RegionName": "Andalucía", "DeptName": "Jaén", "Admin3Name": "Campiña", "CityName": "Marmolejo", "Population": 7089 }, "geometry": { "type": "Point", "coordinates": [ -4.1692941, 38.0449522 ] } },
{ "type": "Feature", "properties": { "RegionName": "Andalucía", "DeptName": "Jaén", "Admin3Name": "Área Metropolitana de Jaén", "CityName": "Mengíbar", "Population": 9935 }, "geometry": { "type": "Point", "coordinates": [ -3.8082965, 37.9712748 ] } },
{ "type": "Feature", "properties": { "RegionName": "Andalucía", "DeptName": "Jaén", "Admin3Name": "El Condado", "CityName": "Montizón", "Population": 1815 }, "geometry": { "type": "Point", "coordinates": [ -3.1037173, 38.3424442 ] } },
{ "type": "Feature", "properties": { "RegionName": "Andalucía", "DeptName": "Jaén", "Admin3Name": "El Condado", "CityName": "Navas de San Juan", "Population": 4712 }, "geometry": { "type": "Point", "coordinates": [ -3.3149708, 38.1842504 ] } },
{ "type": "Feature", "properties": { "RegionName": "Andalucía", "DeptName": "Jaén", "Admin3Name": "Sierra Mágina", "CityName": "Noalejo", "Population": 2000 }, "geometry": { "type": "Point", "coordinates": [ -3.6535175, 37.5292307 ] } },
{ "type": "Feature", "properties": { "RegionName": "Andalucía", "DeptName": "Jaén", "Admin3Name": "Sierra de Segura", "CityName": "Orcera", "Population": 1919 }, "geometry": { "type": "Point", "coordinates": [ -2.6642275, 38.3186946 ] } },
{ "type": "Feature", "properties": { "RegionName": "Andalucía", "DeptName": "Jaén", "Admin3Name": "Sierra de Cazorla", "CityName": "Peal de Becerro", "Population": 5410 }, "geometry": { "type": "Point", "coordinates": [ -3.1252777, 37.9132725 ] } },
{ "type": "Feature", "properties": { "RegionName": "Andalucía", "DeptName": "Jaén", "Admin3Name": "Sierra Mágina", "CityName": "Pegalajar", "Population": 3032 }, "geometry": { "type": "Point", "coordinates": [ -3.6458491, 37.740624 ] } },
{ "type": "Feature", "properties": { "RegionName": "Andalucía", "DeptName": "Jaén", "Admin3Name": "Área Metropolitana de Jaén", "CityName": "Porcuna", "Population": 6567 }, "geometry": { "type": "Point", "coordinates": [ -4.1846569, 37.8698808 ] } },
{ "type": "Feature", "properties": { "RegionName": "Andalucía", "DeptName": "Jaén", "Admin3Name": "Sierra de Cazorla", "CityName": "Pozo Alcón", "Population": 4892 }, "geometry": { "type": "Point", "coordinates": [ -2.9338273, 37.7046749 ] } },
{ "type": "Feature", "properties": { "RegionName": "Andalucía", "DeptName": "Jaén", "Admin3Name": "Sierra de Segura", "CityName": "Puente de Génave", "Population": 2221 }, "geometry": { "type": "Point", "coordinates": [ -2.8021958, 38.3547862 ] } },
{ "type": "Feature", "properties": { "RegionName": "Andalucía", "DeptName": "Jaén", "Admin3Name": "Sierra de Segura", "CityName": "La Puerta de Segura", "Population": 2503 }, "geometry": { "type": "Point", "coordinates": [ -2.7369236, 38.3492721 ] } },
{ "type": "Feature", "properties": { "RegionName": "Andalucía", "DeptName": "Jaén", "Admin3Name": "Sierra de Cazorla", "CityName": "Quesada", "Population": 5585 }, "geometry": { "type": "Point", "coordinates": [ -3.066385, 37.8446058 ] } },
{ "type": "Feature", "properties": { "RegionName": "Andalucía", "DeptName": "Jaén", "Admin3Name": "La Loma", "CityName": "Rus", "Population": 3728 }, "geometry": { "type": "Point", "coordinates": [ -3.461195, 38.0480587 ] } },
{ "type": "Feature", "properties": { "RegionName": "Andalucía", "DeptName": "Jaén", "Admin3Name": "La Loma", "CityName": "Sabiote", "Population": 4073 }, "geometry": { "type": "Point", "coordinates": [ -3.3108627, 38.0684568 ] } },
{ "type": "Feature", "properties": { "RegionName": "Andalucía", "DeptName": "Jaén", "Admin3Name": "El Condado", "CityName": "Santisteban del Puerto", "Population": 4666 }, "geometry": { "type": "Point", "coordinates": [ -3.2043315, 38.2532124 ] } },
{ "type": "Feature", "properties": { "RegionName": "Andalucía", "DeptName": "Jaén", "Admin3Name": "Sierra de Cazorla", "CityName": "Santo Tomé", "Population": 2303 }, "geometry": { "type": "Point", "coordinates": [ -3.1008348, 38.0270292 ] } },
{ "type": "Feature", "properties": { "RegionName": "Andalucía", "DeptName": "Jaén", "Admin3Name": "Sierra de Segura", "CityName": "Segura de la Sierra", "Population": 1916 }, "geometry": { "type": "Point", "coordinates": [ -2.6521224, 38.2982302 ] } },
{ "type": "Feature", "properties": { "RegionName": "Andalucía", "DeptName": "Jaén", "Admin3Name": "Sierra de Segura", "CityName": "Siles", "Population": 2345 }, "geometry": { "type": "Point", "coordinates": [ -2.5811074, 38.3889697 ] } },
{ "type": "Feature", "properties": { "RegionName": "Andalucía", "DeptName": "Jaén", "Admin3Name": "Las Villas", "CityName": "Sorihuela del Guadalimar", "Population": 1248 }, "geometry": { "type": "Point", "coordinates": [ -3.0534365, 38.2404908 ] } },
{ "type": "Feature", "properties": { "RegionName": "Andalucía", "DeptName": "Jaén", "Admin3Name": "La Loma", "CityName": "Torreblascopedro", "Population": 2742 }, "geometry": { "type": "Point", "coordinates": [ -3.6382472, 37.997796699999988 ] } },
{ "type": "Feature", "properties": { "RegionName": "Andalucía", "DeptName": "Jaén", "Admin3Name": "La Loma", "CityName": "Torreperogil", "Population": 7548 }, "geometry": { "type": "Point", "coordinates": [ -3.2910616, 38.0357524 ] } },
{ "type": "Feature", "properties": { "RegionName": "Andalucía", "DeptName": "Jaén", "Admin3Name": "Sierra Mágina", "CityName": "Torres", "Population": 1516 }, "geometry": { "type": "Point", "coordinates": [ -3.5085582, 37.7852383 ] } },
{ "type": "Feature", "properties": { "RegionName": "Andalucía", "DeptName": "Jaén", "Admin3Name": "Sierra Sur de Jaén", "CityName": "Valdepeñas de Jaén", "Population": 3926 }, "geometry": { "type": "Point", "coordinates": [ -3.8176232, 37.5909347 ] } },
{ "type": "Feature", "properties": { "RegionName": "Andalucía", "DeptName": "Jaén", "Admin3Name": "El Condado", "CityName": "Vilches", "Population": 4689 }, "geometry": { "type": "Point", "coordinates": [ -3.5079264, 38.2089812 ] } },
{ "type": "Feature", "properties": { "RegionName": "Andalucía", "DeptName": "Jaén", "Admin3Name": "Campiña", "CityName": "Villanueva de la Reina", "Population": 3245 }, "geometry": { "type": "Point", "coordinates": [ -3.9151847, 38.0047885 ] } },
{ "type": "Feature", "properties": { "RegionName": "Andalucía", "DeptName": "Jaén", "Admin3Name": "Las Villas", "CityName": "Villanueva del Arzobispo", "Population": 8484 }, "geometry": { "type": "Point", "coordinates": [ -3.0064317, 38.1695754 ] } },
{ "type": "Feature", "properties": { "RegionName": "Andalucía", "DeptName": "Jaén", "Admin3Name": "Área Metropolitana de Jaén", "CityName": "Villardompardo", "Population": 1029 }, "geometry": { "type": "Point", "coordinates": [ -4.0012382, 37.8384988 ] } },
{ "type": "Feature", "properties": { "RegionName": "Andalucía", "DeptName": "Jaén", "Admin3Name": "Área Metropolitana de Jaén", "CityName": "Los Villares", "Population": 5999 }, "geometry": { "type": "Point", "coordinates": [ -3.8184667, 37.6873918 ] } },
{ "type": "Feature", "properties": { "RegionName": "Andalucía", "DeptName": "Jaén", "Admin3Name": "Sierra Mágina", "CityName": "Cárcheles", "Population": 1425 }, "geometry": { "type": "Point", "coordinates": [ -3.6319131, 37.6361492 ] } },
{ "type": "Feature", "properties": { "RegionName": "Andalucía", "DeptName": "Jaén", "Admin3Name": "Sierra Mágina", "CityName": "Bedmar y Garcíez", "Population": 2871 }, "geometry": { "type": "Point", "coordinates": [ -3.4296446, 37.8332934 ] } },
{ "type": "Feature", "properties": { "RegionName": "Andalucía", "DeptName": "Jaén", "Admin3Name": "Área Metropolitana de Jaén", "CityName": "Villatorres", "Population": 4412 }, "geometry": { "type": "Point", "coordinates": [ -3.6927531, 37.9312975 ] } },
{ "type": "Feature", "properties": { "RegionName": "Andalucía", "DeptName": "Jaén", "Admin3Name": "Sierra de Segura", "CityName": "Santiago-Pontones", "Population": 3338 }, "geometry": { "type": "Point", "coordinates": [ -2.6586401, 38.0754899 ] } },
{ "type": "Feature", "properties": { "RegionName": "Andalucía", "DeptName": "Jaén", "Admin3Name": "Sierra de Segura", "CityName": "Arroyo del Ojanco", "Population": 2373 }, "geometry": { "type": "Point", "coordinates": [ -2.893882, 38.3218279 ] } }
]
}
