{
"type": "FeatureCollection",
"crs": { "type": "name", "properties": { "name": "urn:ogc:def:crs:OGC:1.3:CRS84" } },
                                                                                
"features": [
{ "type": "Feature", "properties": { "RegionName": "Andalucía", "DeptName": "Granada", "Admin3Name": "Costa Tropical", "CityName": "Albuñol", "Population": 6948 }, "geometry": { "type": "Point", "coordinates": [ -3.2024477, 36.7921634 ] } },
{ "type": "Feature", "properties": { "RegionName": "Andalucía", "DeptName": "Granada", "Admin3Name": "Vega de Granada", "CityName": "Alfacar", "Population": 5445 }, "geometry": { "type": "Point", "coordinates": [ -3.5647044, 37.2393246 ] } },
{ "type": "Feature", "properties": { "RegionName": "Andalucía", "DeptName": "Granada", "Admin3Name": "Loja", "CityName": "Algarinejo", "Population": 2813 }, "geometry": { "type": "Point", "coordinates": [ -4.1558553, 37.3253187 ] } },
{ "type": "Feature", "properties": { "RegionName": "Andalucía", "DeptName": "Granada", "Admin3Name": "Alhama de Granada", "CityName": "Alhama de Granada", "Population": 6126 }, "geometry": { "type": "Point", "coordinates": [ -3.9891183, 37.004066 ] } },
{ "type": "Feature", "properties": { "RegionName": "Andalucía", "DeptName": "Granada", "Admin3Name": "Vega de Granada", "CityName": "Alhendín", "Population": 8503 }, "geometry": { "type": "Point", "coordinates": [ -3.643315, 37.1089282 ] } },
{ "type": "Feature", "properties": { "RegionName": "Andalucía", "DeptName": "Granada", "Admin3Name": "Alhama de Granada", "CityName": "Arenas del Rey", "Population": 1865 }, "geometry": { "type": "Point", "coordinates": [ -3.8928979, 36.9583114 ] } },
{ "type": "Feature", "properties": { "RegionName": "Andalucía", "DeptName": "Granada", "Admin3Name": "Vega de Granada", "CityName": "Beas de Granada", "Population": 1012 }, "geometry": { "type": "Point", "coordinates": [ -3.4807664, 37.2188192 ] } },
{ "type": "Feature", "properties": { "RegionName": "Andalucía", "DeptName": "Granada", "Admin3Name": "Guadix", "CityName": "Benalúa", "Population": 3298 }, "geometry": { "type": "Point", "coordinates": [ -3.1635732, 37.3507892 ] } },
{ "type": "Feature", "properties": { "RegionName": "Andalucía", "DeptName": "Granada", "Admin3Name": "Los Montes", "CityName": "Benalúa de las Villas", "Population": 1148 }, "geometry": { "type": "Point", "coordinates": [ -3.683242, 37.4276175 ] } },
{ "type": "Feature", "properties": { "RegionName": "Andalucía", "DeptName": "Granada", "Admin3Name": "Baza", "CityName": "Benamaurel", "Population": 2378 }, "geometry": { "type": "Point", "coordinates": [ -2.7002508, 37.60722 ] } },
{ "type": "Feature", "properties": { "RegionName": "Andalucía", "DeptName": "Granada", "Admin3Name": "Alpujarra Granadina", "CityName": "Cádiar", "Population": 1554 }, "geometry": { "type": "Point", "coordinates": [ -3.1785935, 36.945971 ] } },
{ "type": "Feature", "properties": { "RegionName": "Andalucía", "DeptName": "Granada", "Admin3Name": "Vega de Granada", "CityName": "Cájar", "Population": 4909 }, "geometry": { "type": "Point", "coordinates": [ -3.5693064, 37.1303208 ] } },
{ "type": "Feature", "properties": { "RegionName": "Andalucía", "DeptName": "Granada", "Admin3Name": "Los Montes", "CityName": "Campotéjar", "Population": 1301 }, "geometry": { "type": "Point", "coordinates": [ -3.6173478, 37.482939 ] } },
{ "type": "Feature", "properties": { "RegionName": "Andalucía", "DeptName": "Granada", "Admin3Name": "Baza", "CityName": "Caniles", "Population": 4351 }, "geometry": { "type": "Point", "coordinates": [ -2.7244889, 37.4355237 ] } },
{ "type": "Feature", "properties": { "RegionName": "Andalucía", "DeptName": "Granada", "Admin3Name": "Huéscar", "CityName": "Castilléjar", "Population": 1400 }, "geometry": { "type": "Point", "coordinates": [ -2.6425027, 37.7195094 ] } },
{ "type": "Feature", "properties": { "RegionName": "Andalucía", "DeptName": "Granada", "Admin3Name": "Huéscar", "CityName": "Castril", "Population": 2276 }, "geometry": { "type": "Point", "coordinates": [ -2.7801596, 37.7956625 ] } },
{ "type": "Feature", "properties": { "RegionName": "Andalucía", "DeptName": "Granada", "Admin3Name": "Vega de Granada", "CityName": "Cenes de la Vega", "Population": 7942 }, "geometry": { "type": "Point", "coordinates": [ -3.540035, 37.160587 ] } },
{ "type": "Feature", "properties": { "RegionName": "Andalucía", "DeptName": "Granada", "Admin3Name": "Vega de Granada", "CityName": "Cijuela", "Population": 3221 }, "geometry": { "type": "Point", "coordinates": [ -3.809597, 37.197755 ] } },
{ "type": "Feature", "properties": { "RegionName": "Andalucía", "DeptName": "Granada", "Admin3Name": "Vega de Granada", "CityName": "Cogollos de la Vega", "Population": 2099 }, "geometry": { "type": "Point", "coordinates": [ -3.5719339, 37.2752926 ] } },
{ "type": "Feature", "properties": { "RegionName": "Andalucía", "DeptName": "Granada", "Admin3Name": "Los Montes", "CityName": "Colomera", "Population": 1416 }, "geometry": { "type": "Point", "coordinates": [ -3.7136837, 37.3720028 ] } },
{ "type": "Feature", "properties": { "RegionName": "Andalucía", "DeptName": "Granada", "Admin3Name": "Baza", "CityName": "Cortes de Baza", "Population": 2058 }, "geometry": { "type": "Point", "coordinates": [ -2.7692691, 37.6528326 ] } },
{ "type": "Feature", "properties": { "RegionName": "Andalucía", "DeptName": "Granada", "Admin3Name": "Guadix", "CityName": "Cortes y Graena", "Population": 1043 }, "geometry": { "type": "Point", "coordinates": [ -3.2174751, 37.3069434 ] } },
{ "type": "Feature", "properties": { "RegionName": "Andalucía", "DeptName": "Granada", "Admin3Name": "Baza", "CityName": "Cúllar", "Population": 4351 }, "geometry": { "type": "Point", "coordinates": [ -2.5705729, 37.5828301 ] } },
{ "type": "Feature", "properties": { "RegionName": "Andalucía", "DeptName": "Granada", "Admin3Name": "Vega de Granada", "CityName": "Cúllar Vega", "Population": 7128 }, "geometry": { "type": "Point", "coordinates": [ -3.6716156, 37.1521168 ] } },
{ "type": "Feature", "properties": { "RegionName": "Andalucía", "DeptName": "Granada", "Admin3Name": "Vega de Granada", "CityName": "Chauchina", "Population": 5428 }, "geometry": { "type": "Point", "coordinates": [ -3.7739155, 37.1975807 ] } },
{ "type": "Feature", "properties": { "RegionName": "Andalucía", "DeptName": "Granada", "Admin3Name": "Alhama de Granada", "CityName": "Chimeneas", "Population": 1360 }, "geometry": { "type": "Point", "coordinates": [ -3.822182, 37.1320318 ] } },
{ "type": "Feature", "properties": { "RegionName": "Andalucía", "DeptName": "Granada", "Admin3Name": "Guadix", "CityName": "Darro", "Population": 1545 }, "geometry": { "type": "Point", "coordinates": [ -3.2936364, 37.3496802 ] } },
{ "type": "Feature", "properties": { "RegionName": "Andalucía", "DeptName": "Granada", "Admin3Name": "Los Montes", "CityName": "Deifontes", "Population": 2624 }, "geometry": { "type": "Point", "coordinates": [ -3.5939254, 37.3256548 ] } },
{ "type": "Feature", "properties": { "RegionName": "Andalucía", "DeptName": "Granada", "Admin3Name": "Vega de Granada", "CityName": "Dílar", "Population": 1838 }, "geometry": { "type": "Point", "coordinates": [ -3.6002547, 37.0727438 ] } },
{ "type": "Feature", "properties": { "RegionName": "Andalucía", "DeptName": "Granada", "Admin3Name": "Valle de Lecrín", "CityName": "Dúrcal", "Population": 7123 }, "geometry": { "type": "Point", "coordinates": [ -3.5662605, 36.9879139 ] } },
{ "type": "Feature", "properties": { "RegionName": "Andalucía", "DeptName": "Granada", "Admin3Name": "Guadix", "CityName": "Fonelas", "Population": 1054 }, "geometry": { "type": "Point", "coordinates": [ -3.1742006, 37.4136736 ] } },
{ "type": "Feature", "properties": { "RegionName": "Andalucía", "DeptName": "Granada", "Admin3Name": "Vega de Granada", "CityName": "Fuente Vaqueros", "Population": 4457 }, "geometry": { "type": "Point", "coordinates": [ -3.7834017, 37.2192439 ] } },
{ "type": "Feature", "properties": { "RegionName": "Andalucía", "DeptName": "Granada", "Admin3Name": "Huéscar", "CityName": "Galera", "Population": 1150 }, "geometry": { "type": "Point", "coordinates": [ -2.5513692, 37.7420931 ] } },
{ "type": "Feature", "properties": { "RegionName": "Andalucía", "DeptName": "Granada", "Admin3Name": "Vega de Granada", "CityName": "Gójar", "Population": 5410 }, "geometry": { "type": "Point", "coordinates": [ -3.6035205, 37.1044782 ] } },
{ "type": "Feature", "properties": { "RegionName": "Andalucía", "DeptName": "Granada", "Admin3Name": "Los Montes", "CityName": "Guadahortuna", "Population": 1989 }, "geometry": { "type": "Point", "coordinates": [ -3.397928, 37.557501 ] } },
{ "type": "Feature", "properties": { "RegionName": "Andalucía", "DeptName": "Granada", "Admin3Name": "Costa Tropical", "CityName": "Gualchos", "Population": 4849 }, "geometry": { "type": "Point", "coordinates": [ -3.3899197, 36.7439354 ] } },
{ "type": "Feature", "properties": { "RegionName": "Andalucía", "DeptName": "Granada", "Admin3Name": "Vega de Granada", "CityName": "Güejar Sierra", "Population": 2953 }, "geometry": { "type": "Point", "coordinates": [ -3.4404462, 37.1590713 ] } },
{ "type": "Feature", "properties": { "RegionName": "Andalucía", "DeptName": "Granada", "Admin3Name": "Vega de Granada", "CityName": "Güevéjar", "Population": 2540 }, "geometry": { "type": "Point", "coordinates": [ -3.5977229, 37.2574332 ] } },
{ "type": "Feature", "properties": { "RegionName": "Andalucía", "DeptName": "Granada", "Admin3Name": "Guadix", "CityName": "Huéneja", "Population": 1168 }, "geometry": { "type": "Point", "coordinates": [ -2.9488154, 37.176363599999988 ] } },
{ "type": "Feature", "properties": { "RegionName": "Andalucía", "DeptName": "Granada", "Admin3Name": "Huéscar", "CityName": "Huéscar", "Population": 7677 }, "geometry": { "type": "Point", "coordinates": [ -2.5430411, 37.8071096 ] } },
{ "type": "Feature", "properties": { "RegionName": "Andalucía", "DeptName": "Granada", "Admin3Name": "Vega de Granada", "CityName": "Huétor de Santillán", "Population": 1872 }, "geometry": { "type": "Point", "coordinates": [ -3.4397386, 37.3115336 ] } },
{ "type": "Feature", "properties": { "RegionName": "Andalucía", "DeptName": "Granada", "Admin3Name": "Costa Tropical", "CityName": "Itrabo", "Population": 1018 }, "geometry": { "type": "Point", "coordinates": [ -3.6387426, 36.7993934 ] } },
{ "type": "Feature", "properties": { "RegionName": "Andalucía", "DeptName": "Granada", "Admin3Name": "Los Montes", "CityName": "Iznalloz", "Population": 6016 }, "geometry": { "type": "Point", "coordinates": [ -3.5199321, 37.392581799999988 ] } },
{ "type": "Feature", "properties": { "RegionName": "Andalucía", "DeptName": "Granada", "Admin3Name": "Alhama de Granada", "CityName": "Jayena", "Population": 1178 }, "geometry": { "type": "Point", "coordinates": [ -3.8229168, 36.9485057 ] } },
{ "type": "Feature", "properties": { "RegionName": "Andalucía", "DeptName": "Granada", "Admin3Name": "Guadix", "CityName": "Jerez del Marquesado", "Population": 1021 }, "geometry": { "type": "Point", "coordinates": [ -3.1591421, 37.1843404 ] } },
{ "type": "Feature", "properties": { "RegionName": "Andalucía", "DeptName": "Granada", "Admin3Name": "Vega de Granada", "CityName": "Jun", "Population": 3620 }, "geometry": { "type": "Point", "coordinates": [ -3.5931416, 37.2202852 ] } },
{ "type": "Feature", "properties": { "RegionName": "Andalucía", "DeptName": "Granada", "Admin3Name": "Vega de Granada", "CityName": "Láchar", "Population": 3263 }, "geometry": { "type": "Point", "coordinates": [ -3.8319395, 37.1939925 ] } },
{ "type": "Feature", "properties": { "RegionName": "Andalucía", "DeptName": "Granada", "Admin3Name": "Alpujarra Granadina", "CityName": "Lanjarón", "Population": 3715 }, "geometry": { "type": "Point", "coordinates": [ -3.4795035, 36.9187716 ] } },
{ "type": "Feature", "properties": { "RegionName": "Andalucía", "DeptName": "Granada", "Admin3Name": "Valle de Lecrín", "CityName": "Lecrín", "Population": 2138 }, "geometry": { "type": "Point", "coordinates": [ -3.5528045, 36.9474773 ] } },
{ "type": "Feature", "properties": { "RegionName": "Andalucía", "DeptName": "Granada", "Admin3Name": "Alhama de Granada", "CityName": "La Malahá", "Population": 1834 }, "geometry": { "type": "Point", "coordinates": [ -3.721297, 37.0991501 ] } },
{ "type": "Feature", "properties": { "RegionName": "Andalucía", "DeptName": "Granada", "Admin3Name": "Loja", "CityName": "Moclín", "Population": 3976 }, "geometry": { "type": "Point", "coordinates": [ -3.7860562, 37.3403656 ] } },
{ "type": "Feature", "properties": { "RegionName": "Andalucía", "DeptName": "Granada", "Admin3Name": "Costa Tropical", "CityName": "Molvízar", "Population": 2895 }, "geometry": { "type": "Point", "coordinates": [ -3.608484, 36.7859546 ] } },
{ "type": "Feature", "properties": { "RegionName": "Andalucía", "DeptName": "Granada", "Admin3Name": "Vega de Granada", "CityName": "Monachil", "Population": 7538 }, "geometry": { "type": "Point", "coordinates": [ -3.5405377, 37.1322355 ] } },
{ "type": "Feature", "properties": { "RegionName": "Andalucía", "DeptName": "Granada", "Admin3Name": "Loja", "CityName": "Montefrío", "Population": 5720 }, "geometry": { "type": "Point", "coordinates": [ -4.0057042, 37.323145 ] } },
{ "type": "Feature", "properties": { "RegionName": "Andalucía", "DeptName": "Granada", "Admin3Name": "Los Montes", "CityName": "Montejícar", "Population": 2230 }, "geometry": { "type": "Point", "coordinates": [ -3.5041358, 37.5721931 ] } },
{ "type": "Feature", "properties": { "RegionName": "Andalucía", "DeptName": "Granada", "Admin3Name": "Los Montes", "CityName": "Montillana", "Population": 1330 }, "geometry": { "type": "Point", "coordinates": [ -3.6724655, 37.5014581 ] } },
{ "type": "Feature", "properties": { "RegionName": "Andalucía", "DeptName": "Granada", "Admin3Name": "Loja", "CityName": "Moraleda de Zafayona", "Population": 3200 }, "geometry": { "type": "Point", "coordinates": [ -3.9655245, 37.1675265 ] } },
{ "type": "Feature", "properties": { "RegionName": "Andalucía", "DeptName": "Granada", "Admin3Name": "Valle de Lecrín", "CityName": "Nigüelas", "Population": 1214 }, "geometry": { "type": "Point", "coordinates": [ -3.5388943, 36.9787471 ] } },
{ "type": "Feature", "properties": { "RegionName": "Andalucía", "DeptName": "Granada", "Admin3Name": "Huéscar", "CityName": "Orce", "Population": 1226 }, "geometry": { "type": "Point", "coordinates": [ -2.4780152, 37.7199769 ] } },
{ "type": "Feature", "properties": { "RegionName": "Andalucía", "DeptName": "Granada", "Admin3Name": "Alpujarra Granadina", "CityName": "Órgiva", "Population": 5483 }, "geometry": { "type": "Point", "coordinates": [ -3.4232213, 36.9017931 ] } },
{ "type": "Feature", "properties": { "RegionName": "Andalucía", "DeptName": "Granada", "Admin3Name": "Costa Tropical", "CityName": "Otívar", "Population": 1093 }, "geometry": { "type": "Point", "coordinates": [ -3.679438, 36.8160532 ] } },
{ "type": "Feature", "properties": { "RegionName": "Andalucía", "DeptName": "Granada", "Admin3Name": "Vega de Granada", "CityName": "Villa de Otura", "Population": 6783 }, "geometry": { "type": "Point", "coordinates": [ -3.6572542, 37.0750235 ] } },
{ "type": "Feature", "properties": { "RegionName": "Andalucía", "DeptName": "Granada", "Admin3Name": "Valle de Lecrín", "CityName": "Padul", "Population": 8407 }, "geometry": { "type": "Point", "coordinates": [ -3.6229742, 37.0250888 ] } },
{ "type": "Feature", "properties": { "RegionName": "Andalucía", "DeptName": "Granada", "Admin3Name": "Los Montes", "CityName": "Pedro Martínez", "Population": 1150 }, "geometry": { "type": "Point", "coordinates": [ -3.2294548, 37.5028017 ] } },
{ "type": "Feature", "properties": { "RegionName": "Andalucía", "DeptName": "Granada", "Admin3Name": "Guadix", "CityName": "La Peza", "Population": 1250 }, "geometry": { "type": "Point", "coordinates": [ -3.2847716, 37.2771901 ] } },
{ "type": "Feature", "properties": { "RegionName": "Andalucía", "DeptName": "Granada", "Admin3Name": "Vega de Granada", "CityName": "Pinos Genil", "Population": 1438 }, "geometry": { "type": "Point", "coordinates": [ -3.5071424, 37.1631527 ] } },
{ "type": "Feature", "properties": { "RegionName": "Andalucía", "DeptName": "Granada", "Admin3Name": "Los Montes", "CityName": "Píñar", "Population": 1209 }, "geometry": { "type": "Point", "coordinates": [ -3.4391076, 37.4416148 ] } },
{ "type": "Feature", "properties": { "RegionName": "Andalucía", "DeptName": "Granada", "Admin3Name": "Costa Tropical", "CityName": "Polopos", "Population": 1680 }, "geometry": { "type": "Point", "coordinates": [ -3.2982961, 36.7945961 ] } },
{ "type": "Feature", "properties": { "RegionName": "Andalucía", "DeptName": "Granada", "Admin3Name": "Huéscar", "CityName": "Puebla de Don Fadrique", "Population": 2329 }, "geometry": { "type": "Point", "coordinates": [ -2.4375112, 37.9598393 ] } },
{ "type": "Feature", "properties": { "RegionName": "Andalucía", "DeptName": "Granada", "Admin3Name": "Vega de Granada", "CityName": "Pulianas", "Population": 5366 }, "geometry": { "type": "Point", "coordinates": [ -3.6075172, 37.2225427 ] } },
{ "type": "Feature", "properties": { "RegionName": "Andalucía", "DeptName": "Granada", "Admin3Name": "Guadix", "CityName": "Purullena", "Population": 2399 }, "geometry": { "type": "Point", "coordinates": [ -3.1867528, 37.3172593 ] } },
{ "type": "Feature", "properties": { "RegionName": "Andalucía", "DeptName": "Granada", "Admin3Name": "Loja", "CityName": "Salar", "Population": 2712 }, "geometry": { "type": "Point", "coordinates": [ -4.0675126, 37.1499516 ] } },
{ "type": "Feature", "properties": { "RegionName": "Andalucía", "DeptName": "Granada", "Admin3Name": "Alpujarra Granadina", "CityName": "Ugíjar", "Population": 2560 }, "geometry": { "type": "Point", "coordinates": [ -3.0538639, 36.9619832 ] } },
{ "type": "Feature", "properties": { "RegionName": "Andalucía", "DeptName": "Granada", "Admin3Name": "Costa Tropical", "CityName": "Vélez de Benaudalla", "Population": 2903 }, "geometry": { "type": "Point", "coordinates": [ -3.5142448, 36.8338034 ] } },
{ "type": "Feature", "properties": { "RegionName": "Andalucía", "DeptName": "Granada", "Admin3Name": "Loja", "CityName": "Villanueva Mesía", "Population": 2013 }, "geometry": { "type": "Point", "coordinates": [ -4.0112611, 37.214584 ] } },
{ "type": "Feature", "properties": { "RegionName": "Andalucía", "DeptName": "Granada", "Admin3Name": "Alhama de Granada", "CityName": "Zafarraya", "Population": 2040 }, "geometry": { "type": "Point", "coordinates": [ -4.1449788, 36.9746105 ] } },
{ "type": "Feature", "properties": { "RegionName": "Andalucía", "DeptName": "Granada", "Admin3Name": "Baza", "CityName": "Zújar", "Population": 2777 }, "geometry": { "type": "Point", "coordinates": [ -2.8415046, 37.5393714 ] } },
{ "type": "Feature", "properties": { "RegionName": "Andalucía", "DeptName": "Granada", "Admin3Name": "Valle de Lecrín", "CityName": "El Valle", "Population": 1013 }, "geometry": { "type": "Point", "coordinates": [ -3.591394, 36.93223 ] } },
{ "type": "Feature", "properties": { "RegionName": "Andalucía", "DeptName": "Granada", "Admin3Name": "Alpujarra Granadina", "CityName": "Nevada", "Population": 1123 }, "geometry": { "type": "Point", "coordinates": [ -3.0275802, 37.0337462 ] } },
{ "type": "Feature", "properties": { "RegionName": "Andalucía", "DeptName": "Granada", "Admin3Name": "Alpujarra Granadina", "CityName": "Alpujarra de la Sierra", "Population": 1041 }, "geometry": { "type": "Point", "coordinates": [ -3.1478514, 37.0091731 ] } },
{ "type": "Feature", "properties": { "RegionName": "Andalucía", "DeptName": "Granada", "Admin3Name": "Costa Tropical", "CityName": "Los Guajares", "Population": 1087 }, "geometry": { "type": "Point", "coordinates": [ -3.6116494, 36.8456748 ] } },
{ "type": "Feature", "properties": { "RegionName": "Andalucía", "DeptName": "Granada", "Admin3Name": "Guadix", "CityName": "Valle del Zalabí", "Population": 2229 }, "geometry": { "type": "Point", "coordinates": [ -3.0075642, 37.2912138 ] } },
{ "type": "Feature", "properties": { "RegionName": "Andalucía", "DeptName": "Granada", "Admin3Name": "Valle de Lecrín", "CityName": "Villamena", "Population": 1016 }, "geometry": { "type": "Point", "coordinates": [ -3.588935, 36.990354 ] } },
{ "type": "Feature", "properties": { "RegionName": "Andalucía", "DeptName": "Granada", "Admin3Name": "Baza", "CityName": "Cuevas del Campo", "Population": 1882 }, "geometry": { "type": "Point", "coordinates": [ -2.9313297, 37.606381 ] } },
{ "type": "Feature", "properties": { "RegionName": "Andalucía", "DeptName": "Granada", "Admin3Name": "Vega de Granada", "CityName": "Valderrubio", "Population": 2111 }, "geometry": { "type": "Point", "coordinates": [ -3.8182821, 37.2346241 ] } }
]
}
