{
"type": "FeatureCollection",
"crs": { "type": "name", "properties": { "name": "urn:ogc:def:crs:OGC:1.3:CRS84" } },
                                                                                
"features": [
{ "type": "Feature", "properties": { "RegionName": "Andalucía", "DeptName": "Almería", "Admin3Name": "Los Vélez", "CityName": "Vélez-Rubio", "Population": 6767 }, "geometry": { "type": "Point", "coordinates": [ -2.078777, 37.6496854 ] } },
{ "type": "Feature", "properties": { "RegionName": "Andalucía", "DeptName": "Almería", "Admin3Name": "Metropolitana de Almería", "CityName": "Viator", "Population": 5698 }, "geometry": { "type": "Point", "coordinates": [ -2.424577, 36.8878108 ] } },
{ "type": "Feature", "properties": { "RegionName": "Andalucía", "DeptName": "Almería", "Admin3Name": "Valle del Almanzora", "CityName": "Zurgena", "Population": 3030 }, "geometry": { "type": "Point", "coordinates": [ -2.0401779, 37.3418279 ] } },
{ "type": "Feature", "properties": { "RegionName": "Andalucía", "DeptName": "Almería", "Admin3Name": "Poniente Almeriense", "CityName": "La Mojonera", "Population": 8963 }, "geometry": { "type": "Point", "coordinates": [ -2.6822356, 36.7531816 ] } },
{ "type": "Feature", "properties": { "RegionName": "Andalucía", "DeptName": "Almería", "Admin3Name": "Los Filabres-Tabernas", "CityName": "Abla", "Population": 1342 }, "geometry": { "type": "Point", "coordinates": [ -2.777359, 37.1423439 ] } },
{ "type": "Feature", "properties": { "RegionName": "Andalucía", "DeptName": "Almería", "Admin3Name": "Los Filabres-Tabernas", "CityName": "Abrucena", "Population": 1279 }, "geometry": { "type": "Point", "coordinates": [ -2.7960332, 37.1338726 ] } },
{ "type": "Feature", "properties": { "RegionName": "Andalucía", "DeptName": "Almería", "Admin3Name": "Los Filabres-Tabernas", "CityName": "Alhama de Almería", "Population": 3763 }, "geometry": { "type": "Point", "coordinates": [ -2.5680946, 36.9573355 ] } },
{ "type": "Feature", "properties": { "RegionName": "Andalucía", "DeptName": "Almería", "Admin3Name": "Levante Almeriense", "CityName": "Antas", "Population": 3195 }, "geometry": { "type": "Point", "coordinates": [ -1.9187474, 37.2450356 ] } },
{ "type": "Feature", "properties": { "RegionName": "Andalucía", "DeptName": "Almería", "Admin3Name": "Valle del Almanzora", "CityName": "Arboleas", "Population": 4670 }, "geometry": { "type": "Point", "coordinates": [ -2.0732608, 37.3519392 ] } },
{ "type": "Feature", "properties": { "RegionName": "Andalucía", "DeptName": "Almería", "Admin3Name": "Metropolitana de Almería", "CityName": "Benahadux", "Population": 4183 }, "geometry": { "type": "Point", "coordinates": [ -2.461302, 36.926657 ] } },
{ "type": "Feature", "properties": { "RegionName": "Andalucía", "DeptName": "Almería", "Admin3Name": "Los Filabres-Tabernas", "CityName": "Canjáyar", "Population": 1342 }, "geometry": { "type": "Point", "coordinates": [ -2.7400328, 37.0091951 ] } },
{ "type": "Feature", "properties": { "RegionName": "Andalucía", "DeptName": "Almería", "Admin3Name": "Valle del Almanzora", "CityName": "Cantoria", "Population": 3580 }, "geometry": { "type": "Point", "coordinates": [ -2.1927313, 37.352402 ] } },
{ "type": "Feature", "properties": { "RegionName": "Andalucía", "DeptName": "Almería", "Admin3Name": "Levante Almeriense", "CityName": "Carboneras", "Population": 7838 }, "geometry": { "type": "Point", "coordinates": [ -1.8921411, 36.9991171 ] } },
{ "type": "Feature", "properties": { "RegionName": "Andalucía", "DeptName": "Almería", "Admin3Name": "Los Vélez", "CityName": "Chirivel", "Population": 1604 }, "geometry": { "type": "Point", "coordinates": [ -2.2663729, 37.596561 ] } },
{ "type": "Feature", "properties": { "RegionName": "Andalucía", "DeptName": "Almería", "Admin3Name": "Poniente Almeriense", "CityName": "Dalías", "Population": 3979 }, "geometry": { "type": "Point", "coordinates": [ -2.8708401, 36.8215191 ] } },
{ "type": "Feature", "properties": { "RegionName": "Andalucía", "DeptName": "Almería", "Admin3Name": "Valle del Almanzora", "CityName": "Fines", "Population": 2143 }, "geometry": { "type": "Point", "coordinates": [ -2.2633692, 37.3598033 ] } },
{ "type": "Feature", "properties": { "RegionName": "Andalucía", "DeptName": "Almería", "Admin3Name": "Los Filabres-Tabernas", "CityName": "Fiñana", "Population": 2134 }, "geometry": { "type": "Point", "coordinates": [ -2.8415046, 37.1709472 ] } },
{ "type": "Feature", "properties": { "RegionName": "Andalucía", "DeptName": "Almería", "Admin3Name": "Los Filabres-Tabernas", "CityName": "Fondón", "Population": 1020 }, "geometry": { "type": "Point", "coordinates": [ -2.8570871, 36.9809547 ] } },
{ "type": "Feature", "properties": { "RegionName": "Andalucía", "DeptName": "Almería", "Admin3Name": "Metropolitana de Almería", "CityName": "Gádor", "Population": 3027 }, "geometry": { "type": "Point", "coordinates": [ -2.4919499, 36.9529106 ] } },
{ "type": "Feature", "properties": { "RegionName": "Andalucía", "DeptName": "Almería", "Admin3Name": "Levante Almeriense", "CityName": "Los Gallardos", "Population": 2973 }, "geometry": { "type": "Point", "coordinates": [ -1.9401524, 37.1688999 ] } },
{ "type": "Feature", "properties": { "RegionName": "Andalucía", "DeptName": "Almería", "Admin3Name": "Levante Almeriense", "CityName": "Garrucha", "Population": 8577 }, "geometry": { "type": "Point", "coordinates": [ -1.8233007, 37.1802068 ] } },
{ "type": "Feature", "properties": { "RegionName": "Andalucía", "DeptName": "Almería", "Admin3Name": "Los Filabres-Tabernas", "CityName": "Gérgal", "Population": 1093 }, "geometry": { "type": "Point", "coordinates": [ -2.5414607, 37.1181546 ] } },
{ "type": "Feature", "properties": { "RegionName": "Andalucía", "DeptName": "Almería", "Admin3Name": "Los Filabres-Tabernas", "CityName": "Láujar de Andarax", "Population": 1574 }, "geometry": { "type": "Point", "coordinates": [ -2.8967509, 36.9937266 ] } },
{ "type": "Feature", "properties": { "RegionName": "Andalucía", "DeptName": "Almería", "Admin3Name": "Levante Almeriense", "CityName": "Lubrín", "Population": 1568 }, "geometry": { "type": "Point", "coordinates": [ -2.0671325, 37.215701 ] } },
{ "type": "Feature", "properties": { "RegionName": "Andalucía", "DeptName": "Almería", "Admin3Name": "Valle del Almanzora", "CityName": "Macael", "Population": 5676 }, "geometry": { "type": "Point", "coordinates": [ -2.3033621, 37.3320032 ] } },
{ "type": "Feature", "properties": { "RegionName": "Andalucía", "DeptName": "Almería", "Admin3Name": "Los Vélez", "CityName": "María", "Population": 1285 }, "geometry": { "type": "Point", "coordinates": [ -2.1659005, 37.710596 ] } },
{ "type": "Feature", "properties": { "RegionName": "Andalucía", "DeptName": "Almería", "Admin3Name": "Levante Almeriense", "CityName": "Mojácar", "Population": 6825 }, "geometry": { "type": "Point", "coordinates": [ -1.8507332, 37.140278599999988 ] } },
{ "type": "Feature", "properties": { "RegionName": "Andalucía", "DeptName": "Almería", "Admin3Name": "Valle del Almanzora", "CityName": "Olula del Río", "Population": 6259 }, "geometry": { "type": "Point", "coordinates": [ -2.2978133, 37.3553754 ] } },
{ "type": "Feature", "properties": { "RegionName": "Andalucía", "DeptName": "Almería", "Admin3Name": "Valle del Almanzora", "CityName": "Oria", "Population": 2428 }, "geometry": { "type": "Point", "coordinates": [ -2.2938229, 37.484629 ] } },
{ "type": "Feature", "properties": { "RegionName": "Andalucía", "DeptName": "Almería", "Admin3Name": "Metropolitana de Almería", "CityName": "Pechina", "Population": 3860 }, "geometry": { "type": "Point", "coordinates": [ -2.4403012, 36.9163957 ] } },
{ "type": "Feature", "properties": { "RegionName": "Andalucía", "DeptName": "Almería", "Admin3Name": "Levante Almeriense", "CityName": "Pulpí", "Population": 8762 }, "geometry": { "type": "Point", "coordinates": [ -1.7502311, 37.4058688 ] } },
{ "type": "Feature", "properties": { "RegionName": "Andalucía", "DeptName": "Almería", "Admin3Name": "Valle del Almanzora", "CityName": "Purchena", "Population": 1686 }, "geometry": { "type": "Point", "coordinates": [ -2.3603867, 37.3472466 ] } },
{ "type": "Feature", "properties": { "RegionName": "Andalucía", "DeptName": "Almería", "Admin3Name": "Metropolitana de Almería", "CityName": "Rioja", "Population": 1374 }, "geometry": { "type": "Point", "coordinates": [ -2.4631181, 36.9450225 ] } },
{ "type": "Feature", "properties": { "RegionName": "Andalucía", "DeptName": "Almería", "Admin3Name": "Valle del Almanzora", "CityName": "Serón", "Population": 2167 }, "geometry": { "type": "Point", "coordinates": [ -2.5088473, 37.3451668 ] } },
{ "type": "Feature", "properties": { "RegionName": "Andalucía", "DeptName": "Almería", "Admin3Name": "Levante Almeriense", "CityName": "Sorbas", "Population": 2608 }, "geometry": { "type": "Point", "coordinates": [ -2.1290671, 37.1001203 ] } },
{ "type": "Feature", "properties": { "RegionName": "Andalucía", "DeptName": "Almería", "Admin3Name": "Los Filabres-Tabernas", "CityName": "Tabernas", "Population": 3668 }, "geometry": { "type": "Point", "coordinates": [ -2.3900546, 37.0516792 ] } },
{ "type": "Feature", "properties": { "RegionName": "Andalucía", "DeptName": "Almería", "Admin3Name": "Valle del Almanzora", "CityName": "Tíjola", "Population": 3701 }, "geometry": { "type": "Point", "coordinates": [ -2.4369316, 37.3457002 ] } },
{ "type": "Feature", "properties": { "RegionName": "Andalucía", "DeptName": "Almería", "Admin3Name": "Levante Almeriense", "CityName": "Turre", "Population": 3346 }, "geometry": { "type": "Point", "coordinates": [ -1.8964922, 37.1549607 ] } },
{ "type": "Feature", "properties": { "RegionName": "Andalucía", "DeptName": "Almería", "Admin3Name": "Los Vélez", "CityName": "Vélez-Blanco", "Population": 2035 }, "geometry": { "type": "Point", "coordinates": [ -2.0953297, 37.6912699 ] } }
]
}
