{
"type": "FeatureCollection",
"crs": { "type": "name", "properties": { "name": "urn:ogc:def:crs:OGC:1.3:CRS84" } },
                                                                                
"features": [
{ "type": "Feature", "properties": { "RegionName": "Castilla y León", "DeptName": "Valladolid", "Admin3Name": "Tierra del Vino", "CityName": "Alaejos", "Population": 1418 }, "geometry": { "type": "Point", "coordinates": [ -5.2175331, 41.3069922 ] } },
{ "type": "Feature", "properties": { "RegionName": "Castilla y León", "DeptName": "Valladolid", "Admin3Name": "Tierra de Pinares", "CityName": "Aldeamayor de San Martín", "Population": 4968 }, "geometry": { "type": "Point", "coordinates": [ -4.6385779, 41.5116159 ] } },
{ "type": "Feature", "properties": { "RegionName": "Castilla y León", "DeptName": "Valladolid", "Admin3Name": "Tierra de Pinares", "CityName": "Boecillo", "Population": 4016 }, "geometry": { "type": "Point", "coordinates": [ -4.7005972, 41.5415157 ] } },
{ "type": "Feature", "properties": { "RegionName": "Castilla y León", "DeptName": "Valladolid", "Admin3Name": "Campiña del Pisuerga", "CityName": "Cabezón de Pisuerga", "Population": 3605 }, "geometry": { "type": "Point", "coordinates": [ -4.6459259, 41.7319292 ] } },
{ "type": "Feature", "properties": { "RegionName": "Castilla y León", "DeptName": "Valladolid", "Admin3Name": "Campo de Peñafiel", "CityName": "Campaspero", "Population": 1141 }, "geometry": { "type": "Point", "coordinates": [ -4.1949013, 41.492445 ] } },
{ "type": "Feature", "properties": { "RegionName": "Castilla y León", "DeptName": "Valladolid", "Admin3Name": "Tierra de Medina", "CityName": "Carpio", "Population": 1057 }, "geometry": { "type": "Point", "coordinates": [ -5.1085002, 41.2132233 ] } },
{ "type": "Feature", "properties": { "RegionName": "Castilla y León", "DeptName": "Valladolid", "Admin3Name": "Campiña del Pisuerga", "CityName": "Cigales", "Population": 5071 }, "geometry": { "type": "Point", "coordinates": [ -4.6980117, 41.7580541 ] } },
{ "type": "Feature", "properties": { "RegionName": "Castilla y León", "DeptName": "Valladolid", "Admin3Name": "Tierra de Pinares", "CityName": "Cistérniga", "Population": 8789 }, "geometry": { "type": "Point", "coordinates": [ -4.682501, 41.6095133 ] } },
{ "type": "Feature", "properties": { "RegionName": "Castilla y León", "DeptName": "Valladolid", "Admin3Name": "Campiña del Pisuerga", "CityName": "Fuensaldaña", "Population": 1518 }, "geometry": { "type": "Point", "coordinates": [ -4.7642856, 41.7080113 ] } },
{ "type": "Feature", "properties": { "RegionName": "Castilla y León", "DeptName": "Valladolid", "Admin3Name": "Tierra de Pinares", "CityName": "Íscar", "Population": 6536 }, "geometry": { "type": "Point", "coordinates": [ -4.5327917, 41.3609714 ] } },
{ "type": "Feature", "properties": { "RegionName": "Castilla y León", "DeptName": "Valladolid", "Admin3Name": "Tierra del Vino", "CityName": "Matapozuelos", "Population": 1016 }, "geometry": { "type": "Point", "coordinates": [ -4.7911681, 41.4130125 ] } },
{ "type": "Feature", "properties": { "RegionName": "Castilla y León", "DeptName": "Valladolid", "Admin3Name": "Tierra de Campos", "CityName": "Mayorga", "Population": 1689 }, "geometry": { "type": "Point", "coordinates": [ -5.2645259, 42.1662402 ] } },
{ "type": "Feature", "properties": { "RegionName": "Castilla y León", "DeptName": "Valladolid", "Admin3Name": "Tierra de Campos", "CityName": "Medina de Rioseco", "Population": 4821 }, "geometry": { "type": "Point", "coordinates": [ -5.0429558, 41.8823041 ] } },
{ "type": "Feature", "properties": { "RegionName": "Castilla y León", "DeptName": "Valladolid", "Admin3Name": "Tierra de Pinares", "CityName": "Mojados", "Population": 3135 }, "geometry": { "type": "Point", "coordinates": [ -4.6644107, 41.4307031 ] } },
{ "type": "Feature", "properties": { "RegionName": "Castilla y León", "DeptName": "Valladolid", "Admin3Name": "Tierra del Vino", "CityName": "Nava del Rey", "Population": 2125 }, "geometry": { "type": "Point", "coordinates": [ -5.0819935, 41.3305607 ] } },
{ "type": "Feature", "properties": { "RegionName": "Castilla y León", "DeptName": "Valladolid", "Admin3Name": "Tierra de Pinares", "CityName": "Olmedo", "Population": 3744 }, "geometry": { "type": "Point", "coordinates": [ -4.682501, 41.2849128 ] } },
{ "type": "Feature", "properties": { "RegionName": "Castilla y León", "DeptName": "Valladolid", "Admin3Name": "Tierra de Pinares", "CityName": "La Pedraja de Portillo", "Population": 1143 }, "geometry": { "type": "Point", "coordinates": [ -4.6463265, 41.4713831 ] } },
{ "type": "Feature", "properties": { "RegionName": "Castilla y León", "DeptName": "Valladolid", "Admin3Name": "Tierra de Pinares", "CityName": "Pedrajas de San Esteban", "Population": 3432 }, "geometry": { "type": "Point", "coordinates": [ -4.5843689, 41.3414211 ] } },
{ "type": "Feature", "properties": { "RegionName": "Castilla y León", "DeptName": "Valladolid", "Admin3Name": "Campo de Peñafiel", "CityName": "Peñafiel", "Population": 5419 }, "geometry": { "type": "Point", "coordinates": [ -4.1245115, 41.5984715 ] } },
{ "type": "Feature", "properties": { "RegionName": "Castilla y León", "DeptName": "Valladolid", "Admin3Name": "Tierra de Pinares", "CityName": "Portillo", "Population": 2441 }, "geometry": { "type": "Point", "coordinates": [ -4.5863041, 41.478155699999988 ] } },
{ "type": "Feature", "properties": { "RegionName": "Castilla y León", "DeptName": "Valladolid", "Admin3Name": "Campo de Peñafiel", "CityName": "Quintanilla de Onésimo", "Population": 1078 }, "geometry": { "type": "Point", "coordinates": [ -4.3629363, 41.6245538 ] } },
{ "type": "Feature", "properties": { "RegionName": "Castilla y León", "DeptName": "Valladolid", "Admin3Name": "Páramos del Esgueva", "CityName": "Renedo de Esgueva", "Population": 3620 }, "geometry": { "type": "Point", "coordinates": [ -4.6288938, 41.6546101 ] } },
{ "type": "Feature", "properties": { "RegionName": "Castilla y León", "DeptName": "Valladolid", "Admin3Name": "Tierra del Vino", "CityName": "Rueda", "Population": 1312 }, "geometry": { "type": "Point", "coordinates": [ -4.9597661, 41.4108743 ] } },
{ "type": "Feature", "properties": { "RegionName": "Castilla y León", "DeptName": "Valladolid", "Admin3Name": "Campiña del Pisuerga", "CityName": "Santovenia de Pisuerga", "Population": 4203 }, "geometry": { "type": "Point", "coordinates": [ -4.6902558, 41.6937789 ] } },
{ "type": "Feature", "properties": { "RegionName": "Castilla y León", "DeptName": "Valladolid", "Admin3Name": "Tierra del Vino", "CityName": "La Seca", "Population": 1107 }, "geometry": { "type": "Point", "coordinates": [ -4.9078352, 41.415596099999988 ] } },
{ "type": "Feature", "properties": { "RegionName": "Castilla y León", "DeptName": "Valladolid", "Admin3Name": "Tierra del Vino", "CityName": "Serrada", "Population": 1173 }, "geometry": { "type": "Point", "coordinates": [ -4.8621998, 41.4579476 ] } },
{ "type": "Feature", "properties": { "RegionName": "Castilla y León", "DeptName": "Valladolid", "Admin3Name": "Campiña del Pisuerga", "CityName": "Simancas", "Population": 5265 }, "geometry": { "type": "Point", "coordinates": [ -4.8300298, 41.5909697 ] } },
{ "type": "Feature", "properties": { "RegionName": "Castilla y León", "DeptName": "Valladolid", "Admin3Name": "Tierra del Vino", "CityName": "Tordesillas", "Population": 8936 }, "geometry": { "type": "Point", "coordinates": [ -4.9987459, 41.5015353 ] } },
{ "type": "Feature", "properties": { "RegionName": "Castilla y León", "DeptName": "Valladolid", "Admin3Name": "Tierra de Pinares", "CityName": "Traspinedo", "Population": 1076 }, "geometry": { "type": "Point", "coordinates": [ -4.4767572, 41.5759777 ] } },
{ "type": "Feature", "properties": { "RegionName": "Castilla y León", "DeptName": "Valladolid", "Admin3Name": "Tierra de Pinares", "CityName": "Tudela de Duero", "Population": 8683 }, "geometry": { "type": "Point", "coordinates": [ -4.5811439, 41.5843293 ] } },
{ "type": "Feature", "properties": { "RegionName": "Castilla y León", "DeptName": "Valladolid", "Admin3Name": "Tierra de Pinares", "CityName": "Valdestillas", "Population": 1732 }, "geometry": { "type": "Point", "coordinates": [ -4.7711002, 41.4793852 ] } },
{ "type": "Feature", "properties": { "RegionName": "Castilla y León", "DeptName": "Valladolid", "Admin3Name": "Tierra de Pinares", "CityName": "Viana de Cega", "Population": 2015 }, "geometry": { "type": "Point", "coordinates": [ -4.7510397, 41.5257347 ] } },
{ "type": "Feature", "properties": { "RegionName": "Castilla y León", "DeptName": "Valladolid", "Admin3Name": "Tierra de Campos", "CityName": "Villabrágima", "Population": 1061 }, "geometry": { "type": "Point", "coordinates": [ -5.115848, 41.8220989 ] } },
{ "type": "Feature", "properties": { "RegionName": "Castilla y León", "DeptName": "Valladolid", "Admin3Name": "Tierra de Campos", "CityName": "Villalón de Campos", "Population": 1716 }, "geometry": { "type": "Point", "coordinates": [ -5.0348832, 42.0988354 ] } },
{ "type": "Feature", "properties": { "RegionName": "Castilla y León", "DeptName": "Valladolid", "Admin3Name": "Montes Torozos", "CityName": "Villanubla", "Population": 2565 }, "geometry": { "type": "Point", "coordinates": [ -4.8411971, 41.6992471 ] } },
{ "type": "Feature", "properties": { "RegionName": "Castilla y León", "DeptName": "Valladolid", "Admin3Name": "Tierra de Pinares", "CityName": "Villanueva de Duero", "Population": 1193 }, "geometry": { "type": "Point", "coordinates": [ -4.8659945, 41.518873 ] } },
{ "type": "Feature", "properties": { "RegionName": "Castilla y León", "DeptName": "Valladolid", "Admin3Name": "Campiña del Pisuerga", "CityName": "Zaratán", "Population": 6124 }, "geometry": { "type": "Point", "coordinates": [ -4.783399, 41.6576216 ] } }
]
}
