{
"type": "FeatureCollection",
"crs": { "type": "name", "properties": { "name": "urn:ogc:def:crs:OGC:1.3:CRS84" } },
                                                                                
"features": [
{ "type": "Feature", "properties": { "RegionName": "Castilla-La Mancha", "DeptName": "Cuenca", "Admin3Name": "La Mancha", "CityName": "La Alberca de Záncara", "Population": 1723 }, "geometry": { "type": "Point", "coordinates": [ -2.4925685, 39.5141295 ] } },
{ "type": "Feature", "properties": { "RegionName": "Castilla-La Mancha", "DeptName": "Cuenca", "Admin3Name": "La Mancha", "CityName": "Belmonte", "Population": 2019 }, "geometry": { "type": "Point", "coordinates": [ -2.7055583, 39.5579559 ] } },
{ "type": "Feature", "properties": { "RegionName": "Castilla-La Mancha", "DeptName": "Cuenca", "Admin3Name": "La Mancha", "CityName": "Campillo de Altobuey", "Population": 1481 }, "geometry": { "type": "Point", "coordinates": [ -1.7964943, 39.6108783 ] } },
{ "type": "Feature", "properties": { "RegionName": "Castilla-La Mancha", "DeptName": "Cuenca", "Admin3Name": "La Mancha", "CityName": "Casas de Fernando Alonso", "Population": 1311 }, "geometry": { "type": "Point", "coordinates": [ -2.32586, 39.3506306 ] } },
{ "type": "Feature", "properties": { "RegionName": "Castilla-La Mancha", "DeptName": "Cuenca", "Admin3Name": "La Mancha", "CityName": "Casasimarro", "Population": 3144 }, "geometry": { "type": "Point", "coordinates": [ -2.0383407, 39.3896866 ] } },
{ "type": "Feature", "properties": { "RegionName": "Castilla-La Mancha", "DeptName": "Cuenca", "Admin3Name": "La Mancha", "CityName": "Fuente de Pedro Naharro", "Population": 1248 }, "geometry": { "type": "Point", "coordinates": [ -3.0113166, 39.9230123 ] } },
{ "type": "Feature", "properties": { "RegionName": "Castilla-La Mancha", "DeptName": "Cuenca", "Admin3Name": "La Mancha", "CityName": "Honrubia", "Population": 1650 }, "geometry": { "type": "Point", "coordinates": [ -2.2815069, 39.6127213 ] } },
{ "type": "Feature", "properties": { "RegionName": "Castilla-La Mancha", "DeptName": "Cuenca", "Admin3Name": "La Mancha", "CityName": "Horcajo de Santiago", "Population": 3689 }, "geometry": { "type": "Point", "coordinates": [ -2.9988098, 39.8437122 ] } },
{ "type": "Feature", "properties": { "RegionName": "Castilla-La Mancha", "DeptName": "Cuenca", "Admin3Name": "La Alcarria", "CityName": "Huete", "Population": 1862 }, "geometry": { "type": "Point", "coordinates": [ -2.6896893, 40.1435735 ] } },
{ "type": "Feature", "properties": { "RegionName": "Castilla-La Mancha", "DeptName": "Cuenca", "Admin3Name": "La Mancha", "CityName": "Iniesta", "Population": 4382 }, "geometry": { "type": "Point", "coordinates": [ -1.7492463, 39.4408362 ] } },
{ "type": "Feature", "properties": { "RegionName": "Castilla-La Mancha", "DeptName": "Cuenca", "Admin3Name": "Serranía de Cuenca", "CityName": "Landete", "Population": 1310 }, "geometry": { "type": "Point", "coordinates": [ -1.367422, 39.9077196 ] } },
{ "type": "Feature", "properties": { "RegionName": "Castilla-La Mancha", "DeptName": "Cuenca", "Admin3Name": "La Mancha", "CityName": "Ledaña", "Population": 1662 }, "geometry": { "type": "Point", "coordinates": [ -1.7186056, 39.3559601 ] } },
{ "type": "Feature", "properties": { "RegionName": "Castilla-La Mancha", "DeptName": "Cuenca", "Admin3Name": "La Mancha", "CityName": "Las Mesas", "Population": 2388 }, "geometry": { "type": "Point", "coordinates": [ -2.7642851, 39.3877846 ] } },
{ "type": "Feature", "properties": { "RegionName": "Castilla-La Mancha", "DeptName": "Cuenca", "Admin3Name": "La Mancha", "CityName": "Minglanilla", "Population": 2367 }, "geometry": { "type": "Point", "coordinates": [ -1.5959709, 39.5350097 ] } },
{ "type": "Feature", "properties": { "RegionName": "Castilla-La Mancha", "DeptName": "Cuenca", "Admin3Name": "La Mancha", "CityName": "Mota del Cuervo", "Population": 6172 }, "geometry": { "type": "Point", "coordinates": [ -2.8714275, 39.5015413 ] } },
{ "type": "Feature", "properties": { "RegionName": "Castilla-La Mancha", "DeptName": "Cuenca", "Admin3Name": "La Mancha", "CityName": "Motilla del Palancar", "Population": 5896 }, "geometry": { "type": "Point", "coordinates": [ -1.9111451, 39.562573 ] } },
{ "type": "Feature", "properties": { "RegionName": "Castilla-La Mancha", "DeptName": "Cuenca", "Admin3Name": "La Mancha", "CityName": "El Pedernoso", "Population": 1189 }, "geometry": { "type": "Point", "coordinates": [ -2.744386, 39.483918 ] } },
{ "type": "Feature", "properties": { "RegionName": "Castilla-La Mancha", "DeptName": "Cuenca", "Admin3Name": "La Mancha", "CityName": "Las Pedroñeras", "Population": 6816 }, "geometry": { "type": "Point", "coordinates": [ -2.6760251, 39.4480026 ] } },
{ "type": "Feature", "properties": { "RegionName": "Castilla-La Mancha", "DeptName": "Cuenca", "Admin3Name": "La Alcarria", "CityName": "Priego", "Population": 1014 }, "geometry": { "type": "Point", "coordinates": [ -2.3141515, 40.4495563 ] } },
{ "type": "Feature", "properties": { "RegionName": "Castilla-La Mancha", "DeptName": "Cuenca", "Admin3Name": "La Mancha", "CityName": "El Provencio", "Population": 2526 }, "geometry": { "type": "Point", "coordinates": [ -2.5713383, 39.3759745 ] } },
{ "type": "Feature", "properties": { "RegionName": "Castilla-La Mancha", "DeptName": "Cuenca", "Admin3Name": "La Mancha", "CityName": "Quintanar del Rey", "Population": 7576 }, "geometry": { "type": "Point", "coordinates": [ -1.9270246, 39.343635 ] } },
{ "type": "Feature", "properties": { "RegionName": "Castilla-La Mancha", "DeptName": "Cuenca", "Admin3Name": "La Mancha", "CityName": "San Clemente", "Population": 6754 }, "geometry": { "type": "Point", "coordinates": [ -2.428283, 39.4016527 ] } },
{ "type": "Feature", "properties": { "RegionName": "Castilla-La Mancha", "DeptName": "Cuenca", "Admin3Name": "La Mancha", "CityName": "San Lorenzo de la Parrilla", "Population": 1153 }, "geometry": { "type": "Point", "coordinates": [ -2.3603867, 39.8506996 ] } },
{ "type": "Feature", "properties": { "RegionName": "Castilla-La Mancha", "DeptName": "Cuenca", "Admin3Name": "La Mancha", "CityName": "Sisante", "Population": 1758 }, "geometry": { "type": "Point", "coordinates": [ -2.202764, 39.4074202 ] } },
{ "type": "Feature", "properties": { "RegionName": "Castilla-La Mancha", "DeptName": "Cuenca", "Admin3Name": "La Mancha", "CityName": "Valverde de Júcar", "Population": 1172 }, "geometry": { "type": "Point", "coordinates": [ -2.2224369, 39.7195872 ] } },
{ "type": "Feature", "properties": { "RegionName": "Castilla-La Mancha", "DeptName": "Cuenca", "Admin3Name": "La Mancha", "CityName": "Villamayor de Santiago", "Population": 2617 }, "geometry": { "type": "Point", "coordinates": [ -2.9254834, 39.7328822 ] } },
{ "type": "Feature", "properties": { "RegionName": "Castilla-La Mancha", "DeptName": "Cuenca", "Admin3Name": "La Mancha", "CityName": "Villanueva de la Jara", "Population": 2304 }, "geometry": { "type": "Point", "coordinates": [ -1.9551331, 39.4403083 ] } },
{ "type": "Feature", "properties": { "RegionName": "Castilla-La Mancha", "DeptName": "Cuenca", "Admin3Name": "Serranía de Cuenca", "CityName": "Villar de Olalla", "Population": 1236 }, "geometry": { "type": "Point", "coordinates": [ -2.1960034, 40.0150199 ] } },
{ "type": "Feature", "properties": { "RegionName": "Castilla-La Mancha", "DeptName": "Cuenca", "Admin3Name": "La Mancha", "CityName": "Las Valeras", "Population": 1632 }, "geometry": { "type": "Point", "coordinates": [ -2.1548473, 39.7865213 ] } },
{ "type": "Feature", "properties": { "RegionName": "Castilla-La Mancha", "DeptName": "Cuenca", "Admin3Name": "Serranía de Cuenca", "CityName": "Arcas", "Population": 1605 }, "geometry": { "type": "Point", "coordinates": [ -2.1140398, 39.988674499999988 ] } }
]
}
