{
"type": "FeatureCollection",
"crs": { "type": "name", "properties": { "name": "urn:ogc:def:crs:OGC:1.3:CRS84" } },
                                                                                
"features": [
{ "type": "Feature", "properties": { "RegionName": "Castilla y León", "DeptName": "Ávila", "Admin3Name": "Arenas de San Pedro", "CityName": "La Adrada", "Population": 2640 }, "geometry": { "type": "Point", "coordinates": [ -4.6365342, 40.2995582 ] } },
{ "type": "Feature", "properties": { "RegionName": "Castilla y León", "DeptName": "Ávila", "Admin3Name": "Arenas de San Pedro", "CityName": "El Arenal", "Population": 1011 }, "geometry": { "type": "Point", "coordinates": [ -5.0514, 40.1553 ] } },
{ "type": "Feature", "properties": { "RegionName": "Castilla y León", "DeptName": "Ávila", "Admin3Name": "Arenas de San Pedro", "CityName": "Arenas de San Pedro", "Population": 6671 }, "geometry": { "type": "Point", "coordinates": [ -5.0832952, 40.210266 ] } },
{ "type": "Feature", "properties": { "RegionName": "Castilla y León", "DeptName": "Ávila", "Admin3Name": "La Moraña", "CityName": "Arévalo", "Population": 8172 }, "geometry": { "type": "Point", "coordinates": [ -4.7187424, 41.058981 ] } },
{ "type": "Feature", "properties": { "RegionName": "Castilla y León", "DeptName": "Ávila", "Admin3Name": "El Barco de Ávila - Piedrahíta (Alto Tormes y Valle del Corneja)", "CityName": "El Barco de Ávila", "Population": 2576 }, "geometry": { "type": "Point", "coordinates": [ -5.5236746, 40.3569063 ] } },
{ "type": "Feature", "properties": { "RegionName": "Castilla y León", "DeptName": "Ávila", "Admin3Name": "Burgohondo - el Tiemblo - Cebreros (Valle del Alberche y Tierra de Pinares)", "CityName": "El Barraco", "Population": 1968 }, "geometry": { "type": "Point", "coordinates": [ -4.6437435, 40.4768722 ] } },
{ "type": "Feature", "properties": { "RegionName": "Castilla y León", "DeptName": "Ávila", "Admin3Name": "Burgohondo - el Tiemblo - Cebreros (Valle del Alberche y Tierra de Pinares)", "CityName": "Burgohondo", "Population": 1228 }, "geometry": { "type": "Point", "coordinates": [ -4.7859886, 40.4126337 ] } },
{ "type": "Feature", "properties": { "RegionName": "Castilla y León", "DeptName": "Ávila", "Admin3Name": "Arenas de San Pedro", "CityName": "Candeleda", "Population": 5104 }, "geometry": { "type": "Point", "coordinates": [ -5.2436354, 40.1559244 ] } },
{ "type": "Feature", "properties": { "RegionName": "Castilla y León", "DeptName": "Ávila", "Admin3Name": "Arenas de San Pedro", "CityName": "Casavieja", "Population": 1507 }, "geometry": { "type": "Point", "coordinates": [ -4.7678642, 40.2835768 ] } },
{ "type": "Feature", "properties": { "RegionName": "Castilla y León", "DeptName": "Ávila", "Admin3Name": "Burgohondo - el Tiemblo - Cebreros (Valle del Alberche y Tierra de Pinares)", "CityName": "Cebreros", "Population": 3232 }, "geometry": { "type": "Point", "coordinates": [ -4.4642944, 40.4610187 ] } },
{ "type": "Feature", "properties": { "RegionName": "Castilla y León", "DeptName": "Ávila", "Admin3Name": "Burgohondo - el Tiemblo - Cebreros (Valle del Alberche y Tierra de Pinares)", "CityName": "El Hoyo de Pinares", "Population": 2308 }, "geometry": { "type": "Point", "coordinates": [ -4.4220673, 40.5007886 ] } },
{ "type": "Feature", "properties": { "RegionName": "Castilla y León", "DeptName": "Ávila", "Admin3Name": "La Moraña", "CityName": "Madrigal de las Altas Torres", "Population": 1524 }, "geometry": { "type": "Point", "coordinates": [ -4.9980028, 41.0900993 ] } },
{ "type": "Feature", "properties": { "RegionName": "Castilla y León", "DeptName": "Ávila", "Admin3Name": "Arenas de San Pedro", "CityName": "Mombeltrán", "Population": 1171 }, "geometry": { "type": "Point", "coordinates": [ -5.0169458, 40.2603205 ] } },
{ "type": "Feature", "properties": { "RegionName": "Castilla y León", "DeptName": "Ávila", "Admin3Name": "Burgohondo - el Tiemblo - Cebreros (Valle del Alberche y Tierra de Pinares)", "CityName": "Navaluenga", "Population": 2017 }, "geometry": { "type": "Point", "coordinates": [ -4.7044758, 40.4096173 ] } },
{ "type": "Feature", "properties": { "RegionName": "Castilla y León", "DeptName": "Ávila", "Admin3Name": "Burgohondo - el Tiemblo - Cebreros (Valle del Alberche y Tierra de Pinares)", "CityName": "Las Navas del Marqués", "Population": 5420 }, "geometry": { "type": "Point", "coordinates": [ -4.3333954, 40.6018276 ] } },
{ "type": "Feature", "properties": { "RegionName": "Castilla y León", "DeptName": "Ávila", "Admin3Name": "El Barco de Ávila - Piedrahíta (Alto Tormes y Valle del Corneja)", "CityName": "Piedrahíta", "Population": 1884 }, "geometry": { "type": "Point", "coordinates": [ -5.3272431, 40.465206900000013 ] } },
{ "type": "Feature", "properties": { "RegionName": "Castilla y León", "DeptName": "Ávila", "Admin3Name": "Arenas de San Pedro", "CityName": "Piedralaves", "Population": 2208 }, "geometry": { "type": "Point", "coordinates": [ -4.6980117, 40.3169978 ] } },
{ "type": "Feature", "properties": { "RegionName": "Castilla y León", "DeptName": "Ávila", "Admin3Name": "Arenas de San Pedro", "CityName": "Sotillo de la Adrada", "Population": 4652 }, "geometry": { "type": "Point", "coordinates": [ -4.5804989, 40.2924071 ] } },
{ "type": "Feature", "properties": { "RegionName": "Castilla y León", "DeptName": "Ávila", "Admin3Name": "Burgohondo - el Tiemblo - Cebreros (Valle del Alberche y Tierra de Pinares)", "CityName": "El Tiemblo", "Population": 4231 }, "geometry": { "type": "Point", "coordinates": [ -4.4993148, 40.4130828 ] } }
]
}
