{
"type": "FeatureCollection",
"crs": { "type": "name", "properties": { "name": "urn:ogc:def:crs:OGC:1.3:CRS84" } },
                                                                                
"features": [
{ "type": "Feature", "properties": { "RegionName": "Castilla-La Mancha", "DeptName": "Toledo", "Admin3Name": "Vega de Toledo", "CityName": "Ajofrín", "Population": 2314 }, "geometry": { "type": "Point", "coordinates": [ -3.9814651, 39.711357799999988 ] } },
{ "type": "Feature", "properties": { "RegionName": "Castilla-La Mancha", "DeptName": "Toledo", "Admin3Name": "La Sagra", "CityName": "Alameda de la Sagra", "Population": 3478 }, "geometry": { "type": "Point", "coordinates": [ -3.7955865, 40.0128758 ] } },
{ "type": "Feature", "properties": { "RegionName": "Castilla-La Mancha", "DeptName": "Toledo", "Admin3Name": "La Jara", "CityName": "Alcaudete de la Jara", "Population": 1897 }, "geometry": { "type": "Point", "coordinates": [ -4.8689189, 39.7855952 ] } },
{ "type": "Feature", "properties": { "RegionName": "Castilla-La Mancha", "DeptName": "Toledo", "Admin3Name": "Escalona", "CityName": "Almorox", "Population": 2248 }, "geometry": { "type": "Point", "coordinates": [ -4.3886374, 40.2322653 ] } },
{ "type": "Feature", "properties": { "RegionName": "Castilla-La Mancha", "DeptName": "Toledo", "Admin3Name": "La Sagra", "CityName": "Añover de Tajo", "Population": 5191 }, "geometry": { "type": "Point", "coordinates": [ -3.7663657, 39.9894861 ] } },
{ "type": "Feature", "properties": { "RegionName": "Castilla-La Mancha", "DeptName": "Toledo", "Admin3Name": "Vega de Toledo", "CityName": "Argés", "Population": 6000 }, "geometry": { "type": "Point", "coordinates": [ -4.0580482, 39.8064459 ] } },
{ "type": "Feature", "properties": { "RegionName": "Castilla-La Mancha", "DeptName": "Toledo", "Admin3Name": "Mesa de Ocaña", "CityName": "Villasequilla", "Population": 2545 }, "geometry": { "type": "Point", "coordinates": [ -3.7320845, 39.8738761 ] } },
{ "type": "Feature", "properties": { "RegionName": "Castilla-La Mancha", "DeptName": "Toledo", "Admin3Name": "Mesa de Ocaña", "CityName": "Villatobas", "Population": 2515 }, "geometry": { "type": "Point", "coordinates": [ -3.3250413, 39.9016313 ] } },
{ "type": "Feature", "properties": { "RegionName": "Castilla-La Mancha", "DeptName": "Toledo", "Admin3Name": "La Sagra", "CityName": "El Viso de San Juan", "Population": 4263 }, "geometry": { "type": "Point", "coordinates": [ -3.9196432, 40.1437281 ] } },
{ "type": "Feature", "properties": { "RegionName": "Castilla-La Mancha", "DeptName": "Toledo", "Admin3Name": "Montes de Toledo", "CityName": "Los Yébenes", "Population": 6132 }, "geometry": { "type": "Point", "coordinates": [ -3.8693481, 39.5811405 ] } },
{ "type": "Feature", "properties": { "RegionName": "Castilla-La Mancha", "DeptName": "Toledo", "Admin3Name": "La Sagra", "CityName": "Yeles", "Population": 5038 }, "geometry": { "type": "Point", "coordinates": [ -3.8051187, 40.1206959 ] } },
{ "type": "Feature", "properties": { "RegionName": "Castilla-La Mancha", "DeptName": "Toledo", "Admin3Name": "Mesa de Ocaña", "CityName": "Yepes", "Population": 5055 }, "geometry": { "type": "Point", "coordinates": [ -3.6255798, 39.9029172 ] } },
{ "type": "Feature", "properties": { "RegionName": "Castilla-La Mancha", "DeptName": "Toledo", "Admin3Name": "La Sagra", "CityName": "Yuncler", "Population": 3594 }, "geometry": { "type": "Point", "coordinates": [ -3.9024482, 40.042626899999988 ] } },
{ "type": "Feature", "properties": { "RegionName": "Castilla-La Mancha", "DeptName": "Toledo", "Admin3Name": "Torrijos", "CityName": "Santo Domingo-Caudilla", "Population": 1021 }, "geometry": { "type": "Point", "coordinates": [ -4.3256918, 40.013552 ] } },
{ "type": "Feature", "properties": { "RegionName": "Castilla-La Mancha", "DeptName": "Toledo", "Admin3Name": "La Jara", "CityName": "Belvís de la Jara", "Population": 1663 }, "geometry": { "type": "Point", "coordinates": [ -4.9480774, 39.760413 ] } },
{ "type": "Feature", "properties": { "RegionName": "Castilla-La Mancha", "DeptName": "Toledo", "Admin3Name": "La Sagra", "CityName": "Borox", "Population": 3605 }, "geometry": { "type": "Point", "coordinates": [ -3.7388081, 40.0721403 ] } },
{ "type": "Feature", "properties": { "RegionName": "Castilla-La Mancha", "DeptName": "Toledo", "Admin3Name": "Vega de Toledo", "CityName": "Burguillos de Toledo", "Population": 3028 }, "geometry": { "type": "Point", "coordinates": [ -3.9916696, 39.7984624 ] } },
{ "type": "Feature", "properties": { "RegionName": "Castilla-La Mancha", "DeptName": "Toledo", "Admin3Name": "Vega de Toledo", "CityName": "Burujón", "Population": 1399 }, "geometry": { "type": "Point", "coordinates": [ -4.2987379, 39.9005006 ] } },
{ "type": "Feature", "properties": { "RegionName": "Castilla-La Mancha", "DeptName": "Toledo", "Admin3Name": "La Sagra", "CityName": "Cabañas de la Sagra", "Population": 1760 }, "geometry": { "type": "Point", "coordinates": [ -3.9483142, 40.0077856 ] } },
{ "type": "Feature", "properties": { "RegionName": "Castilla-La Mancha", "DeptName": "Toledo", "Admin3Name": "Campo de Arañuelo", "CityName": "Calera y Chozas", "Population": 4691 }, "geometry": { "type": "Point", "coordinates": [ -4.9805519, 39.8835326 ] } },
{ "type": "Feature", "properties": { "RegionName": "Castilla-La Mancha", "DeptName": "Toledo", "Admin3Name": "Torrijos", "CityName": "Camarena", "Population": 3776 }, "geometry": { "type": "Point", "coordinates": [ -4.1193959, 40.0914294 ] } },
{ "type": "Feature", "properties": { "RegionName": "Castilla-La Mancha", "DeptName": "Toledo", "Admin3Name": "La Mancha", "CityName": "Camuñas", "Population": 1824 }, "geometry": { "type": "Point", "coordinates": [ -3.4561456, 39.4287949 ] } },
{ "type": "Feature", "properties": { "RegionName": "Castilla-La Mancha", "DeptName": "Toledo", "Admin3Name": "Vega de Toledo", "CityName": "ElCarpio de Tajo", "Population": 2038 }, "geometry": { "type": "Point", "coordinates": [ -4.456805, 39.8881323 ] } },
{ "type": "Feature", "properties": { "RegionName": "Castilla-La Mancha", "DeptName": "Toledo", "Admin3Name": "La Sagra", "CityName": "Carranque", "Population": 4545 }, "geometry": { "type": "Point", "coordinates": [ -3.8999013, 40.1705846 ] } },
{ "type": "Feature", "properties": { "RegionName": "Castilla-La Mancha", "DeptName": "Toledo", "Admin3Name": "Vega de Talavera de la Reina", "CityName": "El Casar de Escalona", "Population": 1986 }, "geometry": { "type": "Point", "coordinates": [ -4.5225009, 40.0469928 ] } },
{ "type": "Feature", "properties": { "RegionName": "Castilla-La Mancha", "DeptName": "Toledo", "Admin3Name": "La Sagra", "CityName": "Casarrubios del Monte", "Population": 5319 }, "geometry": { "type": "Point", "coordinates": [ -4.0362101, 40.1836187 ] } },
{ "type": "Feature", "properties": { "RegionName": "Castilla-La Mancha", "DeptName": "Toledo", "Admin3Name": "Vega de Talavera de la Reina", "CityName": "Cazalegas", "Population": 1730 }, "geometry": { "type": "Point", "coordinates": [ -4.6773317, 40.0088802 ] } },
{ "type": "Feature", "properties": { "RegionName": "Castilla-La Mancha", "DeptName": "Toledo", "Admin3Name": "Vega de Talavera de la Reina", "CityName": "Cebolla", "Population": 3527 }, "geometry": { "type": "Point", "coordinates": [ -4.5688906, 39.9466014 ] } },
{ "type": "Feature", "properties": { "RegionName": "Castilla-La Mancha", "DeptName": "Toledo", "Admin3Name": "La Sagra", "CityName": "Cedillo del Condado", "Population": 3604 }, "geometry": { "type": "Point", "coordinates": [ -3.9253761, 40.116053 ] } },
{ "type": "Feature", "properties": { "RegionName": "Castilla-La Mancha", "DeptName": "Toledo", "Admin3Name": "La Sagra", "CityName": "Cobeja", "Population": 2196 }, "geometry": { "type": "Point", "coordinates": [ -3.8591678, 40.0235879 ] } },
{ "type": "Feature", "properties": { "RegionName": "Castilla-La Mancha", "DeptName": "Toledo", "Admin3Name": "Vega de Toledo", "CityName": "Cobisa", "Population": 4154 }, "geometry": { "type": "Point", "coordinates": [ -4.0248483, 39.8050296 ] } },
{ "type": "Feature", "properties": { "RegionName": "Castilla-La Mancha", "DeptName": "Toledo", "Admin3Name": "La Mancha", "CityName": "Corral de Almaguer", "Population": 5677 }, "geometry": { "type": "Point", "coordinates": [ -3.1704355, 39.7607239 ] } },
{ "type": "Feature", "properties": { "RegionName": "Castilla-La Mancha", "DeptName": "Toledo", "Admin3Name": "Vega de Toledo", "CityName": "Cuerva", "Population": 1400 }, "geometry": { "type": "Point", "coordinates": [ -4.2115526, 39.6646381 ] } },
{ "type": "Feature", "properties": { "RegionName": "Castilla-La Mancha", "DeptName": "Toledo", "Admin3Name": "La Sagra", "CityName": "Chozas de Canales", "Population": 3763 }, "geometry": { "type": "Point", "coordinates": [ -4.0452765, 40.0991509 ] } },
{ "type": "Feature", "properties": { "RegionName": "Castilla-La Mancha", "DeptName": "Toledo", "Admin3Name": "Mesa de Ocaña", "CityName": "Dosbarrios", "Population": 2255 }, "geometry": { "type": "Point", "coordinates": [ -3.4805705, 39.8829302 ] } },
{ "type": "Feature", "properties": { "RegionName": "Castilla-La Mancha", "DeptName": "Toledo", "Admin3Name": "Torrijos", "CityName": "Escalona", "Population": 3306 }, "geometry": { "type": "Point", "coordinates": [ -4.2419, 40.1015 ] } },
{ "type": "Feature", "properties": { "RegionName": "Castilla-La Mancha", "DeptName": "Toledo", "Admin3Name": "Torrijos", "CityName": "Escalonilla", "Population": 1470 }, "geometry": { "type": "Point", "coordinates": [ -4.3485386, 39.925328 ] } },
{ "type": "Feature", "properties": { "RegionName": "Castilla-La Mancha", "DeptName": "Toledo", "Admin3Name": "La Sagra", "CityName": "Esquivias", "Population": 5389 }, "geometry": { "type": "Point", "coordinates": [ -3.7676359, 40.1033769 ] } },
{ "type": "Feature", "properties": { "RegionName": "Castilla-La Mancha", "DeptName": "Toledo", "Admin3Name": "Vega de Toledo", "CityName": "Gálvez", "Population": 3187 }, "geometry": { "type": "Point", "coordinates": [ -4.2717977, 39.6997756 ] } },
{ "type": "Feature", "properties": { "RegionName": "Castilla-La Mancha", "DeptName": "Toledo", "Admin3Name": "Torrijos", "CityName": "Gerindote", "Population": 2427 }, "geometry": { "type": "Point", "coordinates": [ -4.3025876, 39.9657403 ] } },
{ "type": "Feature", "properties": { "RegionName": "Castilla-La Mancha", "DeptName": "Toledo", "Admin3Name": "Vega de Toledo", "CityName": "Guadamur", "Population": 1864 }, "geometry": { "type": "Point", "coordinates": [ -4.1475378, 39.8109979 ] } },
{ "type": "Feature", "properties": { "RegionName": "Castilla-La Mancha", "DeptName": "Toledo", "Admin3Name": "Mesa de Ocaña", "CityName": "La Guardia", "Population": 2329 }, "geometry": { "type": "Point", "coordinates": [ -3.473821, 39.786795 ] } },
{ "type": "Feature", "properties": { "RegionName": "Castilla-La Mancha", "DeptName": "Toledo", "Admin3Name": "Mesa de Ocaña", "CityName": "Huerta de Valdecarábanos", "Population": 1798 }, "geometry": { "type": "Point", "coordinates": [ -3.6122825, 39.862893 ] } },
{ "type": "Feature", "properties": { "RegionName": "Castilla-La Mancha", "DeptName": "Toledo", "Admin3Name": "Campo de Arañuelo", "CityName": "Lagartera", "Population": 1503 }, "geometry": { "type": "Point", "coordinates": [ -5.2018774, 39.907158 ] } },
{ "type": "Feature", "properties": { "RegionName": "Castilla-La Mancha", "DeptName": "Toledo", "Admin3Name": "La Mancha", "CityName": "Lillo", "Population": 2813 }, "geometry": { "type": "Point", "coordinates": [ -3.3049024, 39.7222339 ] } },
{ "type": "Feature", "properties": { "RegionName": "Castilla-La Mancha", "DeptName": "Toledo", "Admin3Name": "La Sagra", "CityName": "Lominchar", "Population": 2342 }, "geometry": { "type": "Point", "coordinates": [ -3.9687122, 40.091562499999988 ] } },
{ "type": "Feature", "properties": { "RegionName": "Castilla-La Mancha", "DeptName": "Toledo", "Admin3Name": "Vega de Toledo", "CityName": "Magán", "Population": 3202 }, "geometry": { "type": "Point", "coordinates": [ -3.933021, 39.9596149 ] } },
{ "type": "Feature", "properties": { "RegionName": "Castilla-La Mancha", "DeptName": "Toledo", "Admin3Name": "Vega de Talavera de la Reina", "CityName": "Malpica de Tajo", "Population": 1861 }, "geometry": { "type": "Point", "coordinates": [ -4.5480116, 39.8975511 ] } },
{ "type": "Feature", "properties": { "RegionName": "Castilla-La Mancha", "DeptName": "Toledo", "Admin3Name": "Vega de Toledo", "CityName": "Mazarambroz", "Population": 1287 }, "geometry": { "type": "Point", "coordinates": [ -4.0197425, 39.694596 ] } },
{ "type": "Feature", "properties": { "RegionName": "Castilla-La Mancha", "DeptName": "Toledo", "Admin3Name": "Sierra de San Vicente", "CityName": "Mejorada", "Population": 1294 }, "geometry": { "type": "Point", "coordinates": [ -4.8857793, 40.0092529 ] } },
{ "type": "Feature", "properties": { "RegionName": "Castilla-La Mancha", "DeptName": "Toledo", "Admin3Name": "Vega de Toledo", "CityName": "Menasalbas", "Population": 2814 }, "geometry": { "type": "Point", "coordinates": [ -4.2833418, 39.6414112 ] } },
{ "type": "Feature", "properties": { "RegionName": "Castilla-La Mancha", "DeptName": "Toledo", "Admin3Name": "Escalona", "CityName": "Méntrida", "Population": 4984 }, "geometry": { "type": "Point", "coordinates": [ -4.1936206, 40.2394809 ] } },
{ "type": "Feature", "properties": { "RegionName": "Castilla-La Mancha", "DeptName": "Toledo", "Admin3Name": "La Mancha", "CityName": "Miguel Esteban", "Population": 5080 }, "geometry": { "type": "Point", "coordinates": [ -3.0751517, 39.526064 ] } },
{ "type": "Feature", "properties": { "RegionName": "Castilla-La Mancha", "DeptName": "Toledo", "Admin3Name": "Vega de Toledo", "CityName": "Mocejón", "Population": 4874 }, "geometry": { "type": "Point", "coordinates": [ -3.9190062, 39.9382934 ] } },
{ "type": "Feature", "properties": { "RegionName": "Castilla-La Mancha", "DeptName": "Toledo", "Admin3Name": "Vega de Toledo", "CityName": "Nambroca", "Population": 4442 }, "geometry": { "type": "Point", "coordinates": [ -3.945765, 39.7974582 ] } },
{ "type": "Feature", "properties": { "RegionName": "Castilla-La Mancha", "DeptName": "Toledo", "Admin3Name": "Vega de Toledo", "CityName": "Navahermosa", "Population": 3878 }, "geometry": { "type": "Point", "coordinates": [ -4.4722512, 39.6355945 ] } },
{ "type": "Feature", "properties": { "RegionName": "Castilla-La Mancha", "DeptName": "Toledo", "Admin3Name": "Sierra de San Vicente", "CityName": "Navalcán", "Population": 2166 }, "geometry": { "type": "Point", "coordinates": [ -5.0950121, 40.0680392 ] } },
{ "type": "Feature", "properties": { "RegionName": "Castilla-La Mancha", "DeptName": "Toledo", "Admin3Name": "La Jara", "CityName": "Los Navalmorales", "Population": 2757 }, "geometry": { "type": "Point", "coordinates": [ -4.6411607, 39.7255072 ] } },
{ "type": "Feature", "properties": { "RegionName": "Castilla-La Mancha", "DeptName": "Toledo", "Admin3Name": "La Jara", "CityName": "Los Navalucillos", "Population": 2357 }, "geometry": { "type": "Point", "coordinates": [ -4.6424521, 39.664984 ] } },
{ "type": "Feature", "properties": { "RegionName": "Castilla-La Mancha", "DeptName": "Toledo", "Admin3Name": "Mesa de Ocaña", "CityName": "Noblejas", "Population": 3534 }, "geometry": { "type": "Point", "coordinates": [ -3.4410005, 39.977787600000013 ] } },
{ "type": "Feature", "properties": { "RegionName": "Castilla-La Mancha", "DeptName": "Toledo", "Admin3Name": "Torrijos", "CityName": "Novés", "Population": 2727 }, "geometry": { "type": "Point", "coordinates": [ -4.2730802, 40.0474984 ] } },
{ "type": "Feature", "properties": { "RegionName": "Castilla-La Mancha", "DeptName": "Toledo", "Admin3Name": "La Sagra", "CityName": "Numancia de la Sagra", "Population": 4763 }, "geometry": { "type": "Point", "coordinates": [ -3.8570215, 40.0770092 ] } },
{ "type": "Feature", "properties": { "RegionName": "Castilla-La Mancha", "DeptName": "Toledo", "Admin3Name": "Vega de Toledo", "CityName": "Olías del Rey", "Population": 7229 }, "geometry": { "type": "Point", "coordinates": [ -3.9865671, 39.9449708 ] } },
{ "type": "Feature", "properties": { "RegionName": "Castilla-La Mancha", "DeptName": "Toledo", "Admin3Name": "Mesa de Ocaña", "CityName": "Ontígola", "Population": 4232 }, "geometry": { "type": "Point", "coordinates": [ -3.5724118, 40.0097043 ] } },
{ "type": "Feature", "properties": { "RegionName": "Castilla-La Mancha", "DeptName": "Toledo", "Admin3Name": "Vega de Toledo", "CityName": "Orgaz", "Population": 2738 }, "geometry": { "type": "Point", "coordinates": [ -3.8769847, 39.6479222 ] } },
{ "type": "Feature", "properties": { "RegionName": "Castilla-La Mancha", "DeptName": "Toledo", "Admin3Name": "Plana Alta", "CityName": "Oropesa", "Population": 2771 }, "geometry": { "type": "Point", "coordinates": [ -5.174716, 39.917539 ] } },
{ "type": "Feature", "properties": { "RegionName": "Castilla-La Mancha", "DeptName": "Toledo", "Admin3Name": "La Sagra", "CityName": "Pantoja", "Population": 3409 }, "geometry": { "type": "Point", "coordinates": [ -3.8362694, 40.0448315 ] } },
{ "type": "Feature", "properties": { "RegionName": "Castilla-La Mancha", "DeptName": "Toledo", "Admin3Name": "Sierra de San Vicente", "CityName": "Pepino", "Population": 2714 }, "geometry": { "type": "Point", "coordinates": [ -4.8021761, 40.0325745 ] } },
{ "type": "Feature", "properties": { "RegionName": "Castilla-La Mancha", "DeptName": "Toledo", "Admin3Name": "Vega de Toledo", "CityName": "Polán", "Population": 3851 }, "geometry": { "type": "Point", "coordinates": [ -4.168014, 39.7871361 ] } },
{ "type": "Feature", "properties": { "RegionName": "Castilla-La Mancha", "DeptName": "Toledo", "Admin3Name": "Torrijos", "CityName": "Portillo de Toledo", "Population": 2187 }, "geometry": { "type": "Point", "coordinates": [ -4.2269278, 40.0619825 ] } },
{ "type": "Feature", "properties": { "RegionName": "Castilla-La Mancha", "DeptName": "Toledo", "Admin3Name": "La Mancha", "CityName": "La Puebla de Almoradiel", "Population": 5546 }, "geometry": { "type": "Point", "coordinates": [ -3.1202628, 39.5971578 ] } },
{ "type": "Feature", "properties": { "RegionName": "Castilla-La Mancha", "DeptName": "Toledo", "Admin3Name": "Vega de Toledo", "CityName": "La Puebla de Montalbán", "Population": 8063 }, "geometry": { "type": "Point", "coordinates": [ -4.3593203, 39.8643515 ] } },
{ "type": "Feature", "properties": { "RegionName": "Castilla-La Mancha", "DeptName": "Toledo", "Admin3Name": "Vega de Talavera de la Reina", "CityName": "La Pueblanueva", "Population": 2304 }, "geometry": { "type": "Point", "coordinates": [ -4.6769296, 39.9143267 ] } },
{ "type": "Feature", "properties": { "RegionName": "Castilla-La Mancha", "DeptName": "Toledo", "Admin3Name": "Campo de Arañuelo", "CityName": "El Puente del Arzobispo", "Population": 1337 }, "geometry": { "type": "Point", "coordinates": [ -5.1718763, 39.8029636 ] } },
{ "type": "Feature", "properties": { "RegionName": "Castilla-La Mancha", "DeptName": "Toledo", "Admin3Name": "Vega de Toledo", "CityName": "Pulgar", "Population": 1603 }, "geometry": { "type": "Point", "coordinates": [ -4.1526561, 39.692504199999988 ] } },
{ "type": "Feature", "properties": { "RegionName": "Castilla-La Mancha", "DeptName": "Toledo", "Admin3Name": "La Mancha", "CityName": "Quero", "Population": 1084 }, "geometry": { "type": "Point", "coordinates": [ -3.2470488, 39.5097777 ] } },
{ "type": "Feature", "properties": { "RegionName": "Castilla-La Mancha", "DeptName": "Toledo", "Admin3Name": "Escalona", "CityName": "Quismondo", "Population": 1568 }, "geometry": { "type": "Point", "coordinates": [ -4.3244079, 40.1069869 ] } },
{ "type": "Feature", "properties": { "RegionName": "Castilla-La Mancha", "DeptName": "Toledo", "Admin3Name": "Sierra de San Vicente", "CityName": "El Real de San Vicente", "Population": 1031 }, "geometry": { "type": "Point", "coordinates": [ -4.6902558, 40.1362192 ] } },
{ "type": "Feature", "properties": { "RegionName": "Castilla-La Mancha", "DeptName": "Toledo", "Admin3Name": "La Sagra", "CityName": "Recas", "Population": 4311 }, "geometry": { "type": "Point", "coordinates": [ -3.990394, 40.0537177 ] } },
{ "type": "Feature", "properties": { "RegionName": "Castilla-La Mancha", "DeptName": "Toledo", "Admin3Name": "Montes de Toledo", "CityName": "San Pablo de los Montes", "Population": 1910 }, "geometry": { "type": "Point", "coordinates": [ -4.3321114, 39.5416294 ] } },
{ "type": "Feature", "properties": { "RegionName": "Castilla-La Mancha", "DeptName": "Toledo", "Admin3Name": "Sierra de San Vicente", "CityName": "San Román de los Montes", "Population": 1855 }, "geometry": { "type": "Point", "coordinates": [ -4.73228, 40.068699 ] } },
{ "type": "Feature", "properties": { "RegionName": "Castilla-La Mancha", "DeptName": "Toledo", "Admin3Name": "Mesa de Ocaña", "CityName": "Santa Cruz de la Zarza", "Population": 4426 }, "geometry": { "type": "Point", "coordinates": [ -3.1888765, 39.9810073 ] } },
{ "type": "Feature", "properties": { "RegionName": "Castilla-La Mancha", "DeptName": "Toledo", "Admin3Name": "Escalona", "CityName": "Santa Cruz del Retamar", "Population": 2901 }, "geometry": { "type": "Point", "coordinates": [ -4.2423075, 40.1176861 ] } },
{ "type": "Feature", "properties": { "RegionName": "Castilla-La Mancha", "DeptName": "Toledo", "Admin3Name": "Vega de Talavera de la Reina", "CityName": "Santa Olalla", "Population": 3277 }, "geometry": { "type": "Point", "coordinates": [ -4.4297848, 40.0237088 ] } },
{ "type": "Feature", "properties": { "RegionName": "Castilla-La Mancha", "DeptName": "Toledo", "Admin3Name": "Sierra de San Vicente", "CityName": "Segurilla", "Population": 1318 }, "geometry": { "type": "Point", "coordinates": [ -4.8663254, 40.0215865 ] } },
{ "type": "Feature", "properties": { "RegionName": "Castilla-La Mancha", "DeptName": "Toledo", "Admin3Name": "La Mancha", "CityName": "Tembleque", "Population": 2149 }, "geometry": { "type": "Point", "coordinates": [ -3.5041358, 39.6958069 ] } },
{ "type": "Feature", "properties": { "RegionName": "Castilla-La Mancha", "DeptName": "Toledo", "Admin3Name": "La Mancha", "CityName": "El Toboso", "Population": 1964 }, "geometry": { "type": "Point", "coordinates": [ -2.9963089, 39.5139061 ] } },
{ "type": "Feature", "properties": { "RegionName": "Castilla-La Mancha", "DeptName": "Toledo", "Admin3Name": "Escalona", "CityName": "La Torre de Esteban Hambrán", "Population": 1770 }, "geometry": { "type": "Point", "coordinates": [ -4.2154664, 40.1663643 ] } },
{ "type": "Feature", "properties": { "RegionName": "Castilla-La Mancha", "DeptName": "Toledo", "Admin3Name": "La Sagra", "CityName": "Ugena", "Population": 5282 }, "geometry": { "type": "Point", "coordinates": [ -3.8769847, 40.1585774 ] } },
{ "type": "Feature", "properties": { "RegionName": "Castilla-La Mancha", "DeptName": "Toledo", "Admin3Name": "La Mancha", "CityName": "Urda", "Population": 2830 }, "geometry": { "type": "Point", "coordinates": [ -3.7168558, 39.4130182 ] } },
{ "type": "Feature", "properties": { "RegionName": "Castilla-La Mancha", "DeptName": "Toledo", "Admin3Name": "Escalona", "CityName": "Valmojado", "Population": 4079 }, "geometry": { "type": "Point", "coordinates": [ -4.088713, 40.2049459 ] } },
{ "type": "Feature", "properties": { "RegionName": "Castilla-La Mancha", "DeptName": "Toledo", "Admin3Name": "Sierra de San Vicente", "CityName": "Velada", "Population": 2893 }, "geometry": { "type": "Point", "coordinates": [ -4.9738968, 39.9768943 ] } },
{ "type": "Feature", "properties": { "RegionName": "Castilla-La Mancha", "DeptName": "Toledo", "Admin3Name": "Montes de Toledo", "CityName": "Las Ventas con Peña Aguilera", "Population": 1206 }, "geometry": { "type": "Point", "coordinates": [ -4.2301461, 39.611218 ] } },
{ "type": "Feature", "properties": { "RegionName": "Castilla-La Mancha", "DeptName": "Toledo", "Admin3Name": "Torrijos", "CityName": "Las Ventas de Retamosa", "Population": 3382 }, "geometry": { "type": "Point", "coordinates": [ -4.1141353, 40.1550113 ] } },
{ "type": "Feature", "properties": { "RegionName": "Castilla-La Mancha", "DeptName": "Toledo", "Admin3Name": "La Mancha", "CityName": "La Villa de Don Fadrique", "Population": 3918 }, "geometry": { "type": "Point", "coordinates": [ -3.2169622, 39.6143232 ] } },
{ "type": "Feature", "properties": { "RegionName": "Castilla-La Mancha", "DeptName": "Toledo", "Admin3Name": "La Mancha", "CityName": "Villafranca de los Caballeros", "Population": 5196 }, "geometry": { "type": "Point", "coordinates": [ -3.3575832, 39.4261754 ] } },
{ "type": "Feature", "properties": { "RegionName": "Castilla-La Mancha", "DeptName": "Toledo", "Admin3Name": "La Sagra", "CityName": "Villaluenga de la Sagra", "Population": 3857 }, "geometry": { "type": "Point", "coordinates": [ -3.9100897, 40.0270069 ] } },
{ "type": "Feature", "properties": { "RegionName": "Castilla-La Mancha", "DeptName": "Toledo", "Admin3Name": "La Mancha", "CityName": "Villanueva de Alcardete", "Population": 3503 }, "geometry": { "type": "Point", "coordinates": [ -3.0150692, 39.6721357 ] } },
{ "type": "Feature", "properties": { "RegionName": "Castilla-La Mancha", "DeptName": "Toledo", "Admin3Name": "Mesa de Ocaña", "CityName": "Villarrubia de Santiago", "Population": 2665 }, "geometry": { "type": "Point", "coordinates": [ -3.3678641, 39.9850571 ] } },
{ "type": "Feature", "properties": { "RegionName": "Castilla-La Mancha", "DeptName": "Toledo", "Admin3Name": "La Sagra", "CityName": "Villaseca de la Sagra", "Population": 1808 }, "geometry": { "type": "Point", "coordinates": [ -3.8820764, 39.9613279 ] } }
]
}
