{
"type": "FeatureCollection",
"crs": { "type": "name", "properties": { "name": "urn:ogc:def:crs:OGC:1.3:CRS84" } },
                                                                                
"features": [
{ "type": "Feature", "properties": { "RegionName": "Catalunya", "DeptName": "Lleida", "Admin3Name": "El Pla d'Urgell", "CityName": "Linyola", "Population": 2652 }, "geometry": { "type": "Point", "coordinates": [ 0.9020843, 41.7110719 ] } },
{ "type": "Feature", "properties": { "RegionName": "Catalunya", "DeptName": "Lleida", "Admin3Name": "El Pla d'Urgell", "CityName": "Miralcamp", "Population": 1390 }, "geometry": { "type": "Point", "coordinates": [ 0.8782392, 41.6040772 ] } },
{ "type": "Feature", "properties": { "RegionName": "Catalunya", "DeptName": "Lleida", "Admin3Name": "L'Alt Urgell", "CityName": "Montferrer i Castellbò", "Population": 1010 }, "geometry": { "type": "Point", "coordinates": [ 1.3469247, 42.3662806 ] } },
{ "type": "Feature", "properties": { "RegionName": "Catalunya", "DeptName": "Lleida", "Admin3Name": "L'Alt Urgell", "CityName": "Oliana", "Population": 1842 }, "geometry": { "type": "Point", "coordinates": [ 1.3143906, 42.0669699 ] } },
{ "type": "Feature", "properties": { "RegionName": "Catalunya", "DeptName": "Lleida", "Admin3Name": "El Pla d'Urgell", "CityName": "El Palau d'Anglesola", "Population": 2136 }, "geometry": { "type": "Point", "coordinates": [ 0.8812324, 41.650146799999987 ] } },
{ "type": "Feature", "properties": { "RegionName": "Catalunya", "DeptName": "Lleida", "Admin3Name": "El Pallars Jussà", "CityName": "La Pobla de Segur", "Population": 3016 }, "geometry": { "type": "Point", "coordinates": [ 0.9675847, 42.2477193 ] } },
{ "type": "Feature", "properties": { "RegionName": "Catalunya", "DeptName": "Lleida", "Admin3Name": "La Noguera", "CityName": "Ponts", "Population": 2632 }, "geometry": { "type": "Point", "coordinates": [ 1.1845051, 41.9148004 ] } },
{ "type": "Feature", "properties": { "RegionName": "Catalunya", "DeptName": "Lleida", "Admin3Name": "L'Alta Ribagorça", "CityName": "El Pont de Suert", "Population": 2314 }, "geometry": { "type": "Point", "coordinates": [ 0.7408063, 42.4080464 ] } },
{ "type": "Feature", "properties": { "RegionName": "Catalunya", "DeptName": "Lleida", "Admin3Name": "El Segrià", "CityName": "Puigverd de Lleida", "Population": 1405 }, "geometry": { "type": "Point", "coordinates": [ 0.7329377, 41.5433639 ] } },
{ "type": "Feature", "properties": { "RegionName": "Catalunya", "DeptName": "Lleida", "Admin3Name": "El Segrià", "CityName": "Rosselló", "Population": 3043 }, "geometry": { "type": "Point", "coordinates": [ 0.5949571, 41.6938394 ] } },
{ "type": "Feature", "properties": { "RegionName": "Catalunya", "DeptName": "Lleida", "Admin3Name": "La Segarra", "CityName": "Sant Guim de Freixenet", "Population": 1078 }, "geometry": { "type": "Point", "coordinates": [ 1.4205199, 41.6560285 ] } },
{ "type": "Feature", "properties": { "RegionName": "Catalunya", "DeptName": "Lleida", "Admin3Name": "El Segrià", "CityName": "Seròs", "Population": 1886 }, "geometry": { "type": "Point", "coordinates": [ 0.4107509, 41.4636641 ] } },
{ "type": "Feature", "properties": { "RegionName": "Catalunya", "DeptName": "Lleida", "Admin3Name": "El Solsonès", "CityName": "Solsona", "Population": 9004 }, "geometry": { "type": "Point", "coordinates": [ 1.515464, 41.9933358 ] } },
{ "type": "Feature", "properties": { "RegionName": "Catalunya", "DeptName": "Lleida", "Admin3Name": "El Pallars Sobirà", "CityName": "Sort", "Population": 2199 }, "geometry": { "type": "Point", "coordinates": [ 1.1287747, 42.4103118 ] } },
{ "type": "Feature", "properties": { "RegionName": "Catalunya", "DeptName": "Lleida", "Admin3Name": "El Segrià", "CityName": "Soses", "Population": 1728 }, "geometry": { "type": "Point", "coordinates": [ 0.4868112, 41.53399 ] } },
{ "type": "Feature", "properties": { "RegionName": "Catalunya", "DeptName": "Lleida", "Admin3Name": "La Noguera", "CityName": "Térmens", "Population": 1531 }, "geometry": { "type": "Point", "coordinates": [ 0.7615995, 41.7170651 ] } },
{ "type": "Feature", "properties": { "RegionName": "Catalunya", "DeptName": "Lleida", "Admin3Name": "La Segarra", "CityName": "Torà", "Population": 1232 }, "geometry": { "type": "Point", "coordinates": [ 1.4036179, 41.81054 ] } },
{ "type": "Feature", "properties": { "RegionName": "Catalunya", "DeptName": "Lleida", "Admin3Name": "El Segrià", "CityName": "Torrefarrera", "Population": 4611 }, "geometry": { "type": "Point", "coordinates": [ 0.6086583, 41.6735229 ] } },
{ "type": "Feature", "properties": { "RegionName": "Catalunya", "DeptName": "Lleida", "Admin3Name": "El Pla d'Urgell", "CityName": "Torregrossa", "Population": 2255 }, "geometry": { "type": "Point", "coordinates": [ 0.8292647, 41.5803917 ] } },
{ "type": "Feature", "properties": { "RegionName": "Catalunya", "DeptName": "Lleida", "Admin3Name": "El Segrià", "CityName": "Torres de Segre", "Population": 2271 }, "geometry": { "type": "Point", "coordinates": [ 0.5141739, 41.5340778 ] } },
{ "type": "Feature", "properties": { "RegionName": "Catalunya", "DeptName": "Lleida", "Admin3Name": "El Pallars Jussà", "CityName": "Tremp", "Population": 6175 }, "geometry": { "type": "Point", "coordinates": [ 0.8949296, 42.1669147 ] } },
{ "type": "Feature", "properties": { "RegionName": "Catalunya", "DeptName": "Lleida", "Admin3Name": "La Noguera", "CityName": "Vallfogona de Balaguer", "Population": 1880 }, "geometry": { "type": "Point", "coordinates": [ 0.8163071, 41.7515378 ] } },
{ "type": "Feature", "properties": { "RegionName": "Catalunya", "DeptName": "Lleida", "Admin3Name": "La Val d'Aran", "CityName": "Vielha e Mijaran", "Population": 5450 }, "geometry": { "type": "Point", "coordinates": [ 0.7722974, 42.7245643 ] } },
{ "type": "Feature", "properties": { "RegionName": "Catalunya", "DeptName": "Lleida", "Admin3Name": "El Pla d'Urgell", "CityName": "Vilanova de Bellpuig", "Population": 1175 }, "geometry": { "type": "Point", "coordinates": [ 0.961758, 41.6133903 ] } },
{ "type": "Feature", "properties": { "RegionName": "Catalunya", "DeptName": "Lleida", "Admin3Name": "El Segrià", "CityName": "Vilanova de la Barca", "Population": 1099 }, "geometry": { "type": "Point", "coordinates": [ 0.7283354, 41.6898845 ] } },
{ "type": "Feature", "properties": { "RegionName": "Catalunya", "DeptName": "Lleida", "Admin3Name": "El Segrià", "CityName": "Gimenells i el Pla de la Font", "Population": 1151 }, "geometry": { "type": "Point", "coordinates": [ 0.3936722, 41.6603639 ] } },
{ "type": "Feature", "properties": { "RegionName": "Catalunya", "DeptName": "Lleida", "Admin3Name": "L'Urgell", "CityName": "Agramunt", "Population": 5491 }, "geometry": { "type": "Point", "coordinates": [ 1.0979794, 41.787186899999988 ] } },
{ "type": "Feature", "properties": { "RegionName": "Catalunya", "DeptName": "Lleida", "Admin3Name": "El Segrià", "CityName": "Albatàrrec", "Population": 2214 }, "geometry": { "type": "Point", "coordinates": [ 0.607391, 41.5733763 ] } },
{ "type": "Feature", "properties": { "RegionName": "Catalunya", "DeptName": "Lleida", "Admin3Name": "La Noguera", "CityName": "Albesa", "Population": 1624 }, "geometry": { "type": "Point", "coordinates": [ 0.6595184, 41.752541 ] } },
{ "type": "Feature", "properties": { "RegionName": "Catalunya", "DeptName": "Lleida", "Admin3Name": "El Segrià", "CityName": "Alcarràs", "Population": 9372 }, "geometry": { "type": "Point", "coordinates": [ 0.5244241, 41.5632518 ] } },
{ "type": "Feature", "properties": { "RegionName": "Catalunya", "DeptName": "Lleida", "Admin3Name": "El Segrià", "CityName": "Alcoletge", "Population": 3285 }, "geometry": { "type": "Point", "coordinates": [ 0.694722, 41.647636 ] } },
{ "type": "Feature", "properties": { "RegionName": "Catalunya", "DeptName": "Lleida", "Admin3Name": "El Segrià", "CityName": "Alfarràs", "Population": 2976 }, "geometry": { "type": "Point", "coordinates": [ 0.5695227, 41.8301028 ] } },
{ "type": "Feature", "properties": { "RegionName": "Catalunya", "DeptName": "Lleida", "Admin3Name": "El Segrià", "CityName": "Alguaire", "Population": 3002 }, "geometry": { "type": "Point", "coordinates": [ 0.5849024, 41.7367673 ] } },
{ "type": "Feature", "properties": { "RegionName": "Catalunya", "DeptName": "Lleida", "Admin3Name": "El Segrià", "CityName": "Almacelles", "Population": 6766 }, "geometry": { "type": "Point", "coordinates": [ 0.4419828, 41.7286912 ] } },
{ "type": "Feature", "properties": { "RegionName": "Catalunya", "DeptName": "Lleida", "Admin3Name": "El Segrià", "CityName": "Almenar", "Population": 3525 }, "geometry": { "type": "Point", "coordinates": [ 0.5680948, 41.7970523 ] } },
{ "type": "Feature", "properties": { "RegionName": "Catalunya", "DeptName": "Lleida", "Admin3Name": "El Segrià", "CityName": "Alpicat", "Population": 6275 }, "geometry": { "type": "Point", "coordinates": [ 0.5553314, 41.6659301 ] } },
{ "type": "Feature", "properties": { "RegionName": "Catalunya", "DeptName": "Lleida", "Admin3Name": "La Val d'Aran", "CityName": "Naut Aran", "Population": 1760 }, "geometry": { "type": "Point", "coordinates": [ 0.9438468, 42.7428241 ] } },
{ "type": "Feature", "properties": { "RegionName": "Catalunya", "DeptName": "Lleida", "Admin3Name": "L'Urgell", "CityName": "Anglesola", "Population": 1378 }, "geometry": { "type": "Point", "coordinates": [ 1.0837613, 41.657191399999988 ] } },
{ "type": "Feature", "properties": { "RegionName": "Catalunya", "DeptName": "Lleida", "Admin3Name": "Les Garrigues", "CityName": "Arbeca", "Population": 2278 }, "geometry": { "type": "Point", "coordinates": [ 0.9234723, 41.5426212 ] } },
{ "type": "Feature", "properties": { "RegionName": "Catalunya", "DeptName": "Lleida", "Admin3Name": "El Segrià", "CityName": "Artesa de Lleida", "Population": 1517 }, "geometry": { "type": "Point", "coordinates": [ 0.7033745, 41.553054 ] } },
{ "type": "Feature", "properties": { "RegionName": "Catalunya", "DeptName": "Lleida", "Admin3Name": "La Noguera", "CityName": "Artesa de Segre", "Population": 3614 }, "geometry": { "type": "Point", "coordinates": [ 1.0472421, 41.8956604 ] } },
{ "type": "Feature", "properties": { "RegionName": "Catalunya", "DeptName": "Lleida", "Admin3Name": "El Segrià", "CityName": "Aitona", "Population": 2456 }, "geometry": { "type": "Point", "coordinates": [ 0.4590823, 41.4934916 ] } },
{ "type": "Feature", "properties": { "RegionName": "Catalunya", "DeptName": "Lleida", "Admin3Name": "L'Alta Ribagorça", "CityName": "La Vall de Boí", "Population": 1004 }, "geometry": { "type": "Point", "coordinates": [ 0.8484524, 42.5282162 ] } },
{ "type": "Feature", "properties": { "RegionName": "Catalunya", "DeptName": "Lleida", "Admin3Name": "La Noguera", "CityName": "Bellcaire d'Urgell", "Population": 1296 }, "geometry": { "type": "Point", "coordinates": [ 0.9044696, 41.7583443 ] } },
{ "type": "Feature", "properties": { "RegionName": "Catalunya", "DeptName": "Lleida", "Admin3Name": "El Pla d'Urgell", "CityName": "Bell-lloc d'Urgell", "Population": 2329 }, "geometry": { "type": "Point", "coordinates": [ 0.7791283, 41.6303438 ] } },
{ "type": "Feature", "properties": { "RegionName": "Catalunya", "DeptName": "Lleida", "Admin3Name": "L'Urgell", "CityName": "Bellpuig", "Population": 4989 }, "geometry": { "type": "Point", "coordinates": [ 1.0119509, 41.6254321 ] } },
{ "type": "Feature", "properties": { "RegionName": "Catalunya", "DeptName": "Lleida", "Admin3Name": "La Cerdanya", "CityName": "Bellver de Cerdanya", "Population": 2028 }, "geometry": { "type": "Point", "coordinates": [ 1.7749101, 42.3728624 ] } },
{ "type": "Feature", "properties": { "RegionName": "Catalunya", "DeptName": "Lleida", "Admin3Name": "El Pla d'Urgell", "CityName": "Bellvís", "Population": 2270 }, "geometry": { "type": "Point", "coordinates": [ 0.8186873, 41.6743299 ] } },
{ "type": "Feature", "properties": { "RegionName": "Catalunya", "DeptName": "Lleida", "Admin3Name": "El Segrià", "CityName": "Benavent de Segrià", "Population": 1506 }, "geometry": { "type": "Point", "coordinates": [ 0.6328539, 41.697298 ] } },
{ "type": "Feature", "properties": { "RegionName": "Catalunya", "DeptName": "Lleida", "Admin3Name": "Les Garrigues", "CityName": "Les Borges Blanques", "Population": 6019 }, "geometry": { "type": "Point", "coordinates": [ 0.8735607, 41.5223705 ] } },
{ "type": "Feature", "properties": { "RegionName": "Catalunya", "DeptName": "Lleida", "Admin3Name": "La Val d'Aran", "CityName": "Bossòst", "Population": 1137 }, "geometry": { "type": "Point", "coordinates": [ 0.6921325, 42.785504499999988 ] } },
{ "type": "Feature", "properties": { "RegionName": "Catalunya", "DeptName": "Lleida", "Admin3Name": "L'Urgell", "CityName": "Castellserà", "Population": 1044 }, "geometry": { "type": "Point", "coordinates": [ 0.9874443, 41.7458448 ] } },
{ "type": "Feature", "properties": { "RegionName": "Catalunya", "DeptName": "Lleida", "Admin3Name": "La Segarra", "CityName": "Cervera", "Population": 8956 }, "geometry": { "type": "Point", "coordinates": [ 1.272254, 41.671465 ] } },
{ "type": "Feature", "properties": { "RegionName": "Catalunya", "DeptName": "Lleida", "Admin3Name": "El Segrià", "CityName": "Corbins", "Population": 1394 }, "geometry": { "type": "Point", "coordinates": [ 0.6927257, 41.6901038 ] } },
{ "type": "Feature", "properties": { "RegionName": "Catalunya", "DeptName": "Lleida", "Admin3Name": "L'Urgell", "CityName": "La Fuliola", "Population": 1291 }, "geometry": { "type": "Point", "coordinates": [ 1.0167344, 41.7150982 ] } },
{ "type": "Feature", "properties": { "RegionName": "Catalunya", "DeptName": "Lleida", "Admin3Name": "El Pla d'Urgell", "CityName": "Golmés", "Population": 1770 }, "geometry": { "type": "Point", "coordinates": [ 0.9322549, 41.6324739 ] } },
{ "type": "Feature", "properties": { "RegionName": "Catalunya", "DeptName": "Lleida", "Admin3Name": "El Segrià", "CityName": "La Granja d'Escarp", "Population": 1001 }, "geometry": { "type": "Point", "coordinates": [ 0.3530666, 41.4188099 ] } },
{ "type": "Feature", "properties": { "RegionName": "Catalunya", "DeptName": "Lleida", "Admin3Name": "La Segarra", "CityName": "Guissona", "Population": 6862 }, "geometry": { "type": "Point", "coordinates": [ 1.2903074, 41.784519 ] } },
{ "type": "Feature", "properties": { "RegionName": "Catalunya", "DeptName": "Lleida", "Admin3Name": "El Pla d'Urgell", "CityName": "Ivars d'Urgell", "Population": 1591 }, "geometry": { "type": "Point", "coordinates": [ 0.9880419, 41.6804785 ] } },
{ "type": "Feature", "properties": { "RegionName": "Catalunya", "DeptName": "Lleida", "Admin3Name": "El Pallars Jussà", "CityName": "Isona i Conca Dellà", "Population": 1064 }, "geometry": { "type": "Point", "coordinates": [ 1.0465938, 42.1184861 ] } },
{ "type": "Feature", "properties": { "RegionName": "Catalunya", "DeptName": "Lleida", "Admin3Name": "Les Garrigues", "CityName": "Juneda", "Population": 3384 }, "geometry": { "type": "Point", "coordinates": [ 0.8234483, 41.5470669 ] } }
]
}
