{
"type": "FeatureCollection",
"crs": { "type": "name", "properties": { "name": "urn:ogc:def:crs:OGC:1.3:CRS84" } },
                                                                                
"features": [
{ "type": "Feature", "properties": { "RegionName": "Catalunya", "DeptName": "Barcelona", "Admin3Name": "Maresme", "CityName": "Arenys de Munt", "Population": 8736 }, "geometry": { "type": "Point", "coordinates": [ 2.5408414, 41.6093683 ] } },
{ "type": "Feature", "properties": { "RegionName": "Catalunya", "DeptName": "Barcelona", "Admin3Name": "El Bages", "CityName": "Artés", "Population": 5665 }, "geometry": { "type": "Point", "coordinates": [ 1.9514657, 41.796354 ] } },
{ "type": "Feature", "properties": { "RegionName": "Catalunya", "DeptName": "Barcelona", "Admin3Name": "El Berguedà", "CityName": "Avià", "Population": 2225 }, "geometry": { "type": "Point", "coordinates": [ 1.8202649, 42.0782101 ] } },
{ "type": "Feature", "properties": { "RegionName": "Catalunya", "DeptName": "Barcelona", "Admin3Name": "El Bages", "CityName": "Avinyó", "Population": 2248 }, "geometry": { "type": "Point", "coordinates": [ 1.9724179, 41.8641878 ] } },
{ "type": "Feature", "properties": { "RegionName": "Catalunya", "DeptName": "Barcelona", "Admin3Name": "L'Alt Penedès", "CityName": "Avinyonet del Penedès", "Population": 1652 }, "geometry": { "type": "Point", "coordinates": [ 1.7858092, 41.3547538 ] } },
{ "type": "Feature", "properties": { "RegionName": "Catalunya", "DeptName": "Barcelona", "Admin3Name": "El Vallès Oriental", "CityName": "Aiguafreda", "Population": 2465 }, "geometry": { "type": "Point", "coordinates": [ 2.2513784, 41.7683897 ] } },
{ "type": "Feature", "properties": { "RegionName": "Catalunya", "DeptName": "Barcelona", "Admin3Name": "El Berguedà", "CityName": "Bagà", "Population": 2188 }, "geometry": { "type": "Point", "coordinates": [ 1.861711, 42.25262 ] } },
{ "type": "Feature", "properties": { "RegionName": "Catalunya", "DeptName": "Barcelona", "Admin3Name": "Osona", "CityName": "Balenyà", "Population": 3711 }, "geometry": { "type": "Point", "coordinates": [ 2.249975, 41.844654 ] } },
{ "type": "Feature", "properties": { "RegionName": "Catalunya", "DeptName": "Barcelona", "Admin3Name": "El Bages", "CityName": "Balsareny", "Population": 3324 }, "geometry": { "type": "Point", "coordinates": [ 1.8745219, 41.863456199999987 ] } },
{ "type": "Feature", "properties": { "RegionName": "Catalunya", "DeptName": "Barcelona", "Admin3Name": "El Baix Llobregat", "CityName": "Begues", "Population": 6670 }, "geometry": { "type": "Point", "coordinates": [ 1.9226434, 41.3309748 ] } },
{ "type": "Feature", "properties": { "RegionName": "Catalunya", "DeptName": "Barcelona", "Admin3Name": "El Vallès Oriental", "CityName": "Bigues i Riells", "Population": 8858 }, "geometry": { "type": "Point", "coordinates": [ 2.2259661, 41.6769259 ] } },
{ "type": "Feature", "properties": { "RegionName": "Catalunya", "DeptName": "Barcelona", "Admin3Name": "L'Anoia", "CityName": "El Bruc", "Population": 2032 }, "geometry": { "type": "Point", "coordinates": [ 1.7799034, 41.5805938 ] } },
{ "type": "Feature", "properties": { "RegionName": "Catalunya", "DeptName": "Barcelona", "Admin3Name": "L'Anoia", "CityName": "Cabrera d'Anoia", "Population": 1348 }, "geometry": { "type": "Point", "coordinates": [ 1.710095, 41.4936117 ] } },
{ "type": "Feature", "properties": { "RegionName": "Catalunya", "DeptName": "Barcelona", "Admin3Name": "Maresme", "CityName": "Cabrera de Mar", "Population": 4522 }, "geometry": { "type": "Point", "coordinates": [ 2.3929959, 41.5280545 ] } },
{ "type": "Feature", "properties": { "RegionName": "Catalunya", "DeptName": "Barcelona", "Admin3Name": "Maresme", "CityName": "Cabrils", "Population": 7250 }, "geometry": { "type": "Point", "coordinates": [ 2.3671032, 41.5247306 ] } },
{ "type": "Feature", "properties": { "RegionName": "Catalunya", "DeptName": "Barcelona", "Admin3Name": "L'Anoia", "CityName": "Calaf", "Population": 3426 }, "geometry": { "type": "Point", "coordinates": [ 1.5135421, 41.7325486 ] } },
{ "type": "Feature", "properties": { "RegionName": "Catalunya", "DeptName": "Barcelona", "Admin3Name": "Maresme", "CityName": "Caldes d'Estrac", "Population": 2717 }, "geometry": { "type": "Point", "coordinates": [ 2.5236717, 41.5716858 ] } },
{ "type": "Feature", "properties": { "RegionName": "Catalunya", "DeptName": "Barcelona", "Admin3Name": "Osona", "CityName": "Calldetenes", "Population": 2427 }, "geometry": { "type": "Point", "coordinates": [ 2.2840953, 41.9250982 ] } },
{ "type": "Feature", "properties": { "RegionName": "Catalunya", "DeptName": "Barcelona", "Admin3Name": "El Bages", "CityName": "Callús", "Population": 2024 }, "geometry": { "type": "Point", "coordinates": [ 1.7837062, 41.7822924 ] } },
{ "type": "Feature", "properties": { "RegionName": "Catalunya", "DeptName": "Barcelona", "Admin3Name": "El Vallès Oriental", "CityName": "Cànoves i Samalús", "Population": 2897 }, "geometry": { "type": "Point", "coordinates": [ 2.349269, 41.693778 ] } },
{ "type": "Feature", "properties": { "RegionName": "Catalunya", "DeptName": "Barcelona", "Admin3Name": "El Garraf", "CityName": "Canyelles", "Population": 4375 }, "geometry": { "type": "Point", "coordinates": [ 1.7230553, 41.2829335 ] } },
{ "type": "Feature", "properties": { "RegionName": "Catalunya", "DeptName": "Barcelona", "Admin3Name": "L'Anoia", "CityName": "Capellades", "Population": 5268 }, "geometry": { "type": "Point", "coordinates": [ 1.685923, 41.5309648 ] } },
{ "type": "Feature", "properties": { "RegionName": "Catalunya", "DeptName": "Barcelona", "Admin3Name": "El Bages", "CityName": "Cardona", "Population": 4898 }, "geometry": { "type": "Point", "coordinates": [ 1.6797134, 41.913607 ] } },
{ "type": "Feature", "properties": { "RegionName": "Catalunya", "DeptName": "Barcelona", "Admin3Name": "El Berguedà", "CityName": "Casserres", "Population": 1541 }, "geometry": { "type": "Point", "coordinates": [ 1.8434162, 42.0120819 ] } },
{ "type": "Feature", "properties": { "RegionName": "Catalunya", "DeptName": "Barcelona", "Admin3Name": "El Bages", "CityName": "Castellbell i el Vilar", "Population": 3566 }, "geometry": { "type": "Point", "coordinates": [ 1.8641519, 41.6291032 ] } },
{ "type": "Feature", "properties": { "RegionName": "Catalunya", "DeptName": "Barcelona", "Admin3Name": "L'Alt Penedès", "CityName": "Castellet i la Gornal", "Population": 2212 }, "geometry": { "type": "Point", "coordinates": [ 1.5925029, 41.2535361 ] } },
{ "type": "Feature", "properties": { "RegionName": "Catalunya", "DeptName": "Barcelona", "Admin3Name": "El Bages", "CityName": "Castellgalí", "Population": 1996 }, "geometry": { "type": "Point", "coordinates": [ 1.8435319, 41.6747239 ] } },
{ "type": "Feature", "properties": { "RegionName": "Catalunya", "DeptName": "Barcelona", "Admin3Name": "El Bages", "CityName": "Castellnou de Bages", "Population": 1266 }, "geometry": { "type": "Point", "coordinates": [ 1.8367862, 41.8343436 ] } },
{ "type": "Feature", "properties": { "RegionName": "Catalunya", "DeptName": "Barcelona", "Admin3Name": "El Vallès Oriental", "CityName": "Castellterçol", "Population": 2368 }, "geometry": { "type": "Point", "coordinates": [ 2.1199, 41.7503185 ] } },
{ "type": "Feature", "properties": { "RegionName": "Catalunya", "DeptName": "Barcelona", "Admin3Name": "L'Alt Penedès", "CityName": "Castellví de la Marca", "Population": 1540 }, "geometry": { "type": "Point", "coordinates": [ 1.593586, 41.3324833 ] } },
{ "type": "Feature", "properties": { "RegionName": "Catalunya", "DeptName": "Barcelona", "Admin3Name": "El Baix Llobregat", "CityName": "Castellví de Rosanes", "Population": 1771 }, "geometry": { "type": "Point", "coordinates": [ 1.8995445, 41.4500186 ] } },
{ "type": "Feature", "properties": { "RegionName": "Catalunya", "DeptName": "Barcelona", "Admin3Name": "Osona", "CityName": "Centelles", "Population": 7372 }, "geometry": { "type": "Point", "coordinates": [ 2.2222269, 41.7973754 ] } },
{ "type": "Feature", "properties": { "RegionName": "Catalunya", "DeptName": "Barcelona", "Admin3Name": "El Baix Llobregat", "CityName": "Cervelló", "Population": 8851 }, "geometry": { "type": "Point", "coordinates": [ 1.9589428, 41.396311 ] } },
{ "type": "Feature", "properties": { "RegionName": "Catalunya", "DeptName": "Barcelona", "Admin3Name": "El Baix Llobregat", "CityName": "Collbató", "Population": 4389 }, "geometry": { "type": "Point", "coordinates": [ 1.8147696, 41.564449499999988 ] } },
{ "type": "Feature", "properties": { "RegionName": "Catalunya", "DeptName": "Barcelona", "Admin3Name": "Maresme", "CityName": "Dosrius", "Population": 5215 }, "geometry": { "type": "Point", "coordinates": [ 2.4066687, 41.5941663 ] } },
{ "type": "Feature", "properties": { "RegionName": "Catalunya", "DeptName": "Barcelona", "Admin3Name": "Selva", "CityName": "Fogars de la Selva", "Population": 1470 }, "geometry": { "type": "Point", "coordinates": [ 2.6786163, 41.7273226 ] } },
{ "type": "Feature", "properties": { "RegionName": "Catalunya", "DeptName": "Barcelona", "Admin3Name": "Osona", "CityName": "Folgueroles", "Population": 2285 }, "geometry": { "type": "Point", "coordinates": [ 2.3162571, 41.940098 ] } },
{ "type": "Feature", "properties": { "RegionName": "Catalunya", "DeptName": "Barcelona", "Admin3Name": "El Bages", "CityName": "Fonollosa", "Population": 1393 }, "geometry": { "type": "Point", "coordinates": [ 1.6669595, 41.7616585 ] } },
{ "type": "Feature", "properties": { "RegionName": "Catalunya", "DeptName": "Barcelona", "Admin3Name": "L'Alt Penedès", "CityName": "Font-rubí", "Population": 1348 }, "geometry": { "type": "Point", "coordinates": [ 1.5910701, 41.4347024 ] } },
{ "type": "Feature", "properties": { "RegionName": "Catalunya", "DeptName": "Barcelona", "Admin3Name": "L'Alt Penedès", "CityName": "Gelida", "Population": 7253 }, "geometry": { "type": "Point", "coordinates": [ 1.8672009, 41.439914900000012 ] } },
{ "type": "Feature", "properties": { "RegionName": "Catalunya", "DeptName": "Barcelona", "Admin3Name": "El Berguedà", "CityName": "Gironella", "Population": 4925 }, "geometry": { "type": "Point", "coordinates": [ 1.8818441, 42.0343553 ] } },
{ "type": "Feature", "properties": { "RegionName": "Catalunya", "DeptName": "Barcelona", "Admin3Name": "L'Alt Penedès", "CityName": "La Granada", "Population": 2085 }, "geometry": { "type": "Point", "coordinates": [ 1.72088, 41.3752526 ] } },
{ "type": "Feature", "properties": { "RegionName": "Catalunya", "DeptName": "Barcelona", "Admin3Name": "El Vallès Oriental", "CityName": "Gualba", "Population": 1414 }, "geometry": { "type": "Point", "coordinates": [ 2.5022418, 41.7318992 ] } },
{ "type": "Feature", "properties": { "RegionName": "Catalunya", "DeptName": "Barcelona", "Admin3Name": "El Bages", "CityName": "Sant Salvador de Guardiola", "Population": 3126 }, "geometry": { "type": "Point", "coordinates": [ 1.7657482, 41.6796024 ] } },
{ "type": "Feature", "properties": { "RegionName": "Catalunya", "DeptName": "Barcelona", "Admin3Name": "Osona", "CityName": "Gurb", "Population": 2545 }, "geometry": { "type": "Point", "coordinates": [ 2.2393486, 41.9458819 ] } },
{ "type": "Feature", "properties": { "RegionName": "Catalunya", "DeptName": "Barcelona", "Admin3Name": "El Vallès Oriental", "CityName": "Llinars del Vallès", "Population": 9570 }, "geometry": { "type": "Point", "coordinates": [ 2.4016802, 41.6398992 ] } },
{ "type": "Feature", "properties": { "RegionName": "Catalunya", "DeptName": "Barcelona", "Admin3Name": "El Vallès Oriental", "CityName": "Lliçà de Vall", "Population": 6383 }, "geometry": { "type": "Point", "coordinates": [ 2.2396577, 41.5831864 ] } },
{ "type": "Feature", "properties": { "RegionName": "Catalunya", "DeptName": "Barcelona", "Admin3Name": "El Vallès Oriental", "CityName": "Martorelles", "Population": 4756 }, "geometry": { "type": "Point", "coordinates": [ 2.2374965, 41.5281106 ] } },
{ "type": "Feature", "properties": { "RegionName": "Catalunya", "DeptName": "Barcelona", "Admin3Name": "Osona", "CityName": "Les Masies de Voltregà", "Population": 3165 }, "geometry": { "type": "Point", "coordinates": [ 2.244446, 42.0172312 ] } },
{ "type": "Feature", "properties": { "RegionName": "Catalunya", "DeptName": "Barcelona", "Admin3Name": "L'Anoia", "CityName": "Masquefa", "Population": 8335 }, "geometry": { "type": "Point", "coordinates": [ 1.8141603, 41.501395 ] } },
{ "type": "Feature", "properties": { "RegionName": "Catalunya", "DeptName": "Barcelona", "Admin3Name": "El Vallès Occidental", "CityName": "Matadepera", "Population": 8900 }, "geometry": { "type": "Point", "coordinates": [ 2.0110604, 41.614417 ] } },
{ "type": "Feature", "properties": { "RegionName": "Catalunya", "DeptName": "Barcelona", "Admin3Name": "L'Alt Penedès", "CityName": "Mediona", "Population": 2273 }, "geometry": { "type": "Point", "coordinates": [ 1.627507, 41.4798069 ] } },
{ "type": "Feature", "properties": { "RegionName": "Catalunya", "DeptName": "Barcelona", "Admin3Name": "El Bages", "CityName": "Monistrol de Montserrat", "Population": 2901 }, "geometry": { "type": "Point", "coordinates": [ 1.8434162, 41.6107783 ] } },
{ "type": "Feature", "properties": { "RegionName": "Catalunya", "DeptName": "Barcelona", "Admin3Name": "El Vallès Oriental", "CityName": "Figaró-Montmany", "Population": 1094 }, "geometry": { "type": "Point", "coordinates": [ 2.2736559, 41.7208204 ] } },
{ "type": "Feature", "properties": { "RegionName": "Catalunya", "DeptName": "Barcelona", "Admin3Name": "El Vallès Oriental", "CityName": "Montmeló", "Population": 8835 }, "geometry": { "type": "Point", "coordinates": [ 2.2477539, 41.5523468 ] } },
{ "type": "Feature", "properties": { "RegionName": "Catalunya", "DeptName": "Barcelona", "Admin3Name": "El Bages", "CityName": "Moià", "Population": 5865 }, "geometry": { "type": "Point", "coordinates": [ 2.0971693, 41.8099481 ] } },
{ "type": "Feature", "properties": { "RegionName": "Catalunya", "DeptName": "Barcelona", "Admin3Name": "El Bages", "CityName": "Navarcles", "Population": 6012 }, "geometry": { "type": "Point", "coordinates": [ 1.9062603, 41.7535973 ] } },
{ "type": "Feature", "properties": { "RegionName": "Catalunya", "DeptName": "Barcelona", "Admin3Name": "El Bages", "CityName": "Navàs", "Population": 6103 }, "geometry": { "type": "Point", "coordinates": [ 1.8781829, 41.9018611 ] } },
{ "type": "Feature", "properties": { "RegionName": "Catalunya", "DeptName": "Barcelona", "Admin3Name": "L'Anoia", "CityName": "Òdena", "Population": 3623 }, "geometry": { "type": "Point", "coordinates": [ 1.6418166, 41.6061213 ] } },
{ "type": "Feature", "properties": { "RegionName": "Catalunya", "DeptName": "Barcelona", "Admin3Name": "L'Alt Penedès", "CityName": "Olèrdola", "Population": 3518 }, "geometry": { "type": "Point", "coordinates": [ 1.7246856, 41.3181561 ] } },
{ "type": "Feature", "properties": { "RegionName": "Catalunya", "DeptName": "Barcelona", "Admin3Name": "L'Alt Penedès", "CityName": "Olesa de Bonesvalls", "Population": 1715 }, "geometry": { "type": "Point", "coordinates": [ 1.8489571, 41.3502414 ] } },
{ "type": "Feature", "properties": { "RegionName": "Catalunya", "DeptName": "Barcelona", "Admin3Name": "El Garraf", "CityName": "Olivella", "Population": 3569 }, "geometry": { "type": "Point", "coordinates": [ 1.8114185, 41.3102463 ] } },
{ "type": "Feature", "properties": { "RegionName": "Catalunya", "DeptName": "Barcelona", "Admin3Name": "Maresme", "CityName": "Alella", "Population": 9660 }, "geometry": { "type": "Point", "coordinates": [ 2.2940817, 41.4919653 ] } },
{ "type": "Feature", "properties": { "RegionName": "Catalunya", "DeptName": "Barcelona", "Admin3Name": "El Vallès Oriental", "CityName": "L'Ametlla del Vallès", "Population": 8303 }, "geometry": { "type": "Point", "coordinates": [ 2.2605005, 41.6683251 ] } },
{ "type": "Feature", "properties": { "RegionName": "Catalunya", "DeptName": "Barcelona", "Admin3Name": "Osona", "CityName": "Olost", "Population": 1182 }, "geometry": { "type": "Point", "coordinates": [ 2.0947166, 41.9861195 ] } },
{ "type": "Feature", "properties": { "RegionName": "Catalunya", "DeptName": "Barcelona", "Admin3Name": "Maresme", "CityName": "Palafolls", "Population": 9132 }, "geometry": { "type": "Point", "coordinates": [ 2.7507335, 41.6684521 ] } },
{ "type": "Feature", "properties": { "RegionName": "Catalunya", "DeptName": "Barcelona", "Admin3Name": "El Baix Llobregat", "CityName": "El Papiol", "Population": 4071 }, "geometry": { "type": "Point", "coordinates": [ 2.0099477, 41.438237699999988 ] } },
{ "type": "Feature", "properties": { "RegionName": "Catalunya", "DeptName": "Barcelona", "Admin3Name": "L'Anoia", "CityName": "Els Hostalets de Pierola", "Population": 2887 }, "geometry": { "type": "Point", "coordinates": [ 1.7685406, 41.5348287 ] } },
{ "type": "Feature", "properties": { "RegionName": "Catalunya", "DeptName": "Barcelona", "Admin3Name": "L'Alt Penedès", "CityName": "El Pla del Penedès", "Population": 1230 }, "geometry": { "type": "Point", "coordinates": [ 1.7119185, 41.4179244 ] } },
{ "type": "Feature", "properties": { "RegionName": "Catalunya", "DeptName": "Barcelona", "Admin3Name": "L'Anoia", "CityName": "La Pobla de Claramunt", "Population": 2150 }, "geometry": { "type": "Point", "coordinates": [ 1.6755747, 41.5548414 ] } },
{ "type": "Feature", "properties": { "RegionName": "Catalunya", "DeptName": "Barcelona", "Admin3Name": "El Berguedà", "CityName": "La Pobla de Lillet", "Population": 1139 }, "geometry": { "type": "Point", "coordinates": [ 1.9753088, 42.2445647 ] } },
{ "type": "Feature", "properties": { "RegionName": "Catalunya", "DeptName": "Barcelona", "Admin3Name": "El Vallès Occidental", "CityName": "Polinyà", "Population": 8226 }, "geometry": { "type": "Point", "coordinates": [ 2.1577616, 41.556614499999988 ] } },
{ "type": "Feature", "properties": { "RegionName": "Catalunya", "DeptName": "Barcelona", "Admin3Name": "Osona", "CityName": "Prats de Lluçanès", "Population": 2580 }, "geometry": { "type": "Point", "coordinates": [ 2.0309926, 42.0070702 ] } },
{ "type": "Feature", "properties": { "RegionName": "Catalunya", "DeptName": "Barcelona", "Admin3Name": "El Berguedà", "CityName": "Puig-reig", "Population": 4167 }, "geometry": { "type": "Point", "coordinates": [ 1.8790976, 41.9739422 ] } },
{ "type": "Feature", "properties": { "RegionName": "Catalunya", "DeptName": "Barcelona", "Admin3Name": "El Bages", "CityName": "El Pont de Vilomara i Rocafort", "Population": 3715 }, "geometry": { "type": "Point", "coordinates": [ 1.900155, 41.6952113 ] } },
{ "type": "Feature", "properties": { "RegionName": "Catalunya", "DeptName": "Barcelona", "Admin3Name": "Osona", "CityName": "Roda de Ter", "Population": 6122 }, "geometry": { "type": "Point", "coordinates": [ 2.3098386, 41.9832444 ] } },
{ "type": "Feature", "properties": { "RegionName": "Catalunya", "DeptName": "Barcelona", "Admin3Name": "El Bages", "CityName": "Sallent", "Population": 6669 }, "geometry": { "type": "Point", "coordinates": [ 1.8922257, 41.8271079 ] } },
{ "type": "Feature", "properties": { "RegionName": "Catalunya", "DeptName": "Barcelona", "Admin3Name": "El Bages", "CityName": "Santpedor", "Population": 7459 }, "geometry": { "type": "Point", "coordinates": [ 1.8379292, 41.7845483 ] } },
{ "type": "Feature", "properties": { "RegionName": "Catalunya", "DeptName": "Barcelona", "Admin3Name": "Maresme", "CityName": "Sant Iscle de Vallalta", "Population": 1308 }, "geometry": { "type": "Point", "coordinates": [ 2.5677848, 41.6252874 ] } },
{ "type": "Feature", "properties": { "RegionName": "Catalunya", "DeptName": "Barcelona", "Admin3Name": "El Vallès Oriental", "CityName": "Sant Antoni de Vilamajor", "Population": 5789 }, "geometry": { "type": "Point", "coordinates": [ 2.3999799, 41.6723994 ] } },
{ "type": "Feature", "properties": { "RegionName": "Catalunya", "DeptName": "Barcelona", "Admin3Name": "Maresme", "CityName": "Sant Cebrià de Vallalta", "Population": 3326 }, "geometry": { "type": "Point", "coordinates": [ 2.5997035, 41.6198985 ] } },
{ "type": "Feature", "properties": { "RegionName": "Catalunya", "DeptName": "Barcelona", "Admin3Name": "El Baix Llobregat", "CityName": "Sant Climent de Llobregat", "Population": 4013 }, "geometry": { "type": "Point", "coordinates": [ 1.9967174, 41.3375882 ] } },
{ "type": "Feature", "properties": { "RegionName": "Catalunya", "DeptName": "Barcelona", "Admin3Name": "El Vallès Oriental", "CityName": "Sant Esteve de Palautordera", "Population": 2568 }, "geometry": { "type": "Point", "coordinates": [ 2.4319794, 41.7062899 ] } },
{ "type": "Feature", "properties": { "RegionName": "Catalunya", "DeptName": "Barcelona", "Admin3Name": "El Baix Llobregat", "CityName": "Sant Esteve Sesrovires", "Population": 7613 }, "geometry": { "type": "Point", "coordinates": [ 1.8695787, 41.4977786 ] } },
{ "type": "Feature", "properties": { "RegionName": "Catalunya", "DeptName": "Barcelona", "Admin3Name": "El Vallès Oriental", "CityName": "Sant Fost de Campsentelles", "Population": 8603 }, "geometry": { "type": "Point", "coordinates": [ 2.2336917, 41.5190812 ] } },
{ "type": "Feature", "properties": { "RegionName": "Catalunya", "DeptName": "Barcelona", "Admin3Name": "El Vallès Oriental", "CityName": "Sant Feliu de Codines", "Population": 5908 }, "geometry": { "type": "Point", "coordinates": [ 2.1653954, 41.690718100000012 ] } },
{ "type": "Feature", "properties": { "RegionName": "Catalunya", "DeptName": "Barcelona", "Admin3Name": "El Bages", "CityName": "Sant Fruitós de Bages", "Population": 8351 }, "geometry": { "type": "Point", "coordinates": [ 1.8746239, 41.750926199999988 ] } },
{ "type": "Feature", "properties": { "RegionName": "Catalunya", "DeptName": "Barcelona", "Admin3Name": "Maresme", "CityName": "Vilassar de Dalt", "Population": 8964 }, "geometry": { "type": "Point", "coordinates": [ 2.3622582, 41.5132248 ] } },
{ "type": "Feature", "properties": { "RegionName": "Catalunya", "DeptName": "Barcelona", "Admin3Name": "Osona", "CityName": "Sant Hipòlit de Voltregà", "Population": 3429 }, "geometry": { "type": "Point", "coordinates": [ 2.2381726, 42.0158746 ] } },
{ "type": "Feature", "properties": { "RegionName": "Catalunya", "DeptName": "Barcelona", "Admin3Name": "Osona", "CityName": "Sant Julià de Vilatorta", "Population": 3104 }, "geometry": { "type": "Point", "coordinates": [ 2.3210736, 41.924627 ] } },
{ "type": "Feature", "properties": { "RegionName": "Catalunya", "DeptName": "Barcelona", "Admin3Name": "L'Alt Penedès", "CityName": "Sant Llorenç d'Hortons", "Population": 2557 }, "geometry": { "type": "Point", "coordinates": [ 1.8230624, 41.465996 ] } },
{ "type": "Feature", "properties": { "RegionName": "Catalunya", "DeptName": "Barcelona", "Admin3Name": "El Vallès Occidental", "CityName": "Sant Llorenç Savall", "Population": 2380 }, "geometry": { "type": "Point", "coordinates": [ 2.0583576, 41.6787633 ] } },
{ "type": "Feature", "properties": { "RegionName": "Catalunya", "DeptName": "Barcelona", "Admin3Name": "Osona", "CityName": "Sant Martí de Centelles", "Population": 1103 }, "geometry": { "type": "Point", "coordinates": [ 2.2482737, 41.7600578 ] } },
{ "type": "Feature", "properties": { "RegionName": "Catalunya", "DeptName": "Barcelona", "Admin3Name": "L'Anoia", "CityName": "Sant Martí de Tous", "Population": 1186 }, "geometry": { "type": "Point", "coordinates": [ 1.523511, 41.5606948 ] } },
{ "type": "Feature", "properties": { "RegionName": "Catalunya", "DeptName": "Barcelona", "Admin3Name": "L'Alt Penedès", "CityName": "Sant Martí Sarroca", "Population": 3092 }, "geometry": { "type": "Point", "coordinates": [ 1.6116052, 41.3858273 ] } },
{ "type": "Feature", "properties": { "RegionName": "Catalunya", "DeptName": "Barcelona", "Admin3Name": "L'Alt Penedès", "CityName": "Sant Pere de Riudebitlles", "Population": 2374 }, "geometry": { "type": "Point", "coordinates": [ 1.7044013, 41.4504992 ] } },
{ "type": "Feature", "properties": { "RegionName": "Catalunya", "DeptName": "Barcelona", "Admin3Name": "Osona", "CityName": "Sant Pere de Torelló", "Population": 2433 }, "geometry": { "type": "Point", "coordinates": [ 2.2938229, 42.0763537 ] } },
{ "type": "Feature", "properties": { "RegionName": "Catalunya", "DeptName": "Barcelona", "Admin3Name": "El Vallès Oriental", "CityName": "Sant Pere de Vilamajor", "Population": 4281 }, "geometry": { "type": "Point", "coordinates": [ 2.3928002, 41.6831865 ] } },
{ "type": "Feature", "properties": { "RegionName": "Catalunya", "DeptName": "Barcelona", "Admin3Name": "Maresme", "CityName": "Sant Pol de Mar", "Population": 5012 }, "geometry": { "type": "Point", "coordinates": [ 2.6244208, 41.6039431 ] } },
{ "type": "Feature", "properties": { "RegionName": "Catalunya", "DeptName": "Barcelona", "Admin3Name": "L'Alt Penedès", "CityName": "Sant Quintí de Mediona", "Population": 2116 }, "geometry": { "type": "Point", "coordinates": [ 1.6635606, 41.462869 ] } },
{ "type": "Feature", "properties": { "RegionName": "Catalunya", "DeptName": "Barcelona", "Admin3Name": "Osona", "CityName": "Sant Quirze de Besora", "Population": 2132 }, "geometry": { "type": "Point", "coordinates": [ 2.2224369, 42.0999995 ] } },
{ "type": "Feature", "properties": { "RegionName": "Catalunya", "DeptName": "Barcelona", "Admin3Name": "El Baix Llobregat", "CityName": "Santa Coloma de Cervelló", "Population": 8022 }, "geometry": { "type": "Point", "coordinates": [ 2.0176494, 41.367781099999988 ] } },
{ "type": "Feature", "properties": { "RegionName": "Catalunya", "DeptName": "Barcelona", "Admin3Name": "Osona", "CityName": "Santa Eugènia de Berga", "Population": 2204 }, "geometry": { "type": "Point", "coordinates": [ 2.2821595, 41.9013387 ] } },
{ "type": "Feature", "properties": { "RegionName": "Catalunya", "DeptName": "Barcelona", "Admin3Name": "Osona", "CityName": "Santa Eulàlia de Riuprimer", "Population": 1284 }, "geometry": { "type": "Point", "coordinates": [ 2.1886294, 41.910644 ] } },
{ "type": "Feature", "properties": { "RegionName": "Catalunya", "DeptName": "Barcelona", "Admin3Name": "El Vallès Oriental", "CityName": "Santa Eulàlia de Ronçana", "Population": 7080 }, "geometry": { "type": "Point", "coordinates": [ 2.2319348, 41.6370713 ] } },
{ "type": "Feature", "properties": { "RegionName": "Catalunya", "DeptName": "Barcelona", "Admin3Name": "L'Anoia", "CityName": "Santa Margarida de Montbui", "Population": 9648 }, "geometry": { "type": "Point", "coordinates": [ 1.6030348, 41.556869 ] } },
{ "type": "Feature", "properties": { "RegionName": "Catalunya", "DeptName": "Barcelona", "Admin3Name": "L'Alt Penedès", "CityName": "Santa Margarida i els Monjos", "Population": 7332 }, "geometry": { "type": "Point", "coordinates": [ 1.658779, 41.318858 ] } },
{ "type": "Feature", "properties": { "RegionName": "Catalunya", "DeptName": "Barcelona", "Admin3Name": "Osona", "CityName": "L'Esquirol", "Population": 2150 }, "geometry": { "type": "Point", "coordinates": [ 2.3700711, 42.0348437 ] } },
{ "type": "Feature", "properties": { "RegionName": "Catalunya", "DeptName": "Barcelona", "Admin3Name": "El Bages", "CityName": "Santa Maria d'Oló", "Population": 1063 }, "geometry": { "type": "Point", "coordinates": [ 2.0352789, 41.8750012 ] } },
{ "type": "Feature", "properties": { "RegionName": "Catalunya", "DeptName": "Barcelona", "Admin3Name": "El Vallès Oriental", "CityName": "Santa Maria de Palautordera", "Population": 9103 }, "geometry": { "type": "Point", "coordinates": [ 2.4458364, 41.693365 ] } },
{ "type": "Feature", "properties": { "RegionName": "Catalunya", "DeptName": "Barcelona", "Admin3Name": "Maresme", "CityName": "Santa Susanna", "Population": 3275 }, "geometry": { "type": "Point", "coordinates": [ 2.7103215, 41.6399927 ] } },
{ "type": "Feature", "properties": { "RegionName": "Catalunya", "DeptName": "Barcelona", "Admin3Name": "El Bages", "CityName": "Sant Vicenç de Castellet", "Population": 9246 }, "geometry": { "type": "Point", "coordinates": [ 1.8646252, 41.6681599 ] } },
{ "type": "Feature", "properties": { "RegionName": "Catalunya", "DeptName": "Barcelona", "Admin3Name": "Maresme", "CityName": "Sant Vicenç de Montalt", "Population": 6049 }, "geometry": { "type": "Point", "coordinates": [ 2.5136872, 41.5793715 ] } },
{ "type": "Feature", "properties": { "RegionName": "Catalunya", "DeptName": "Barcelona", "Admin3Name": "Osona", "CityName": "Sant Vicenç de Torelló", "Population": 2001 }, "geometry": { "type": "Point", "coordinates": [ 2.2722722, 42.0638003 ] } },
{ "type": "Feature", "properties": { "RegionName": "Catalunya", "DeptName": "Barcelona", "Admin3Name": "El Vallès Occidental", "CityName": "Sentmenat", "Population": 8652 }, "geometry": { "type": "Point", "coordinates": [ 2.1359861, 41.6130052 ] } },
{ "type": "Feature", "properties": { "RegionName": "Catalunya", "DeptName": "Barcelona", "Admin3Name": "El Berguedà", "CityName": "Cercs", "Population": 1209 }, "geometry": { "type": "Point", "coordinates": [ 1.8601862, 42.1468742 ] } },
{ "type": "Feature", "properties": { "RegionName": "Catalunya", "DeptName": "Barcelona", "Admin3Name": "Osona", "CityName": "Seva", "Population": 3434 }, "geometry": { "type": "Point", "coordinates": [ 2.2839698, 41.8362054 ] } },
{ "type": "Feature", "properties": { "RegionName": "Catalunya", "DeptName": "Barcelona", "Admin3Name": "L'Alt Penedès", "CityName": "Subirats", "Population": 2988 }, "geometry": { "type": "Point", "coordinates": [ 1.8025852, 41.3971439 ] } },
{ "type": "Feature", "properties": { "RegionName": "Catalunya", "DeptName": "Barcelona", "Admin3Name": "El Bages", "CityName": "Súria", "Population": 5927 }, "geometry": { "type": "Point", "coordinates": [ 1.7537452, 41.8316368 ] } },
{ "type": "Feature", "properties": { "RegionName": "Catalunya", "DeptName": "Barcelona", "Admin3Name": "Osona", "CityName": "Taradell", "Population": 6262 }, "geometry": { "type": "Point", "coordinates": [ 2.28642, 41.8749392 ] } },
{ "type": "Feature", "properties": { "RegionName": "Catalunya", "DeptName": "Barcelona", "Admin3Name": "Maresme", "CityName": "Teià", "Population": 6238 }, "geometry": { "type": "Point", "coordinates": [ 2.3218228, 41.4964205 ] } },
{ "type": "Feature", "properties": { "RegionName": "Catalunya", "DeptName": "Barcelona", "Admin3Name": "Maresme", "CityName": "Tiana", "Population": 8411 }, "geometry": { "type": "Point", "coordinates": [ 2.267832, 41.4779937 ] } },
{ "type": "Feature", "properties": { "RegionName": "Catalunya", "DeptName": "Barcelona", "Admin3Name": "Osona", "CityName": "Tona", "Population": 8021 }, "geometry": { "type": "Point", "coordinates": [ 2.2273966, 41.8496449 ] } },
{ "type": "Feature", "properties": { "RegionName": "Catalunya", "DeptName": "Barcelona", "Admin3Name": "L'Anoia", "CityName": "La Torre de Claramunt", "Population": 3767 }, "geometry": { "type": "Point", "coordinates": [ 1.6621019, 41.534914099999988 ] } },
{ "type": "Feature", "properties": { "RegionName": "Catalunya", "DeptName": "Barcelona", "Admin3Name": "L'Alt Penedès", "CityName": "Torrelavit", "Population": 1401 }, "geometry": { "type": "Point", "coordinates": [ 1.7300462, 41.4464612 ] } },
{ "type": "Feature", "properties": { "RegionName": "Catalunya", "DeptName": "Barcelona", "Admin3Name": "L'Alt Penedès", "CityName": "Torrelles de Foix", "Population": 2246 }, "geometry": { "type": "Point", "coordinates": [ 1.5687229, 41.3883146 ] } },
{ "type": "Feature", "properties": { "RegionName": "Catalunya", "DeptName": "Barcelona", "Admin3Name": "El Baix Llobregat", "CityName": "Torrelles de Llobregat", "Population": 5883 }, "geometry": { "type": "Point", "coordinates": [ 1.9793518, 41.3554261 ] } },
{ "type": "Feature", "properties": { "RegionName": "Catalunya", "DeptName": "Barcelona", "Admin3Name": "El Vallès Occidental", "CityName": "Ullastrell", "Population": 2043 }, "geometry": { "type": "Point", "coordinates": [ 1.959412, 41.5265024 ] } },
{ "type": "Feature", "properties": { "RegionName": "Catalunya", "DeptName": "Barcelona", "Admin3Name": "El Vallès Occidental", "CityName": "Vacarisses", "Population": 6143 }, "geometry": { "type": "Point", "coordinates": [ 1.9222438, 41.5963298 ] } },
{ "type": "Feature", "properties": { "RegionName": "Catalunya", "DeptName": "Barcelona", "Admin3Name": "L'Anoia", "CityName": "Vallbona d'Anoia", "Population": 1417 }, "geometry": { "type": "Point", "coordinates": [ 1.7075563, 41.5183109 ] } },
{ "type": "Feature", "properties": { "RegionName": "Catalunya", "DeptName": "Barcelona", "Admin3Name": "El Vallès Oriental", "CityName": "Vallgorguina", "Population": 2749 }, "geometry": { "type": "Point", "coordinates": [ 2.5102008, 41.6477384 ] } },
{ "type": "Feature", "properties": { "RegionName": "Catalunya", "DeptName": "Barcelona", "Admin3Name": "El Vallès Oriental", "CityName": "Vallromanes", "Population": 2543 }, "geometry": { "type": "Point", "coordinates": [ 2.2941312, 41.5357473 ] } },
{ "type": "Feature", "properties": { "RegionName": "Catalunya", "DeptName": "Barcelona", "Admin3Name": "El Vallès Occidental", "CityName": "Viladecavalls", "Population": 7365 }, "geometry": { "type": "Point", "coordinates": [ 1.952724, 41.5538813 ] } },
{ "type": "Feature", "properties": { "RegionName": "Catalunya", "DeptName": "Barcelona", "Admin3Name": "L'Alt Penedès", "CityName": "Vilobí del Penedès", "Population": 1085 }, "geometry": { "type": "Point", "coordinates": [ 1.6621164, 41.3888131 ] } },
{ "type": "Feature", "properties": { "RegionName": "Catalunya", "DeptName": "Barcelona", "Admin3Name": "El Vallès Oriental", "CityName": "Vilanova del Vallès", "Population": 5241 }, "geometry": { "type": "Point", "coordinates": [ 2.287173, 41.5524487 ] } },
{ "type": "Feature", "properties": { "RegionName": "Catalunya", "DeptName": "Barcelona", "Admin3Name": "El Baix Llobregat", "CityName": "La Palma de Cervelló", "Population": 2966 }, "geometry": { "type": "Point", "coordinates": [ 1.9690429, 41.4135874 ] } }
]
}
