{
"type": "FeatureCollection",
"crs": { "type": "name", "properties": { "name": "urn:ogc:def:crs:OGC:1.3:CRS84" } },
                                                                                
"features": [
{ "type": "Feature", "properties": { "RegionName": "Comunidad Valenciana", "DeptName": "Castellón", "Admin3Name": "Alcalatén", "CityName": "Atzeneta del Maestrat", "Population": 1307 }, "geometry": { "type": "Point", "coordinates": [ -0.1708686, 40.2163493 ] } },
{ "type": "Feature", "properties": { "RegionName": "Comunidad Valenciana", "DeptName": "Castellón", "Admin3Name": "Alt Maestrat", "CityName": "Albocàsser", "Population": 1334 }, "geometry": { "type": "Point", "coordinates": [ 0.0250705, 40.356701 ] } },
{ "type": "Feature", "properties": { "RegionName": "Comunidad Valenciana", "DeptName": "Castellón", "Admin3Name": "Baix Maestrat", "CityName": "Alcalà de Xivert", "Population": 7255 }, "geometry": { "type": "Point", "coordinates": [ 0.2265823, 40.3059644 ] } },
{ "type": "Feature", "properties": { "RegionName": "Comunidad Valenciana", "DeptName": "Castellón", "Admin3Name": "Plana Baixa", "CityName": "Almenara", "Population": 6031 }, "geometry": { "type": "Point", "coordinates": [ -0.2232937, 39.753449 ] } },
{ "type": "Feature", "properties": { "RegionName": "Comunidad Valenciana", "DeptName": "Castellón", "Admin3Name": "Alto Palancia", "CityName": "Altura", "Population": 3647 }, "geometry": { "type": "Point", "coordinates": [ -0.5129437, 39.8507919 ] } },
{ "type": "Feature", "properties": { "RegionName": "Comunidad Valenciana", "DeptName": "Castellón", "Admin3Name": "Plana Baixa", "CityName": "Artana", "Population": 1992 }, "geometry": { "type": "Point", "coordinates": [ -0.2567233, 39.8904109 ] } },
{ "type": "Feature", "properties": { "RegionName": "Comunidad Valenciana", "DeptName": "Castellón", "Admin3Name": "Plana Baixa", "CityName": "Betxí", "Population": 5763 }, "geometry": { "type": "Point", "coordinates": [ -0.1986798, 39.9271423 ] } },
{ "type": "Feature", "properties": { "RegionName": "Comunidad Valenciana", "DeptName": "Castellón", "Admin3Name": "Alt Maestrat", "CityName": "Benasal", "Population": 1150 }, "geometry": { "type": "Point", "coordinates": [ -0.141951, 40.3797068 ] } },
{ "type": "Feature", "properties": { "RegionName": "Comunidad Valenciana", "DeptName": "Castellón", "Admin3Name": "Plana Alta", "CityName": "Benlloch", "Population": 1119 }, "geometry": { "type": "Point", "coordinates": [ 0.0268202, 40.2105043 ] } },
{ "type": "Feature", "properties": { "RegionName": "Comunidad Valenciana", "DeptName": "Castellón", "Admin3Name": "Plana Alta", "CityName": "Borriol", "Population": 5176 }, "geometry": { "type": "Point", "coordinates": [ -0.071173, 40.0414979 ] } },
{ "type": "Feature", "properties": { "RegionName": "Comunidad Valenciana", "DeptName": "Castellón", "Admin3Name": "Plana Alta", "CityName": "Cabanes", "Population": 2939 }, "geometry": { "type": "Point", "coordinates": [ 0.0444625, 40.1552893 ] } },
{ "type": "Feature", "properties": { "RegionName": "Comunidad Valenciana", "DeptName": "Castellón", "Admin3Name": "Baix Maestrat", "CityName": "Càlig", "Population": 2049 }, "geometry": { "type": "Point", "coordinates": [ 0.3550837, 40.461849099999988 ] } },
{ "type": "Feature", "properties": { "RegionName": "Comunidad Valenciana", "DeptName": "Castellón", "Admin3Name": "Alto Palancia", "CityName": "Castellnovo", "Population": 1003 }, "geometry": { "type": "Point", "coordinates": [ -0.4579028, 39.8615122 ] } },
{ "type": "Feature", "properties": { "RegionName": "Comunidad Valenciana", "DeptName": "Castellón", "Admin3Name": "Plana Alta", "CityName": "Les Coves de Vinromà", "Population": 1870 }, "geometry": { "type": "Point", "coordinates": [ 0.1202541, 40.3100766 ] } },
{ "type": "Feature", "properties": { "RegionName": "Comunidad Valenciana", "DeptName": "Castellón", "Admin3Name": "Plana Baixa", "CityName": "Chilches", "Population": 2752 }, "geometry": { "type": "Point", "coordinates": [ -0.187548, 39.7821299 ] } },
{ "type": "Feature", "properties": { "RegionName": "Comunidad Valenciana", "DeptName": "Castellón", "Admin3Name": "Alto Palancia", "CityName": "Jérica", "Population": 1599 }, "geometry": { "type": "Point", "coordinates": [ -0.5718884, 39.9117766 ] } },
{ "type": "Feature", "properties": { "RegionName": "Comunidad Valenciana", "DeptName": "Castellón", "Admin3Name": "Alcalatén", "CityName": "Lucena del Cid", "Population": 1385 }, "geometry": { "type": "Point", "coordinates": [ -0.281068, 40.136884599999988 ] } },
{ "type": "Feature", "properties": { "RegionName": "Comunidad Valenciana", "DeptName": "Castellón", "Admin3Name": "Plana Baixa", "CityName": "Moncofa", "Population": 6256 }, "geometry": { "type": "Point", "coordinates": [ -0.1470569, 39.8088264 ] } },
{ "type": "Feature", "properties": { "RegionName": "Comunidad Valenciana", "DeptName": "Castellón", "Admin3Name": "Ports", "CityName": "Morella", "Population": 2575 }, "geometry": { "type": "Point", "coordinates": [ -0.1015492, 40.6181387 ] } },
{ "type": "Feature", "properties": { "RegionName": "Comunidad Valenciana", "DeptName": "Castellón", "Admin3Name": "Plana Alta", "CityName": "Oropesa del Mar", "Population": 9493 }, "geometry": { "type": "Point", "coordinates": [ 0.1424781, 40.0914103 ] } },
{ "type": "Feature", "properties": { "RegionName": "Comunidad Valenciana", "DeptName": "Castellón", "Admin3Name": "Baix Maestrat", "CityName": "Peníscola", "Population": 7444 }, "geometry": { "type": "Point", "coordinates": [ 0.3913172, 40.3668829 ] } },
{ "type": "Feature", "properties": { "RegionName": "Comunidad Valenciana", "DeptName": "Castellón", "Admin3Name": "Plana Alta", "CityName": "La Pobla Tornesa", "Population": 1191 }, "geometry": { "type": "Point", "coordinates": [ -0.0005828, 40.102384699999988 ] } },
{ "type": "Feature", "properties": { "RegionName": "Comunidad Valenciana", "DeptName": "Castellón", "Admin3Name": "Plana Baixa", "CityName": "Ribesalbes", "Population": 1233 }, "geometry": { "type": "Point", "coordinates": [ -0.2778515, 40.0238782 ] } },
{ "type": "Feature", "properties": { "RegionName": "Comunidad Valenciana", "DeptName": "Castellón", "Admin3Name": "Baix Maestrat", "CityName": "Rossell", "Population": 1020 }, "geometry": { "type": "Point", "coordinates": [ 0.2203627, 40.617339 ] } },
{ "type": "Feature", "properties": { "RegionName": "Comunidad Valenciana", "DeptName": "Castellón", "Admin3Name": "Baix Maestrat", "CityName": "Sant Jordi", "Population": 1020 }, "geometry": { "type": "Point", "coordinates": [ 0.3321829, 40.5095107 ] } },
{ "type": "Feature", "properties": { "RegionName": "Comunidad Valenciana", "DeptName": "Castellón", "Admin3Name": "Baix Maestrat", "CityName": "Sant Mateu", "Population": 1995 }, "geometry": { "type": "Point", "coordinates": [ 0.1787657, 40.4654987 ] } },
{ "type": "Feature", "properties": { "RegionName": "Comunidad Valenciana", "DeptName": "Castellón", "Admin3Name": "Alto Palancia", "CityName": "Segorbe", "Population": 9073 }, "geometry": { "type": "Point", "coordinates": [ -0.4903524, 39.8491635 ] } },
{ "type": "Feature", "properties": { "RegionName": "Comunidad Valenciana", "DeptName": "Castellón", "Admin3Name": "Plana Alta", "CityName": "Sierra Engarcerán", "Population": 1018 }, "geometry": { "type": "Point", "coordinates": [ -0.0191338, 40.2694151 ] } },
{ "type": "Feature", "properties": { "RegionName": "Comunidad Valenciana", "DeptName": "Castellón", "Admin3Name": "Alto Palancia", "CityName": "Soneja", "Population": 1476 }, "geometry": { "type": "Point", "coordinates": [ -0.4301942, 39.8172408 ] } },
{ "type": "Feature", "properties": { "RegionName": "Comunidad Valenciana", "DeptName": "Castellón", "Admin3Name": "Plana Alta", "CityName": "Torreblanca", "Population": 5413 }, "geometry": { "type": "Point", "coordinates": [ 0.1951319, 40.2201804 ] } },
{ "type": "Feature", "properties": { "RegionName": "Comunidad Valenciana", "DeptName": "Castellón", "Admin3Name": "Baix Maestrat", "CityName": "Traiguera", "Population": 1534 }, "geometry": { "type": "Point", "coordinates": [ 0.2895943, 40.5244341 ] } },
{ "type": "Feature", "properties": { "RegionName": "Comunidad Valenciana", "DeptName": "Castellón", "Admin3Name": "Alcalatén", "CityName": "Useras", "Population": 1014 }, "geometry": { "type": "Point", "coordinates": [ -0.1676417, 40.1585889 ] } },
{ "type": "Feature", "properties": { "RegionName": "Comunidad Valenciana", "DeptName": "Castellón", "Admin3Name": "Plana Alta", "CityName": "Vall d'Alba", "Population": 2844 }, "geometry": { "type": "Point", "coordinates": [ -0.0361533, 40.1746959 ] } },
{ "type": "Feature", "properties": { "RegionName": "Comunidad Valenciana", "DeptName": "Castellón", "Admin3Name": "Plana Alta", "CityName": "Vilafamés", "Population": 1867 }, "geometry": { "type": "Point", "coordinates": [ -0.0519082, 40.1138985 ] } },
{ "type": "Feature", "properties": { "RegionName": "Comunidad Valenciana", "DeptName": "Castellón", "Admin3Name": "Alt Maestrat", "CityName": "Villafranca del Cid", "Population": 2295 }, "geometry": { "type": "Point", "coordinates": [ -0.2576419, 40.4297868 ] } },
{ "type": "Feature", "properties": { "RegionName": "Comunidad Valenciana", "DeptName": "Castellón", "Admin3Name": "Plana Baixa", "CityName": "la Vilavella", "Population": 3253 }, "geometry": { "type": "Point", "coordinates": [ -0.1844892, 39.8588423 ] } },
{ "type": "Feature", "properties": { "RegionName": "Comunidad Valenciana", "DeptName": "Castellón", "Admin3Name": "Alto Palancia", "CityName": "Viver", "Population": 1558 }, "geometry": { "type": "Point", "coordinates": [ -0.5979205, 39.9219229 ] } },
{ "type": "Feature", "properties": { "RegionName": "Comunidad Valenciana", "DeptName": "Castellón", "Admin3Name": "Plana Baixa", "CityName": "Alquerías del Niño Perdido", "Population": 4503 }, "geometry": { "type": "Point", "coordinates": [ -0.1147287, 39.8972101 ] } },
{ "type": "Feature", "properties": { "RegionName": "Comunidad Valenciana", "DeptName": "Castellón", "Admin3Name": "Plana Alta", "CityName": "Sant Joan de Moró", "Population": 3051 }, "geometry": { "type": "Point", "coordinates": [ -0.1389682, 40.0593823 ] } }
]
}
