{
"type": "FeatureCollection",
"crs": { "type": "name", "properties": { "name": "urn:ogc:def:crs:OGC:1.3:CRS84" } },
                                                                                
"features": [
{ "type": "Feature", "properties": { "RegionName": "Comunidad Valenciana", "DeptName": "Valencia", "Admin3Name": "Camp de Morvedre", "CityName": "Gilet", "Population": 3314 }, "geometry": { "type": "Point", "coordinates": [ -0.3268296, 39.6793602 ] } },
{ "type": "Feature", "properties": { "RegionName": "Comunidad Valenciana", "DeptName": "Valencia", "Admin3Name": "Hoya de Buñol", "CityName": "Godelleta", "Population": 3380 }, "geometry": { "type": "Point", "coordinates": [ -0.6879802, 39.42358 ] } },
{ "type": "Feature", "properties": { "RegionName": "Comunidad Valenciana", "DeptName": "Valencia", "Admin3Name": "Ribera Alta", "CityName": "Guadassuar", "Population": 5927 }, "geometry": { "type": "Point", "coordinates": [ -0.4773694, 39.1859001 ] } },
{ "type": "Feature", "properties": { "RegionName": "Comunidad Valenciana", "DeptName": "Valencia", "Admin3Name": "Safor", "CityName": "Xeraco", "Population": 5881 }, "geometry": { "type": "Point", "coordinates": [ -0.2162596, 39.033098 ] } },
{ "type": "Feature", "properties": { "RegionName": "Comunidad Valenciana", "DeptName": "Valencia", "Admin3Name": "Safor", "CityName": "Xeresa", "Population": 2239 }, "geometry": { "type": "Point", "coordinates": [ -0.2168457, 39.0102892 ] } },
{ "type": "Feature", "properties": { "RegionName": "Comunidad Valenciana", "DeptName": "Valencia", "Admin3Name": "Camp de Túria", "CityName": "Loriguilla", "Population": 1953 }, "geometry": { "type": "Point", "coordinates": [ -0.5718884, 39.4915086 ] } },
{ "type": "Feature", "properties": { "RegionName": "Comunidad Valenciana", "DeptName": "Valencia", "Admin3Name": "Vall d'Albaida", "CityName": "Llutxent", "Population": 2422 }, "geometry": { "type": "Point", "coordinates": [ -0.3554194, 38.9421315 ] } },
{ "type": "Feature", "properties": { "RegionName": "Comunidad Valenciana", "DeptName": "Valencia", "Admin3Name": "Costera", "CityName": "Llanera de Ranes", "Population": 1058 }, "geometry": { "type": "Point", "coordinates": [ -0.5724799, 38.9921431 ] } },
{ "type": "Feature", "properties": { "RegionName": "Comunidad Valenciana", "DeptName": "Valencia", "Admin3Name": "Ribera Baixa", "CityName": "Llaurí", "Population": 1233 }, "geometry": { "type": "Point", "coordinates": [ -0.3295463, 39.14675 ] } },
{ "type": "Feature", "properties": { "RegionName": "Comunidad Valenciana", "DeptName": "Valencia", "Admin3Name": "Ribera Alta", "CityName": "Llombai", "Population": 2765 }, "geometry": { "type": "Point", "coordinates": [ -0.57175, 39.2815767 ] } },
{ "type": "Feature", "properties": { "RegionName": "Comunidad Valenciana", "DeptName": "Valencia", "Admin3Name": "Costera", "CityName": "La Llosa de Ranes", "Population": 3575 }, "geometry": { "type": "Point", "coordinates": [ -0.5340538, 39.0190482 ] } },
{ "type": "Feature", "properties": { "RegionName": "Comunidad Valenciana", "DeptName": "Valencia", "Admin3Name": "Hoya de Buñol", "CityName": "Macastre", "Population": 1249 }, "geometry": { "type": "Point", "coordinates": [ -0.7871602, 39.3821489 ] } },
{ "type": "Feature", "properties": { "RegionName": "Comunidad Valenciana", "DeptName": "Valencia", "Admin3Name": "Ribera Alta", "CityName": "Manuel", "Population": 2507 }, "geometry": { "type": "Point", "coordinates": [ -0.4924787, 39.0509487 ] } },
{ "type": "Feature", "properties": { "RegionName": "Comunidad Valenciana", "DeptName": "Valencia", "Admin3Name": "Camp de Túria", "CityName": "Marines", "Population": 1859 }, "geometry": { "type": "Point", "coordinates": [ -0.5624264, 39.6749702 ] } },
{ "type": "Feature", "properties": { "RegionName": "Comunidad Valenciana", "DeptName": "Valencia", "Admin3Name": "Ribera Alta", "CityName": "Massalavés", "Population": 1597 }, "geometry": { "type": "Point", "coordinates": [ -0.5210565, 39.1584097 ] } },
{ "type": "Feature", "properties": { "RegionName": "Comunidad Valenciana", "DeptName": "Valencia", "Admin3Name": "L'Horta de València", "CityName": "Massalfassar", "Population": 2473 }, "geometry": { "type": "Point", "coordinates": [ -0.3260195, 39.5577457 ] } },
{ "type": "Feature", "properties": { "RegionName": "Comunidad Valenciana", "DeptName": "Valencia", "Admin3Name": "L'Horta de València", "CityName": "Massanassa", "Population": 9264 }, "geometry": { "type": "Point", "coordinates": [ -0.3996041, 39.4125966 ] } },
{ "type": "Feature", "properties": { "RegionName": "Comunidad Valenciana", "DeptName": "Valencia", "Admin3Name": "Safor", "CityName": "Miramar", "Population": 2620 }, "geometry": { "type": "Point", "coordinates": [ -0.1418931, 38.9504135 ] } },
{ "type": "Feature", "properties": { "RegionName": "Comunidad Valenciana", "DeptName": "Valencia", "Admin3Name": "Costera", "CityName": "Mogente", "Population": 4527 }, "geometry": { "type": "Point", "coordinates": [ -0.7520927, 38.8743266 ] } },
{ "type": "Feature", "properties": { "RegionName": "Comunidad Valenciana", "DeptName": "Valencia", "Admin3Name": "Ribera Alta", "CityName": "Montserrat", "Population": 7231 }, "geometry": { "type": "Point", "coordinates": [ -0.60118, 39.358261 ] } },
{ "type": "Feature", "properties": { "RegionName": "Comunidad Valenciana", "DeptName": "Valencia", "Admin3Name": "Vall d'Albaida", "CityName": "Montaverner", "Population": 1691 }, "geometry": { "type": "Point", "coordinates": [ -0.4944843, 38.8881041 ] } },
{ "type": "Feature", "properties": { "RegionName": "Comunidad Valenciana", "DeptName": "Valencia", "Admin3Name": "Costera", "CityName": "Montesa", "Population": 1257 }, "geometry": { "type": "Point", "coordinates": [ -0.6494431, 38.9486999 ] } },
{ "type": "Feature", "properties": { "RegionName": "Comunidad Valenciana", "DeptName": "Valencia", "Admin3Name": "El Baix Camp", "CityName": "Montroi", "Population": 2891 }, "geometry": { "type": "Point", "coordinates": [ -0.64885, 39.329199 ] } },
{ "type": "Feature", "properties": { "RegionName": "Comunidad Valenciana", "DeptName": "Valencia", "Admin3Name": "L'Horta de València", "CityName": "Museros", "Population": 6189 }, "geometry": { "type": "Point", "coordinates": [ -0.3383648, 39.5596489 ] } },
{ "type": "Feature", "properties": { "RegionName": "Comunidad Valenciana", "DeptName": "Valencia", "Admin3Name": "Camp de Túria", "CityName": "Náquera", "Population": 6204 }, "geometry": { "type": "Point", "coordinates": [ -0.4268889, 39.6598817 ] } },
{ "type": "Feature", "properties": { "RegionName": "Comunidad Valenciana", "DeptName": "Valencia", "Admin3Name": "Canal de Navarrés", "CityName": "Navarrés", "Population": 3104 }, "geometry": { "type": "Point", "coordinates": [ -0.6950987, 39.1015607 ] } },
{ "type": "Feature", "properties": { "RegionName": "Comunidad Valenciana", "DeptName": "Valencia", "Admin3Name": "Camp de Túria", "CityName": "Olocau", "Population": 1670 }, "geometry": { "type": "Point", "coordinates": [ -0.5311995, 39.7034731 ] } },
{ "type": "Feature", "properties": { "RegionName": "Comunidad Valenciana", "DeptName": "Valencia", "Admin3Name": "Vall d'Albaida", "CityName": "L'Olleria", "Population": 8369 }, "geometry": { "type": "Point", "coordinates": [ -0.550602, 38.9146211 ] } },
{ "type": "Feature", "properties": { "RegionName": "Comunidad Valenciana", "DeptName": "Valencia", "Admin3Name": "Safor", "CityName": "Palma de Gandía", "Population": 1652 }, "geometry": { "type": "Point", "coordinates": [ -0.2214767, 38.9250593 ] } },
{ "type": "Feature", "properties": { "RegionName": "Comunidad Valenciana", "DeptName": "Valencia", "Admin3Name": "Serranos", "CityName": "Pedralba", "Population": 2859 }, "geometry": { "type": "Point", "coordinates": [ -0.7259605, 39.6043817 ] } },
{ "type": "Feature", "properties": { "RegionName": "Comunidad Valenciana", "DeptName": "Valencia", "Admin3Name": "Safor", "CityName": "Piles", "Population": 2740 }, "geometry": { "type": "Point", "coordinates": [ -0.1342888, 38.941941 ] } },
{ "type": "Feature", "properties": { "RegionName": "Comunidad Valenciana", "DeptName": "Valencia", "Admin3Name": "Ribera Baixa", "CityName": "Polinyà de Xúquer", "Population": 2526 }, "geometry": { "type": "Point", "coordinates": [ -0.3689508, 39.1966908 ] } },
{ "type": "Feature", "properties": { "RegionName": "Comunidad Valenciana", "DeptName": "Valencia", "Admin3Name": "Safor", "CityName": "Potries", "Population": 1020 }, "geometry": { "type": "Point", "coordinates": [ -0.194579, 38.9150999 ] } },
{ "type": "Feature", "properties": { "RegionName": "Comunidad Valenciana", "DeptName": "Valencia", "Admin3Name": "L'Horta de València", "CityName": "La Pobla de Farnals", "Population": 7776 }, "geometry": { "type": "Point", "coordinates": [ -0.3266554, 39.5788524 ] } },
{ "type": "Feature", "properties": { "RegionName": "Comunidad Valenciana", "DeptName": "Valencia", "Admin3Name": "Vall d'Albaida", "CityName": "La Pobla del Duc", "Population": 2556 }, "geometry": { "type": "Point", "coordinates": [ -0.420766, 38.9047146 ] } },
{ "type": "Feature", "properties": { "RegionName": "Comunidad Valenciana", "DeptName": "Valencia", "Admin3Name": "Ribera Alta", "CityName": "La Pobla Llarga", "Population": 4536 }, "geometry": { "type": "Point", "coordinates": [ -0.4755993, 39.085084 ] } },
{ "type": "Feature", "properties": { "RegionName": "Comunidad Valenciana", "DeptName": "Valencia", "Admin3Name": "L'Horta de València", "CityName": "El Puig de Santa Maria", "Population": 8844 }, "geometry": { "type": "Point", "coordinates": [ -0.3031029, 39.5907504 ] } },
{ "type": "Feature", "properties": { "RegionName": "Comunidad Valenciana", "DeptName": "Valencia", "Admin3Name": "L'Horta de València", "CityName": "Rafelbunyol", "Population": 8883 }, "geometry": { "type": "Point", "coordinates": [ -0.3306436, 39.5888456 ] } },
{ "type": "Feature", "properties": { "RegionName": "Comunidad Valenciana", "DeptName": "Valencia", "Admin3Name": "Safor", "CityName": "Rafelcofer", "Population": 1410 }, "geometry": { "type": "Point", "coordinates": [ -0.1676417, 38.9321104 ] } },
{ "type": "Feature", "properties": { "RegionName": "Comunidad Valenciana", "DeptName": "Valencia", "Admin3Name": "Ribera Alta", "CityName": "Rafelguaraf", "Population": 2422 }, "geometry": { "type": "Point", "coordinates": [ -0.4554956, 39.0509815 ] } },
{ "type": "Feature", "properties": { "RegionName": "Comunidad Valenciana", "DeptName": "Valencia", "Admin3Name": "Safor", "CityName": "Real de Gandía", "Population": 2286 }, "geometry": { "type": "Point", "coordinates": [ -0.1934074, 38.9490351 ] } },
{ "type": "Feature", "properties": { "RegionName": "Comunidad Valenciana", "DeptName": "Valencia", "Admin3Name": "Ribera Alta", "CityName": "Real", "Population": 2291 }, "geometry": { "type": "Point", "coordinates": [ -0.609472, 39.33521 ] } },
{ "type": "Feature", "properties": { "RegionName": "Comunidad Valenciana", "DeptName": "Valencia", "Admin3Name": "Ribera Baixa", "CityName": "Riola", "Population": 1838 }, "geometry": { "type": "Point", "coordinates": [ -0.3352314, 39.196807799999988 ] } },
{ "type": "Feature", "properties": { "RegionName": "Comunidad Valenciana", "DeptName": "Valencia", "Admin3Name": "L'Horta de València", "CityName": "Rocafort", "Population": 6829 }, "geometry": { "type": "Point", "coordinates": [ -0.41134, 39.5335655 ] } },
{ "type": "Feature", "properties": { "RegionName": "Comunidad Valenciana", "DeptName": "Valencia", "Admin3Name": "Costera", "CityName": "Rotglà i Corberà", "Population": 1144 }, "geometry": { "type": "Point", "coordinates": [ -0.5653104, 39.004684 ] } },
{ "type": "Feature", "properties": { "RegionName": "Comunidad Valenciana", "DeptName": "Valencia", "Admin3Name": "Safor", "CityName": "Rótova", "Population": 1285 }, "geometry": { "type": "Point", "coordinates": [ -0.2578967, 38.9319466 ] } },
{ "type": "Feature", "properties": { "RegionName": "Comunidad Valenciana", "DeptName": "Valencia", "Admin3Name": "Ribera Alta", "CityName": "Senyera", "Population": 1175 }, "geometry": { "type": "Point", "coordinates": [ -0.511016, 39.0627973 ] } },
{ "type": "Feature", "properties": { "RegionName": "Comunidad Valenciana", "DeptName": "Valencia", "Admin3Name": "Camp de Túria", "CityName": "Serra", "Population": 3142 }, "geometry": { "type": "Point", "coordinates": [ -0.427837, 39.6858588 ] } },
{ "type": "Feature", "properties": { "RegionName": "Comunidad Valenciana", "DeptName": "Valencia", "Admin3Name": "Hoya de Buñol", "CityName": "Siete Aguas", "Population": 1282 }, "geometry": { "type": "Point", "coordinates": [ -0.9163981, 39.4737878 ] } },
{ "type": "Feature", "properties": { "RegionName": "Comunidad Valenciana", "DeptName": "Valencia", "Admin3Name": "Safor", "CityName": "Simat de la Valldigna", "Population": 3362 }, "geometry": { "type": "Point", "coordinates": [ -0.3107403, 39.0426577 ] } },
{ "type": "Feature", "properties": { "RegionName": "Comunidad Valenciana", "DeptName": "Valencia", "Admin3Name": "Utiel-Requena DO", "CityName": "Sinarcas", "Population": 1168 }, "geometry": { "type": "Point", "coordinates": [ -1.2301597, 39.7317112 ] } },
{ "type": "Feature", "properties": { "RegionName": "Comunidad Valenciana", "DeptName": "Valencia", "Admin3Name": "Ribera Baixa", "CityName": "Sollana", "Population": 4941 }, "geometry": { "type": "Point", "coordinates": [ -0.3830231, 39.2779662 ] } },
{ "type": "Feature", "properties": { "RegionName": "Comunidad Valenciana", "DeptName": "Valencia", "Admin3Name": "Ribera Alta", "CityName": "Sumacàrcer", "Population": 1168 }, "geometry": { "type": "Point", "coordinates": [ -0.6310769, 39.0967167 ] } },
{ "type": "Feature", "properties": { "RegionName": "Comunidad Valenciana", "DeptName": "Valencia", "Admin3Name": "L'Horta de València", "CityName": "Tavernes Blanques", "Population": 9244 }, "geometry": { "type": "Point", "coordinates": [ -0.3636067, 39.5069299 ] } },
{ "type": "Feature", "properties": { "RegionName": "Comunidad Valenciana", "DeptName": "Valencia", "Admin3Name": "Ribera Alta", "CityName": "Tous", "Population": 1265 }, "geometry": { "type": "Point", "coordinates": [ -0.5860856, 39.138592 ] } },
{ "type": "Feature", "properties": { "RegionName": "Comunidad Valenciana", "DeptName": "Valencia", "Admin3Name": "Serranos", "CityName": "Tuéjar", "Population": 1158 }, "geometry": { "type": "Point", "coordinates": [ -1.0412584, 39.7663977 ] } },
{ "type": "Feature", "properties": { "RegionName": "Comunidad Valenciana", "DeptName": "Valencia", "Admin3Name": "Ribera Alta", "CityName": "Turís", "Population": 6528 }, "geometry": { "type": "Point", "coordinates": [ -0.7117137, 39.3897595 ] } },
{ "type": "Feature", "properties": { "RegionName": "Comunidad Valenciana", "DeptName": "Valencia", "Admin3Name": "Costera", "CityName": "Vallada", "Population": 3121 }, "geometry": { "type": "Point", "coordinates": [ -0.6903529, 38.8956027 ] } },
{ "type": "Feature", "properties": { "RegionName": "Comunidad Valenciana", "DeptName": "Valencia", "Admin3Name": "Utiel-Requena DO", "CityName": "Venta del Moro", "Population": 1376 }, "geometry": { "type": "Point", "coordinates": [ -1.3577749, 39.485013 ] } },
{ "type": "Feature", "properties": { "RegionName": "Comunidad Valenciana", "DeptName": "Valencia", "Admin3Name": "Safor", "CityName": "Vilallonga", "Population": 4352 }, "geometry": { "type": "Point", "coordinates": [ -0.2070885, 38.8860393 ] } },
{ "type": "Feature", "properties": { "RegionName": "Comunidad Valenciana", "DeptName": "Valencia", "Admin3Name": "Camp de Túria", "CityName": "Vilamarxant", "Population": 9208 }, "geometry": { "type": "Point", "coordinates": [ -0.6239696, 39.5688077 ] } },
{ "type": "Feature", "properties": { "RegionName": "Comunidad Valenciana", "DeptName": "Valencia", "Admin3Name": "Ribera Alta", "CityName": "Villanueva de Castellón", "Population": 7270 }, "geometry": { "type": "Point", "coordinates": [ -0.5127877, 39.0764636 ] } },
{ "type": "Feature", "properties": { "RegionName": "Comunidad Valenciana", "DeptName": "Valencia", "Admin3Name": "Serranos", "CityName": "Villar del Arzobispo", "Population": 3597 }, "geometry": { "type": "Point", "coordinates": [ -0.8270193, 39.7339808 ] } },
{ "type": "Feature", "properties": { "RegionName": "Comunidad Valenciana", "DeptName": "Valencia", "Admin3Name": "L'Horta de València", "CityName": "Vinalesa", "Population": 3284 }, "geometry": { "type": "Point", "coordinates": [ -0.3707161, 39.5382259 ] } },
{ "type": "Feature", "properties": { "RegionName": "Comunidad Valenciana", "DeptName": "Valencia", "Admin3Name": "Hoya de Buñol", "CityName": "Yátova", "Population": 2117 }, "geometry": { "type": "Point", "coordinates": [ -0.8091671, 39.3839423 ] } },
{ "type": "Feature", "properties": { "RegionName": "Comunidad Valenciana", "DeptName": "Valencia", "Admin3Name": "Camp de Túria", "CityName": "San Antonio de Benagéber", "Population": 7981 }, "geometry": { "type": "Point", "coordinates": [ -0.4992069, 39.561009899999988 ] } },
{ "type": "Feature", "properties": { "RegionName": "Comunidad Valenciana", "DeptName": "Valencia", "Admin3Name": "Rincón de Ademuz", "CityName": "Ademuz", "Population": 1149 }, "geometry": { "type": "Point", "coordinates": [ -1.2870052, 40.061337900000012 ] } },
{ "type": "Feature", "properties": { "RegionName": "Comunidad Valenciana", "DeptName": "Valencia", "Admin3Name": "Safor", "CityName": "Ador", "Population": 1374 }, "geometry": { "type": "Point", "coordinates": [ -0.2256387, 38.918307899999988 ] } },
{ "type": "Feature", "properties": { "RegionName": "Comunidad Valenciana", "DeptName": "Valencia", "Admin3Name": "Vall d'Albaida", "CityName": "Atzeneta d'Albaida", "Population": 1160 }, "geometry": { "type": "Point", "coordinates": [ -0.4986166, 38.8312511 ] } },
{ "type": "Feature", "properties": { "RegionName": "Comunidad Valenciana", "DeptName": "Valencia", "Admin3Name": "Vall d'Albaida", "CityName": "Agullent", "Population": 2402 }, "geometry": { "type": "Point", "coordinates": [ -0.5494064, 38.8229998 ] } },
{ "type": "Feature", "properties": { "RegionName": "Comunidad Valenciana", "DeptName": "Valencia", "Admin3Name": "Vall d'Albaida", "CityName": "Albaida", "Population": 5987 }, "geometry": { "type": "Point", "coordinates": [ -0.5201976, 38.8396571 ] } },
{ "type": "Feature", "properties": { "RegionName": "Comunidad Valenciana", "DeptName": "Valencia", "Admin3Name": "Ribera Baixa", "CityName": "Albalat de la Ribera", "Population": 3467 }, "geometry": { "type": "Point", "coordinates": [ -0.3877848, 39.2018284 ] } },
{ "type": "Feature", "properties": { "RegionName": "Comunidad Valenciana", "DeptName": "Valencia", "Admin3Name": "L'Horta de València", "CityName": "Albalat dels Sorells", "Population": 3896 }, "geometry": { "type": "Point", "coordinates": [ -0.3460091, 39.5434721 ] } },
{ "type": "Feature", "properties": { "RegionName": "Comunidad Valenciana", "DeptName": "Valencia", "Admin3Name": "Camp de Morvedre", "CityName": "Albalat dels Tarongers", "Population": 1178 }, "geometry": { "type": "Point", "coordinates": [ -0.3374829, 39.7032393 ] } },
{ "type": "Feature", "properties": { "RegionName": "Comunidad Valenciana", "DeptName": "Valencia", "Admin3Name": "Hoya de Buñol", "CityName": "Alborache", "Population": 1136 }, "geometry": { "type": "Point", "coordinates": [ -0.7753152, 39.3936448 ] } },
{ "type": "Feature", "properties": { "RegionName": "Comunidad Valenciana", "DeptName": "Valencia", "Admin3Name": "L'Horta de València", "CityName": "Albuixech", "Population": 3928 }, "geometry": { "type": "Point", "coordinates": [ -0.324844, 39.5448254 ] } },
{ "type": "Feature", "properties": { "RegionName": "Comunidad Valenciana", "DeptName": "Valencia", "Admin3Name": "L'Horta de València", "CityName": "Alcàsser", "Population": 9612 }, "geometry": { "type": "Point", "coordinates": [ -0.4446892, 39.3682513 ] } },
{ "type": "Feature", "properties": { "RegionName": "Comunidad Valenciana", "DeptName": "Valencia", "Admin3Name": "Ribera Alta", "CityName": "Alcàntera de Xúquer", "Population": 1341 }, "geometry": { "type": "Point", "coordinates": [ -0.5606525, 39.0677797 ] } },
{ "type": "Feature", "properties": { "RegionName": "Comunidad Valenciana", "DeptName": "Valencia", "Admin3Name": "Costera", "CityName": "L'Alcúdia de Crespins", "Population": 5282 }, "geometry": { "type": "Point", "coordinates": [ -0.5936549, 38.9728725 ] } },
{ "type": "Feature", "properties": { "RegionName": "Comunidad Valenciana", "DeptName": "Valencia", "Admin3Name": "L'Horta de València", "CityName": "Alfara del Patriarca", "Population": 3228 }, "geometry": { "type": "Point", "coordinates": [ -0.38543, 39.5465798 ] } },
{ "type": "Feature", "properties": { "RegionName": "Comunidad Valenciana", "DeptName": "Valencia", "Admin3Name": "Ribera Alta", "CityName": "Alfarp", "Population": 1532 }, "geometry": { "type": "Point", "coordinates": [ -0.5606525, 39.2771078 ] } },
{ "type": "Feature", "properties": { "RegionName": "Comunidad Valenciana", "DeptName": "Valencia", "Admin3Name": "Vall d'Albaida", "CityName": "Alfarrasí", "Population": 1247 }, "geometry": { "type": "Point", "coordinates": [ -0.4952455, 38.9040119 ] } },
{ "type": "Feature", "properties": { "RegionName": "Comunidad Valenciana", "DeptName": "Valencia", "Admin3Name": "Camp de Morvedre", "CityName": "Algimia de Alfara", "Population": 1048 }, "geometry": { "type": "Point", "coordinates": [ -0.3624898, 39.7533658 ] } },
{ "type": "Feature", "properties": { "RegionName": "Comunidad Valenciana", "DeptName": "Valencia", "Admin3Name": "L'Horta de València", "CityName": "Almàssera", "Population": 7269 }, "geometry": { "type": "Point", "coordinates": [ -0.3571841, 39.5104704 ] } },
{ "type": "Feature", "properties": { "RegionName": "Comunidad Valenciana", "DeptName": "Valencia", "Admin3Name": "Safor", "CityName": "Almoines", "Population": 2302 }, "geometry": { "type": "Point", "coordinates": [ -0.1816936, 38.9438345 ] } },
{ "type": "Feature", "properties": { "RegionName": "Comunidad Valenciana", "DeptName": "Valencia", "Admin3Name": "Ribera Baixa", "CityName": "Almussafes", "Population": 8759 }, "geometry": { "type": "Point", "coordinates": [ -0.413208, 39.292765300000013 ] } },
{ "type": "Feature", "properties": { "RegionName": "Comunidad Valenciana", "DeptName": "Valencia", "Admin3Name": "Safor", "CityName": "L'Alqueria de la Comtessa", "Population": 1504 }, "geometry": { "type": "Point", "coordinates": [ -0.1533883, 38.9368331 ] } },
{ "type": "Feature", "properties": { "RegionName": "Comunidad Valenciana", "DeptName": "Valencia", "Admin3Name": "Canal de Navarrés", "CityName": "Anna", "Population": 2712 }, "geometry": { "type": "Point", "coordinates": [ -0.6476653, 39.0184751 ] } },
{ "type": "Feature", "properties": { "RegionName": "Comunidad Valenciana", "DeptName": "Valencia", "Admin3Name": "Ribera Alta", "CityName": "Antella", "Population": 1301 }, "geometry": { "type": "Point", "coordinates": [ -0.5919029, 39.0806086 ] } },
{ "type": "Feature", "properties": { "RegionName": "Comunidad Valenciana", "DeptName": "Valencia", "Admin3Name": "Vall d'Albaida", "CityName": "Aielo de Malferit", "Population": 4705 }, "geometry": { "type": "Point", "coordinates": [ -0.5883903, 38.8797845 ] } },
{ "type": "Feature", "properties": { "RegionName": "Comunidad Valenciana", "DeptName": "Valencia", "Admin3Name": "Valle de Cofrentes", "CityName": "Ayora", "Population": 5303 }, "geometry": { "type": "Point", "coordinates": [ -1.0574164, 39.059789 ] } },
{ "type": "Feature", "properties": { "RegionName": "Comunidad Valenciana", "DeptName": "Valencia", "Admin3Name": "Costera", "CityName": "Barxeta", "Population": 1615 }, "geometry": { "type": "Point", "coordinates": [ -0.4178201, 39.0214754 ] } },
{ "type": "Feature", "properties": { "RegionName": "Comunidad Valenciana", "DeptName": "Valencia", "Admin3Name": "Safor", "CityName": "Barx", "Population": 1264 }, "geometry": { "type": "Point", "coordinates": [ -0.3013407, 39.0140128 ] } },
{ "type": "Feature", "properties": { "RegionName": "Comunidad Valenciana", "DeptName": "Valencia", "Admin3Name": "Safor", "CityName": "Bellreguard", "Population": 4623 }, "geometry": { "type": "Point", "coordinates": [ -0.1619949, 38.9458572 ] } },
{ "type": "Feature", "properties": { "RegionName": "Comunidad Valenciana", "DeptName": "Valencia", "Admin3Name": "Safor", "CityName": "Beniarjó", "Population": 1754 }, "geometry": { "type": "Point", "coordinates": [ -0.1865978, 38.9326258 ] } },
{ "type": "Feature", "properties": { "RegionName": "Comunidad Valenciana", "DeptName": "Valencia", "Admin3Name": "Camp de Morvedre", "CityName": "Benifairó de les Valls", "Population": 2239 }, "geometry": { "type": "Point", "coordinates": [ -0.2694855, 39.7279988 ] } },
{ "type": "Feature", "properties": { "RegionName": "Comunidad Valenciana", "DeptName": "Valencia", "Admin3Name": "Safor", "CityName": "Benifairó de la Valldigna", "Population": 1622 }, "geometry": { "type": "Point", "coordinates": [ -0.3031019, 39.0547984 ] } },
{ "type": "Feature", "properties": { "RegionName": "Comunidad Valenciana", "DeptName": "Valencia", "Admin3Name": "Vall d'Albaida", "CityName": "Benigànim", "Population": 6120 }, "geometry": { "type": "Point", "coordinates": [ -0.4439006, 38.9431437 ] } },
{ "type": "Feature", "properties": { "RegionName": "Comunidad Valenciana", "DeptName": "Valencia", "Admin3Name": "Ribera Alta", "CityName": "Benimodo", "Population": 2229 }, "geometry": { "type": "Point", "coordinates": [ -0.5246008, 39.216888 ] } },
{ "type": "Feature", "properties": { "RegionName": "Comunidad Valenciana", "DeptName": "Valencia", "Admin3Name": "L'Horta de València", "CityName": "Beniparrell", "Population": 1922 }, "geometry": { "type": "Point", "coordinates": [ -0.4107509, 39.3814871 ] } },
{ "type": "Feature", "properties": { "RegionName": "Comunidad Valenciana", "DeptName": "Valencia", "Admin3Name": "Safor", "CityName": "Benirredrà", "Population": 1592 }, "geometry": { "type": "Point", "coordinates": [ -0.1927966, 38.9612329 ] } },
{ "type": "Feature", "properties": { "RegionName": "Comunidad Valenciana", "DeptName": "Valencia", "Admin3Name": "Camp de Túria", "CityName": "Benisanó", "Population": 2233 }, "geometry": { "type": "Point", "coordinates": [ -0.5742543, 39.6129739 ] } },
{ "type": "Feature", "properties": { "RegionName": "Comunidad Valenciana", "DeptName": "Valencia", "Admin3Name": "Vall d'Albaida", "CityName": "Bocairent", "Population": 4357 }, "geometry": { "type": "Point", "coordinates": [ -0.612127, 38.765324 ] } },
{ "type": "Feature", "properties": { "RegionName": "Comunidad Valenciana", "DeptName": "Valencia", "Admin3Name": "Canal de Navarrés", "CityName": "Bolbaite", "Population": 1389 }, "geometry": { "type": "Point", "coordinates": [ -0.6737468, 39.0600204 ] } },
{ "type": "Feature", "properties": { "RegionName": "Comunidad Valenciana", "DeptName": "Valencia", "Admin3Name": "L'Horta de València", "CityName": "Bonrepòs i Mirambell", "Population": 3566 }, "geometry": { "type": "Point", "coordinates": [ -0.3646551, 39.5177527 ] } },
{ "type": "Feature", "properties": { "RegionName": "Comunidad Valenciana", "DeptName": "Valencia", "Admin3Name": "Hoya de Buñol", "CityName": "Buñol", "Population": 9726 }, "geometry": { "type": "Point", "coordinates": [ -0.7901334, 39.4203436 ] } },
{ "type": "Feature", "properties": { "RegionName": "Comunidad Valenciana", "DeptName": "Valencia", "Admin3Name": "Utiel-Requena DO", "CityName": "Camporrobles", "Population": 1322 }, "geometry": { "type": "Point", "coordinates": [ -1.4036179, 39.6472394 ] } },
{ "type": "Feature", "properties": { "RegionName": "Comunidad Valenciana", "DeptName": "Valencia", "Admin3Name": "Camp de Morvedre", "CityName": "Canet d'En Berenguer", "Population": 6426 }, "geometry": { "type": "Point", "coordinates": [ -0.2191903, 39.6806346 ] } },
{ "type": "Feature", "properties": { "RegionName": "Comunidad Valenciana", "DeptName": "Valencia", "Admin3Name": "Ribera Alta", "CityName": "Càrcer", "Population": 1965 }, "geometry": { "type": "Point", "coordinates": [ -0.5664562, 39.0683003 ] } },
{ "type": "Feature", "properties": { "RegionName": "Comunidad Valenciana", "DeptName": "Valencia", "Admin3Name": "Camp de Túria", "CityName": "Casinos", "Population": 2785 }, "geometry": { "type": "Point", "coordinates": [ -0.7081527, 39.6986762 ] } },
{ "type": "Feature", "properties": { "RegionName": "Comunidad Valenciana", "DeptName": "Valencia", "Admin3Name": "Vall d'Albaida", "CityName": "Castelló de Rugat", "Population": 2287 }, "geometry": { "type": "Point", "coordinates": [ -0.3830754, 38.8735003 ] } },
{ "type": "Feature", "properties": { "RegionName": "Comunidad Valenciana", "DeptName": "Valencia", "Admin3Name": "Ribera Alta", "CityName": "Catadau", "Population": 2761 }, "geometry": { "type": "Point", "coordinates": [ -0.5695269, 39.2748307 ] } },
{ "type": "Feature", "properties": { "RegionName": "Comunidad Valenciana", "DeptName": "Valencia", "Admin3Name": "Valle de Cofrentes", "CityName": "Cofrentes", "Population": 1097 }, "geometry": { "type": "Point", "coordinates": [ -1.0616065, 39.229485 ] } },
{ "type": "Feature", "properties": { "RegionName": "Comunidad Valenciana", "DeptName": "Valencia", "Admin3Name": "Ribera Baixa", "CityName": "Corbera", "Population": 3233 }, "geometry": { "type": "Point", "coordinates": [ -0.3530666, 39.1583869 ] } },
{ "type": "Feature", "properties": { "RegionName": "Comunidad Valenciana", "DeptName": "Valencia", "Admin3Name": "Camp de Morvedre", "CityName": "Quart de les Valls", "Population": 1056 }, "geometry": { "type": "Point", "coordinates": [ -0.2719814, 39.741107199999988 ] } },
{ "type": "Feature", "properties": { "RegionName": "Comunidad Valenciana", "DeptName": "Valencia", "Admin3Name": "Camp de Morvedre", "CityName": "Quartell", "Population": 1557 }, "geometry": { "type": "Point", "coordinates": [ -0.2631779, 39.7379064 ] } },
{ "type": "Feature", "properties": { "RegionName": "Comunidad Valenciana", "DeptName": "Valencia", "Admin3Name": "Vall d'Albaida", "CityName": "Quatretonda", "Population": 2378 }, "geometry": { "type": "Point", "coordinates": [ -0.4019162, 38.9465483 ] } },
{ "type": "Feature", "properties": { "RegionName": "Comunidad Valenciana", "DeptName": "Valencia", "Admin3Name": "Serranos", "CityName": "Chelva", "Population": 1446 }, "geometry": { "type": "Point", "coordinates": [ -0.9952132, 39.7494134 ] } },
{ "type": "Feature", "properties": { "RegionName": "Comunidad Valenciana", "DeptName": "Valencia", "Admin3Name": "Canal de Navarrés", "CityName": "Chella", "Population": 2604 }, "geometry": { "type": "Point", "coordinates": [ -0.6595184, 39.0418643 ] } },
{ "type": "Feature", "properties": { "RegionName": "Comunidad Valenciana", "DeptName": "Valencia", "Admin3Name": "Hoya de Buñol", "CityName": "Cheste", "Population": 8459 }, "geometry": { "type": "Point", "coordinates": [ -0.6856076, 39.4934832 ] } },
{ "type": "Feature", "properties": { "RegionName": "Comunidad Valenciana", "DeptName": "Valencia", "Admin3Name": "Safor", "CityName": "Daimús", "Population": 3054 }, "geometry": { "type": "Point", "coordinates": [ -0.1486987, 38.97236 ] } },
{ "type": "Feature", "properties": { "RegionName": "Comunidad Valenciana", "DeptName": "Valencia", "Admin3Name": "Canal de Navarrés", "CityName": "Enguera", "Population": 5083 }, "geometry": { "type": "Point", "coordinates": [ -0.6879802, 38.9791339 ] } },
{ "type": "Feature", "properties": { "RegionName": "Comunidad Valenciana", "DeptName": "Valencia", "Admin3Name": "Camp de Morvedre", "CityName": "Estivella", "Population": 1380 }, "geometry": { "type": "Point", "coordinates": [ -0.3483614, 39.713842 ] } },
{ "type": "Feature", "properties": { "RegionName": "Comunidad Valenciana", "DeptName": "Valencia", "Admin3Name": "Camp de Morvedre", "CityName": "Faura", "Population": 3477 }, "geometry": { "type": "Point", "coordinates": [ -0.2637108, 39.7259095 ] } },
{ "type": "Feature", "properties": { "RegionName": "Comunidad Valenciana", "DeptName": "Valencia", "Admin3Name": "Ribera Baixa", "CityName": "Favara", "Population": 2461 }, "geometry": { "type": "Point", "coordinates": [ -0.2913559, 39.1273709 ] } },
{ "type": "Feature", "properties": { "RegionName": "Comunidad Valenciana", "DeptName": "Valencia", "Admin3Name": "Vall d'Albaida", "CityName": "Fontanars dels Alforins", "Population": 1003 }, "geometry": { "type": "Point", "coordinates": [ -0.7852154, 38.7828259 ] } },
{ "type": "Feature", "properties": { "RegionName": "Comunidad Valenciana", "DeptName": "Valencia", "Admin3Name": "Ribera Baixa", "CityName": "Fortaleny", "Population": 1039 }, "geometry": { "type": "Point", "coordinates": [ -0.315441, 39.1831989 ] } },
{ "type": "Feature", "properties": { "RegionName": "Comunidad Valenciana", "DeptName": "Valencia", "Admin3Name": "L'Horta de València", "CityName": "Foios", "Population": 7199 }, "geometry": { "type": "Point", "coordinates": [ -0.3524784, 39.5363435 ] } },
{ "type": "Feature", "properties": { "RegionName": "Comunidad Valenciana", "DeptName": "Valencia", "Admin3Name": "Safor", "CityName": "La Font d'En Carròs", "Population": 3761 }, "geometry": { "type": "Point", "coordinates": [ -0.1711542, 38.9164419 ] } },
{ "type": "Feature", "properties": { "RegionName": "Comunidad Valenciana", "DeptName": "Valencia", "Admin3Name": "Costera", "CityName": "La Font de la Figuera", "Population": 2139 }, "geometry": { "type": "Point", "coordinates": [ -0.8800271, 38.8061311 ] } },
{ "type": "Feature", "properties": { "RegionName": "Comunidad Valenciana", "DeptName": "Valencia", "Admin3Name": "Ribera Alta", "CityName": "Gavarda", "Population": 1113 }, "geometry": { "type": "Point", "coordinates": [ -0.5602546, 39.0913006 ] } },
{ "type": "Feature", "properties": { "RegionName": "Comunidad Valenciana", "DeptName": "Valencia", "Admin3Name": "Costera", "CityName": "Genovés", "Population": 2821 }, "geometry": { "type": "Point", "coordinates": [ -0.4702895, 38.9880342 ] } }
]
}
