{
"type": "FeatureCollection",
"crs": { "type": "name", "properties": { "name": "urn:ogc:def:crs:OGC:1.3:CRS84" } },
                                                                                
"features": [
{ "type": "Feature", "properties": { "RegionName": "Galicia", "DeptName": "Lugo", "Admin3Name": "Terra Chá", "CityName": "Abadín", "Population": 2612 }, "geometry": { "type": "Point", "coordinates": [ -7.4749901, 43.363076199999988 ] } },
{ "type": "Feature", "properties": { "RegionName": "Galicia", "DeptName": "Lugo", "Admin3Name": "A Mariña Central", "CityName": "Alfoz", "Population": 1846 }, "geometry": { "type": "Point", "coordinates": [ -7.4273195, 43.5018858 ] } },
{ "type": "Feature", "properties": { "RegionName": "Galicia", "DeptName": "Lugo", "Admin3Name": "A Ulloa", "CityName": "Antas de Ulla", "Population": 2109 }, "geometry": { "type": "Point", "coordinates": [ -7.8906501, 42.7823131 ] } },
{ "type": "Feature", "properties": { "RegionName": "Galicia", "DeptName": "Lugo", "Admin3Name": "A Fonsagrada", "CityName": "Baleira", "Population": 1380 }, "geometry": { "type": "Point", "coordinates": [ -7.2458736, 43.016287899999988 ] } },
{ "type": "Feature", "properties": { "RegionName": "Galicia", "DeptName": "Lugo", "Admin3Name": "A Mariña Oriental", "CityName": "Barreiros", "Population": 3021 }, "geometry": { "type": "Point", "coordinates": [ -7.2206915, 43.516283 ] } },
{ "type": "Feature", "properties": { "RegionName": "Galicia", "DeptName": "Lugo", "Admin3Name": "Os Ancares", "CityName": "Becerreá", "Population": 2987 }, "geometry": { "type": "Point", "coordinates": [ -7.1594903, 42.8519874 ] } },
{ "type": "Feature", "properties": { "RegionName": "Galicia", "DeptName": "Lugo", "Admin3Name": "Terra Chá", "CityName": "Begonte", "Population": 3160 }, "geometry": { "type": "Point", "coordinates": [ -7.684327, 43.1503555 ] } },
{ "type": "Feature", "properties": { "RegionName": "Galicia", "DeptName": "Lugo", "Admin3Name": "Terra de Lemos", "CityName": "Bóveda", "Population": 1545 }, "geometry": { "type": "Point", "coordinates": [ -7.4851711, 42.6230165 ] } },
{ "type": "Feature", "properties": { "RegionName": "Galicia", "DeptName": "Lugo", "Admin3Name": "Chantada", "CityName": "Carballedo", "Population": 2351 }, "geometry": { "type": "Point", "coordinates": [ -7.8291466, 42.5209619 ] } },
{ "type": "Feature", "properties": { "RegionName": "Galicia", "DeptName": "Lugo", "Admin3Name": "Terra Chá", "CityName": "Castro de Rei", "Population": 5153 }, "geometry": { "type": "Point", "coordinates": [ -7.4010613, 43.2086787 ] } },
{ "type": "Feature", "properties": { "RegionName": "Galicia", "DeptName": "Lugo", "Admin3Name": "Lugo", "CityName": "Castroverde", "Population": 2802 }, "geometry": { "type": "Point", "coordinates": [ -7.3256658, 43.0296285 ] } },
{ "type": "Feature", "properties": { "RegionName": "Galicia", "DeptName": "Lugo", "Admin3Name": "Los Ancares Lucenses", "CityName": "Cervantes", "Population": 1487 }, "geometry": { "type": "Point", "coordinates": [ 7.0423, 42.5204 ] } },
{ "type": "Feature", "properties": { "RegionName": "Galicia", "DeptName": "Lugo", "Admin3Name": "A Mariña Occidental", "CityName": "Cervo", "Population": 4336 }, "geometry": { "type": "Point", "coordinates": [ -7.4103573, 43.671212 ] } },
{ "type": "Feature", "properties": { "RegionName": "Galicia", "DeptName": "Lugo", "Admin3Name": "Lugo", "CityName": "O Corgo", "Population": 3646 }, "geometry": { "type": "Point", "coordinates": [ -7.430213, 42.9427832 ] } },
{ "type": "Feature", "properties": { "RegionName": "Galicia", "DeptName": "Lugo", "Admin3Name": "Terra Chá", "CityName": "Cospeito", "Population": 4827 }, "geometry": { "type": "Point", "coordinates": [ -7.559643, 43.214231 ] } },
{ "type": "Feature", "properties": { "RegionName": "Galicia", "DeptName": "Lugo", "Admin3Name": "Chantada", "CityName": "Chantada", "Population": 8493 }, "geometry": { "type": "Point", "coordinates": [ -7.7706788, 42.6109991 ] } },
{ "type": "Feature", "properties": { "RegionName": "Galicia", "DeptName": "Lugo", "Admin3Name": "Quiroga", "CityName": "Folgoso do Courel", "Population": 1089 }, "geometry": { "type": "Point", "coordinates": [ -7.1948545, 42.5889896 ] } },
{ "type": "Feature", "properties": { "RegionName": "Galicia", "DeptName": "Lugo", "Admin3Name": "A Fonsagrada", "CityName": "A Fonsagrada", "Population": 3838 }, "geometry": { "type": "Point", "coordinates": [ -7.0688574, 43.12471 ] } },
{ "type": "Feature", "properties": { "RegionName": "Galicia", "DeptName": "Lugo", "Admin3Name": "A Mariña Central", "CityName": "Foz", "Population": 9891 }, "geometry": { "type": "Point", "coordinates": [ -7.2580418, 43.5694522 ] } },
{ "type": "Feature", "properties": { "RegionName": "Galicia", "DeptName": "Lugo", "Admin3Name": "Lugo", "CityName": "Friol", "Population": 3942 }, "geometry": { "type": "Point", "coordinates": [ -7.7954963, 43.0318324 ] } },
{ "type": "Feature", "properties": { "RegionName": "Galicia", "DeptName": "Lugo", "Admin3Name": "Terra Chá", "CityName": "Xermade", "Population": 1985 }, "geometry": { "type": "Point", "coordinates": [ -7.8125579, 43.3560439 ] } },
{ "type": "Feature", "properties": { "RegionName": "Galicia", "DeptName": "Lugo", "Admin3Name": "Terra Chá", "CityName": "Guitiriz", "Population": 5520 }, "geometry": { "type": "Point", "coordinates": [ -7.8922143, 43.1816306 ] } },
{ "type": "Feature", "properties": { "RegionName": "Galicia", "DeptName": "Lugo", "Admin3Name": "Lugo", "CityName": "Guntín", "Population": 2881 }, "geometry": { "type": "Point", "coordinates": [ -7.700263, 42.8885848 ] } },
{ "type": "Feature", "properties": { "RegionName": "Galicia", "DeptName": "Lugo", "Admin3Name": "Sarria", "CityName": "O Incio", "Population": 1777 }, "geometry": { "type": "Point", "coordinates": [ -7.3630403, 42.6566207 ] } },
{ "type": "Feature", "properties": { "RegionName": "Galicia", "DeptName": "Lugo", "Admin3Name": "A Mariña Occidental", "CityName": "Xove", "Population": 3424 }, "geometry": { "type": "Point", "coordinates": [ -7.5123498, 43.6849554 ] } },
{ "type": "Feature", "properties": { "RegionName": "Galicia", "DeptName": "Lugo", "Admin3Name": "Sarria", "CityName": "Láncara", "Population": 2764 }, "geometry": { "type": "Point", "coordinates": [ -7.3371407, 42.8637253 ] } },
{ "type": "Feature", "properties": { "RegionName": "Galicia", "DeptName": "Lugo", "Admin3Name": "A Mariña Central", "CityName": "Lourenzá", "Population": 2301 }, "geometry": { "type": "Point", "coordinates": [ -7.3005438, 43.4721015 ] } },
{ "type": "Feature", "properties": { "RegionName": "Galicia", "DeptName": "Lugo", "Admin3Name": "Meira", "CityName": "Meira", "Population": 1749 }, "geometry": { "type": "Point", "coordinates": [ -7.2942885, 43.2134256 ] } },
{ "type": "Feature", "properties": { "RegionName": "Galicia", "DeptName": "Lugo", "Admin3Name": "A Mariña Central", "CityName": "Mondoñedo", "Population": 3876 }, "geometry": { "type": "Point", "coordinates": [ -7.3638468, 43.4285755 ] } },
{ "type": "Feature", "properties": { "RegionName": "Galicia", "DeptName": "Lugo", "Admin3Name": "A Ulloa", "CityName": "Monterroso", "Population": 3778 }, "geometry": { "type": "Point", "coordinates": [ -7.8342687, 42.7935801 ] } },
{ "type": "Feature", "properties": { "RegionName": "Galicia", "DeptName": "Lugo", "Admin3Name": "Os Ancares", "CityName": "Navia de Suarna", "Population": 1211 }, "geometry": { "type": "Point", "coordinates": [ -6.9423844, 42.9450131 ] } },
{ "type": "Feature", "properties": { "RegionName": "Galicia", "DeptName": "Lugo", "Admin3Name": "Os Ancares", "CityName": "As Nogais", "Population": 1191 }, "geometry": { "type": "Point", "coordinates": [ -7.1090031, 42.8092163 ] } },
{ "type": "Feature", "properties": { "RegionName": "Galicia", "DeptName": "Lugo", "Admin3Name": "A Mariña Occidental", "CityName": "Ourol", "Population": 1055 }, "geometry": { "type": "Point", "coordinates": [ -7.6422864, 43.5645691 ] } },
{ "type": "Feature", "properties": { "RegionName": "Galicia", "DeptName": "Lugo", "Admin3Name": "Lugo", "CityName": "Outeiro de Rei", "Population": 5068 }, "geometry": { "type": "Point", "coordinates": [ -7.613455, 43.1022312 ] } },
{ "type": "Feature", "properties": { "RegionName": "Galicia", "DeptName": "Lugo", "Admin3Name": "A Ulloa", "CityName": "Palas de Rei", "Population": 3588 }, "geometry": { "type": "Point", "coordinates": [ -7.8687588, 42.8734666 ] } },
{ "type": "Feature", "properties": { "RegionName": "Galicia", "DeptName": "Lugo", "Admin3Name": "Terra de Lemos", "CityName": "Pantón", "Population": 2674 }, "geometry": { "type": "Point", "coordinates": [ -7.633113, 42.5121166 ] } },
{ "type": "Feature", "properties": { "RegionName": "Galicia", "DeptName": "Lugo", "Admin3Name": "Terra de Melide", "CityName": "Paradela", "Population": 1934 }, "geometry": { "type": "Point", "coordinates": [ -7.951965, 42.9794253 ] } },
{ "type": "Feature", "properties": { "RegionName": "Galicia", "DeptName": "Lugo", "Admin3Name": "Lugo", "CityName": "O Páramo", "Population": 1474 }, "geometry": { "type": "Point", "coordinates": [ -7.2970441, 42.9444334 ] } },
{ "type": "Feature", "properties": { "RegionName": "Galicia", "DeptName": "Lugo", "Admin3Name": "Terra Chá", "CityName": "A Pastoriza", "Population": 3274 }, "geometry": { "type": "Point", "coordinates": [ -7.3732655, 43.3039579 ] } },
{ "type": "Feature", "properties": { "RegionName": "Galicia", "DeptName": "Lugo", "Admin3Name": "Os Ancares", "CityName": "Pedrafita do Cebreiro", "Population": 1119 }, "geometry": { "type": "Point", "coordinates": [ -7.0214138, 42.726800399999988 ] } },
{ "type": "Feature", "properties": { "RegionName": "Galicia", "DeptName": "Lugo", "Admin3Name": "Meira", "CityName": "Pol", "Population": 1732 }, "geometry": { "type": "Point", "coordinates": [ -7.3299766, 43.1491458 ] } },
{ "type": "Feature", "properties": { "RegionName": "Galicia", "DeptName": "Lugo", "Admin3Name": "Terra de Lemos", "CityName": "A Pobra do Brollón", "Population": 1794 }, "geometry": { "type": "Point", "coordinates": [ -7.393265, 42.5573065 ] } },
{ "type": "Feature", "properties": { "RegionName": "Galicia", "DeptName": "Lugo", "Admin3Name": "A Mariña Oriental", "CityName": "A Pontenova", "Population": 2470 }, "geometry": { "type": "Point", "coordinates": [ -7.1926708, 43.3484859 ] } },
{ "type": "Feature", "properties": { "RegionName": "Galicia", "DeptName": "Lugo", "Admin3Name": "Lugo", "CityName": "Portomarín", "Population": 1557 }, "geometry": { "type": "Point", "coordinates": [ -7.6158301, 42.8074277 ] } },
{ "type": "Feature", "properties": { "RegionName": "Galicia", "DeptName": "Lugo", "Admin3Name": "Quiroga", "CityName": "Quiroga", "Population": 3424 }, "geometry": { "type": "Point", "coordinates": [ -7.2693319, 42.4760129 ] } },
{ "type": "Feature", "properties": { "RegionName": "Galicia", "DeptName": "Lugo", "Admin3Name": "A Mariña Oriental", "CityName": "Ribadeo", "Population": 9929 }, "geometry": { "type": "Point", "coordinates": [ -7.0403489, 43.5336794 ] } },
{ "type": "Feature", "properties": { "RegionName": "Galicia", "DeptName": "Lugo", "Admin3Name": "Quiroga", "CityName": "Ribas de Sil", "Population": 1001 }, "geometry": { "type": "Point", "coordinates": [ -7.2878798, 42.4665894 ] } },
{ "type": "Feature", "properties": { "RegionName": "Galicia", "DeptName": "Lugo", "Admin3Name": "Meira", "CityName": "Riotorto", "Population": 1364 }, "geometry": { "type": "Point", "coordinates": [ -7.2614433, 43.3448244 ] } },
{ "type": "Feature", "properties": { "RegionName": "Galicia", "DeptName": "Lugo", "Admin3Name": "Sarria", "CityName": "Samos", "Population": 1425 }, "geometry": { "type": "Point", "coordinates": [ -7.3270157, 42.7308849 ] } },
{ "type": "Feature", "properties": { "RegionName": "Galicia", "DeptName": "Lugo", "Admin3Name": "Lugo", "CityName": "Rábade", "Population": 1549 }, "geometry": { "type": "Point", "coordinates": [ -7.6235396, 43.1222923 ] } },
{ "type": "Feature", "properties": { "RegionName": "Galicia", "DeptName": "Lugo", "Admin3Name": "Terra de Lemos", "CityName": "O Saviñao", "Population": 4056 }, "geometry": { "type": "Point", "coordinates": [ -7.654811, 42.6470935 ] } },
{ "type": "Feature", "properties": { "RegionName": "Galicia", "DeptName": "Lugo", "Admin3Name": "Terra de Lemos", "CityName": "Sober", "Population": 2400 }, "geometry": { "type": "Point", "coordinates": [ -7.586787, 42.4616142 ] } },
{ "type": "Feature", "properties": { "RegionName": "Galicia", "DeptName": "Lugo", "Admin3Name": "Chantada", "CityName": "Taboada", "Population": 3032 }, "geometry": { "type": "Point", "coordinates": [ -7.762084, 42.7155806 ] } },
{ "type": "Feature", "properties": { "RegionName": "Galicia", "DeptName": "Lugo", "Admin3Name": "A Mariña Oriental", "CityName": "Trabada", "Population": 1178 }, "geometry": { "type": "Point", "coordinates": [ -7.1942169, 43.4469813 ] } },
{ "type": "Feature", "properties": { "RegionName": "Galicia", "DeptName": "Lugo", "Admin3Name": "A Mariña Central", "CityName": "O Valadouro", "Population": 2048 }, "geometry": { "type": "Point", "coordinates": [ -7.4411232, 43.5504705 ] } },
{ "type": "Feature", "properties": { "RegionName": "Galicia", "DeptName": "Lugo", "Admin3Name": "A Mariña Occidental", "CityName": "O Vicedo", "Population": 1820 }, "geometry": { "type": "Point", "coordinates": [ -7.6739907, 43.7332417 ] } },
{ "type": "Feature", "properties": { "RegionName": "Galicia", "DeptName": "Lugo", "Admin3Name": "Os Ancares", "CityName": "Baralla", "Population": 2724 }, "geometry": { "type": "Point", "coordinates": [ -7.2504241, 42.8939038 ] } },
{ "type": "Feature", "properties": { "RegionName": "Galicia", "DeptName": "Lugo", "Admin3Name": "A Mariña Central", "CityName": "Burela", "Population": 9580 }, "geometry": { "type": "Point", "coordinates": [ -7.3611092, 43.6602954 ] } }
]
}
