{
"type": "FeatureCollection",
"crs": { "type": "name", "properties": { "name": "urn:ogc:def:crs:OGC:1.3:CRS84" } },
                                                                                
"features": [
{ "type": "Feature", "properties": { "RegionName": "Galicia", "DeptName": "Pontevedra", "Admin3Name": "A Paradanta", "CityName": "Arbo", "Population": 2846 }, "geometry": { "type": "Point", "coordinates": [ -8.3124565, 42.1111842 ] } },
{ "type": "Feature", "properties": { "RegionName": "Galicia", "DeptName": "Pontevedra", "Admin3Name": "Pontevedra", "CityName": "Barro", "Population": 3726 }, "geometry": { "type": "Point", "coordinates": [ -8.6220959, 42.5541451 ] } },
{ "type": "Feature", "properties": { "RegionName": "Galicia", "DeptName": "Pontevedra", "Admin3Name": "Caldas", "CityName": "Caldas de Reis", "Population": 9834 }, "geometry": { "type": "Point", "coordinates": [ -8.642126, 42.6041774 ] } },
{ "type": "Feature", "properties": { "RegionName": "Galicia", "DeptName": "Pontevedra", "Admin3Name": "Pontevedra", "CityName": "Campo Lameiro", "Population": 1931 }, "geometry": { "type": "Point", "coordinates": [ -8.5439995, 42.5407044 ] } },
{ "type": "Feature", "properties": { "RegionName": "Galicia", "DeptName": "Pontevedra", "Admin3Name": "A Paradanta", "CityName": "A Cañiza", "Population": 5230 }, "geometry": { "type": "Point", "coordinates": [ -8.272978, 42.2128861 ] } },
{ "type": "Feature", "properties": { "RegionName": "Galicia", "DeptName": "Pontevedra", "Admin3Name": "Caldas", "CityName": "Catoira", "Population": 3368 }, "geometry": { "type": "Point", "coordinates": [ -8.7216008, 42.6667838 ] } },
{ "type": "Feature", "properties": { "RegionName": "Galicia", "DeptName": "Pontevedra", "Admin3Name": "Tabeirós - Terra de Montes", "CityName": "Cerdedo", "Population": 1828 }, "geometry": { "type": "Point", "coordinates": [ -8.3903276, 42.5327602 ] } },
{ "type": "Feature", "properties": { "RegionName": "Galicia", "DeptName": "Pontevedra", "Admin3Name": "Pontevedra", "CityName": "Cotobade", "Population": 4332 }, "geometry": { "type": "Point", "coordinates": [ -8.5062007, 42.4894695 ] } },
{ "type": "Feature", "properties": { "RegionName": "Galicia", "DeptName": "Pontevedra", "Admin3Name": "A Paradanta", "CityName": "Covelo", "Population": 2617 }, "geometry": { "type": "Point", "coordinates": [ -8.3632834, 42.2319488 ] } },
{ "type": "Feature", "properties": { "RegionName": "Galicia", "DeptName": "Pontevedra", "Admin3Name": "Terra Chá", "CityName": "Crecente", "Population": 2252 }, "geometry": { "type": "Point", "coordinates": [ -7.3267754, 43.254194899999987 ] } },
{ "type": "Feature", "properties": { "RegionName": "Galicia", "DeptName": "Pontevedra", "Admin3Name": "Caldas", "CityName": "Cuntis", "Population": 4878 }, "geometry": { "type": "Point", "coordinates": [ -8.564072, 42.634118699999988 ] } },
{ "type": "Feature", "properties": { "RegionName": "Galicia", "DeptName": "Pontevedra", "Admin3Name": "Deza", "CityName": "Dozón", "Population": 1174 }, "geometry": { "type": "Point", "coordinates": [ -8.0225702, 42.5845225 ] } },
{ "type": "Feature", "properties": { "RegionName": "Galicia", "DeptName": "Pontevedra", "Admin3Name": "Tabeirós - Terra de Montes", "CityName": "Forcarei", "Population": 3683 }, "geometry": { "type": "Point", "coordinates": [ -8.3519713, 42.5879109 ] } },
{ "type": "Feature", "properties": { "RegionName": "Galicia", "DeptName": "Pontevedra", "Admin3Name": "Vigo", "CityName": "Fornelos de Montes", "Population": 1794 }, "geometry": { "type": "Point", "coordinates": [ -8.4525025, 42.339639 ] } },
{ "type": "Feature", "properties": { "RegionName": "Galicia", "DeptName": "Pontevedra", "Admin3Name": "Deza", "CityName": "Agolada", "Population": 2585 }, "geometry": { "type": "Point", "coordinates": [ -8.0206104, 42.7617021 ] } },
{ "type": "Feature", "properties": { "RegionName": "Galicia", "DeptName": "Pontevedra", "Admin3Name": "Pontevedra", "CityName": "A Lama", "Population": 2670 }, "geometry": { "type": "Point", "coordinates": [ -8.4423586, 42.3970408 ] } },
{ "type": "Feature", "properties": { "RegionName": "Galicia", "DeptName": "Pontevedra", "Admin3Name": "O Salnés", "CityName": "Meaño", "Population": 5382 }, "geometry": { "type": "Point", "coordinates": [ -8.7866573, 42.4454943 ] } },
{ "type": "Feature", "properties": { "RegionName": "Galicia", "DeptName": "Pontevedra", "Admin3Name": "O Salnés", "CityName": "Meis", "Population": 5006 }, "geometry": { "type": "Point", "coordinates": [ -8.691329, 42.513732 ] } },
{ "type": "Feature", "properties": { "RegionName": "Galicia", "DeptName": "Pontevedra", "Admin3Name": "O Condado", "CityName": "Mondariz", "Population": 4665 }, "geometry": { "type": "Point", "coordinates": [ -8.4548628, 42.2327102 ] } },
{ "type": "Feature", "properties": { "RegionName": "Galicia", "DeptName": "Pontevedra", "Admin3Name": "Caldas", "CityName": "Moraña", "Population": 4358 }, "geometry": { "type": "Point", "coordinates": [ -8.5908361, 42.5892842 ] } },
{ "type": "Feature", "properties": { "RegionName": "Galicia", "DeptName": "Pontevedra", "Admin3Name": "O Condado", "CityName": "As Neves", "Population": 4066 }, "geometry": { "type": "Point", "coordinates": [ -8.414673, 42.0878784 ] } },
{ "type": "Feature", "properties": { "RegionName": "Galicia", "DeptName": "Pontevedra", "Admin3Name": "O Baixo Miño", "CityName": "Oia", "Population": 3008 }, "geometry": { "type": "Point", "coordinates": [ -8.8769708, 42.0011129 ] } },
{ "type": "Feature", "properties": { "RegionName": "Galicia", "DeptName": "Pontevedra", "Admin3Name": "Vigo", "CityName": "Pazos de Borbén", "Population": 3067 }, "geometry": { "type": "Point", "coordinates": [ -8.539144, 42.2818941 ] } },
{ "type": "Feature", "properties": { "RegionName": "Galicia", "DeptName": "Pontevedra", "Admin3Name": "Caldas", "CityName": "Portas", "Population": 3061 }, "geometry": { "type": "Point", "coordinates": [ -8.6655592, 42.570011099999988 ] } },
{ "type": "Feature", "properties": { "RegionName": "Galicia", "DeptName": "Pontevedra", "Admin3Name": "Pontevedra", "CityName": "Ponte Caldelas", "Population": 5540 }, "geometry": { "type": "Point", "coordinates": [ -8.50277, 42.3903179 ] } },
{ "type": "Feature", "properties": { "RegionName": "Galicia", "DeptName": "Pontevedra", "Admin3Name": "Caldas", "CityName": "Pontecesures", "Population": 3062 }, "geometry": { "type": "Point", "coordinates": [ -8.6517072, 42.7178484 ] } },
{ "type": "Feature", "properties": { "RegionName": "Galicia", "DeptName": "Pontevedra", "Admin3Name": "O Salnés", "CityName": "Ribadumia", "Population": 5087 }, "geometry": { "type": "Point", "coordinates": [ -8.7512359, 42.5188711 ] } },
{ "type": "Feature", "properties": { "RegionName": "Galicia", "DeptName": "Pontevedra", "Admin3Name": "Deza", "CityName": "Rodeiro", "Population": 2700 }, "geometry": { "type": "Point", "coordinates": [ -7.9463468, 42.6484754 ] } },
{ "type": "Feature", "properties": { "RegionName": "Galicia", "DeptName": "Pontevedra", "Admin3Name": "O Baixo Miño", "CityName": "O Rosal", "Population": 6406 }, "geometry": { "type": "Point", "coordinates": [ -8.836373, 41.9372462 ] } },
{ "type": "Feature", "properties": { "RegionName": "Galicia", "DeptName": "Pontevedra", "Admin3Name": "Vigo", "CityName": "Salceda de Caselas", "Population": 8873 }, "geometry": { "type": "Point", "coordinates": [ -8.560052, 42.0999333 ] } },
{ "type": "Feature", "properties": { "RegionName": "Galicia", "DeptName": "Pontevedra", "Admin3Name": "O Condado", "CityName": "Salvaterra de Miño", "Population": 9619 }, "geometry": { "type": "Point", "coordinates": [ -8.5002777, 42.0833836 ] } },
{ "type": "Feature", "properties": { "RegionName": "Galicia", "DeptName": "Pontevedra", "Admin3Name": "Deza", "CityName": "Silleda", "Population": 8772 }, "geometry": { "type": "Point", "coordinates": [ -8.2445422, 42.7020616 ] } },
{ "type": "Feature", "properties": { "RegionName": "Galicia", "DeptName": "Pontevedra", "Admin3Name": "Vigo", "CityName": "Soutomaior", "Population": 7317 }, "geometry": { "type": "Point", "coordinates": [ -8.5688993, 42.3389166 ] } },
{ "type": "Feature", "properties": { "RegionName": "Galicia", "DeptName": "Pontevedra", "Admin3Name": "Caldas", "CityName": "Valga", "Population": 6062 }, "geometry": { "type": "Point", "coordinates": [ -8.6489195, 42.7003636 ] } },
{ "type": "Feature", "properties": { "RegionName": "Galicia", "DeptName": "Pontevedra", "Admin3Name": "Pontevedra", "CityName": "Vilaboa", "Population": 6059 }, "geometry": { "type": "Point", "coordinates": [ -8.6437497, 42.3489369 ] } },
{ "type": "Feature", "properties": { "RegionName": "Galicia", "DeptName": "Pontevedra", "Admin3Name": "Deza", "CityName": "Vila de Cruces", "Population": 5556 }, "geometry": { "type": "Point", "coordinates": [ -8.1693991, 42.7936883 ] } },
{ "type": "Feature", "properties": { "RegionName": "Galicia", "DeptName": "Pontevedra", "Admin3Name": "", "CityName": "A Illa de Arousa", "Population": 4956 }, "geometry": { "type": "Point", "coordinates": [ -8.8666032, 42.5521338 ] } }
]
}
