{
"type": "FeatureCollection",
"crs": { "type": "name", "properties": { "name": "urn:ogc:def:crs:OGC:1.3:CRS84" } },
                                                                                
"features": [
{ "type": "Feature", "properties": { "RegionName": "Islas Canarias", "DeptName": "Las Palmas", "Admin3Name": "Comarca Norte", "CityName": "Agaete", "Population": 5618 }, "geometry": { "type": "Point", "coordinates": [ -15.6996738, 28.1002592 ] } },
{ "type": "Feature", "properties": { "RegionName": "Islas Canarias", "DeptName": "Las Palmas", "Admin3Name": "Comarca Centro", "CityName": "Artenara", "Population": 1177 }, "geometry": { "type": "Point", "coordinates": [ -15.6469747, 28.0211008 ] } },
{ "type": "Feature", "properties": { "RegionName": "Islas Canarias", "DeptName": "Las Palmas", "Admin3Name": "Comarca Norte", "CityName": "Firgas", "Population": 7486 }, "geometry": { "type": "Point", "coordinates": [ -15.5634091, 28.1068916 ] } },
{ "type": "Feature", "properties": { "RegionName": "Islas Canarias", "DeptName": "Las Palmas", "Admin3Name": "Isla de Lanzarote", "CityName": "Haría", "Population": 4755 }, "geometry": { "type": "Point", "coordinates": [ -13.4981486, 29.1468257 ] } },
{ "type": "Feature", "properties": { "RegionName": "Islas Canarias", "DeptName": "Las Palmas", "Admin3Name": "Comarca Norte", "CityName": "Moya", "Population": 7845 }, "geometry": { "type": "Point", "coordinates": [ -15.582819, 28.1096301 ] } },
{ "type": "Feature", "properties": { "RegionName": "Islas Canarias", "DeptName": "Las Palmas", "Admin3Name": "", "CityName": "La Aldea de San Nicolás", "Population": 7969 }, "geometry": { "type": "Point", "coordinates": [ -15.7793741, 27.9822218 ] } },
{ "type": "Feature", "properties": { "RegionName": "Islas Canarias", "DeptName": "Las Palmas", "Admin3Name": "Comarca Centro", "CityName": "Tejeda", "Population": 2001 }, "geometry": { "type": "Point", "coordinates": [ -15.6152286, 27.9962238 ] } },
{ "type": "Feature", "properties": { "RegionName": "Islas Canarias", "DeptName": "Las Palmas", "Admin3Name": "Isla de Lanzarote", "CityName": "Tinajo", "Population": 5824 }, "geometry": { "type": "Point", "coordinates": [ -13.6760123, 29.0654976 ] } },
{ "type": "Feature", "properties": { "RegionName": "Islas Canarias", "DeptName": "Las Palmas", "Admin3Name": "Comarca Centro", "CityName": "Valsequillo de Gran Canaria", "Population": 9276 }, "geometry": { "type": "Point", "coordinates": [ -15.5122694, 27.9813556 ] } },
{ "type": "Feature", "properties": { "RegionName": "Islas Canarias", "DeptName": "Las Palmas", "Admin3Name": "Comarca Centro", "CityName": "Valleseco", "Population": 3856 }, "geometry": { "type": "Point", "coordinates": [ -15.5750903, 28.0502059 ] } },
{ "type": "Feature", "properties": { "RegionName": "Islas Canarias", "DeptName": "Las Palmas", "Admin3Name": "Comarca Centro", "CityName": "Vega de San Mateo", "Population": 7668 }, "geometry": { "type": "Point", "coordinates": [ -15.5323919, 28.0106885 ] } }
]
}
