{
"type": "FeatureCollection",
"crs": { "type": "name", "properties": { "name": "urn:ogc:def:crs:OGC:1.3:CRS84" } },
                                                                                
"features": [
{ "type": "Feature", "properties": { "RegionCode": "AL", "RegionName": "Andalucía", "DeptCode": 4, "DeptName": "Almería", "CityCode": 3, "CityName": "Adra", "NumSubAreas": "", "Population": 24670 }, "geometry": { "type": "Point", "coordinates": [ -3.0163202, 36.7479022 ] } },
{ "type": "Feature", "properties": { "RegionCode": "AL", "RegionName": "Andalucía", "DeptCode": 4, "DeptName": "Almería", "CityCode": 6, "CityName": "Albox", "NumSubAreas": "", "Population": 11429 }, "geometry": { "type": "Point", "coordinates": [ -2.1417503, 37.3881024 ] } },
{ "type": "Feature", "properties": { "RegionCode": "AL", "RegionName": "Andalucía", "DeptCode": 4, "DeptName": "Almería", "CityCode": 13, "CityName": "Almería", "NumSubAreas": "", "Population": 194203 }, "geometry": { "type": "Point", "coordinates": [ -2.4637136, 36.834047 ] } },
{ "type": "Feature", "properties": { "RegionCode": "AL", "RegionName": "Andalucía", "DeptCode": 4, "DeptName": "Almería", "CityCode": 29, "CityName": "Berja", "NumSubAreas": "", "Population": 15174 }, "geometry": { "type": "Point", "coordinates": [ -2.945068, 36.8451829 ] } },
{ "type": "Feature", "properties": { "RegionCode": "AL", "RegionName": "Andalucía", "DeptCode": 4, "DeptName": "Almería", "CityCode": 35, "CityName": "Cuevas del Almanzora", "NumSubAreas": "", "Population": 13292 }, "geometry": { "type": "Point", "coordinates": [ -1.876084, 37.2922445 ] } },
{ "type": "Feature", "properties": { "RegionCode": "AL", "RegionName": "Andalucía", "DeptCode": 4, "DeptName": "Almería", "CityCode": 902, "CityName": "El Ejido", "NumSubAreas": "", "Population": 85961 }, "geometry": { "type": "Point", "coordinates": [ -2.8103551, 36.7731148 ] } },
{ "type": "Feature", "properties": { "RegionCode": "AL", "RegionName": "Andalucía", "DeptCode": 4, "DeptName": "Almería", "CityCode": 52, "CityName": "Huércal de Almería", "NumSubAreas": "", "Population": 16823 }, "geometry": { "type": "Point", "coordinates": [ -2.4445519, 36.8881816 ] } },
{ "type": "Feature", "properties": { "RegionCode": "AL", "RegionName": "Andalucía", "DeptCode": 4, "DeptName": "Almería", "CityCode": 53, "CityName": "Huércal-Overa", "NumSubAreas": "", "Population": 18530 }, "geometry": { "type": "Point", "coordinates": [ -1.9416877, 37.3962183 ] } },
{ "type": "Feature", "properties": { "RegionCode": "AL", "RegionName": "Andalucía", "DeptCode": 4, "DeptName": "Almería", "CityCode": 66, "CityName": "Níjar", "NumSubAreas": "", "Population": 28056 }, "geometry": { "type": "Point", "coordinates": [ -2.2067723, 36.9659306 ] } },
{ "type": "Feature", "properties": { "RegionCode": "AL", "RegionName": "Andalucía", "DeptCode": 4, "DeptName": "Almería", "CityCode": 79, "CityName": "Roquetas de Mar", "NumSubAreas": "", "Population": 90623 }, "geometry": { "type": "Point", "coordinates": [ -2.6154266, 36.7636819 ] } },
{ "type": "Feature", "properties": { "RegionCode": "AL", "RegionName": "Andalucía", "DeptCode": 4, "DeptName": "Almería", "CityCode": 100, "CityName": "Vera", "NumSubAreas": "", "Population": 15108 }, "geometry": { "type": "Point", "coordinates": [ -1.8679197, 37.2476803 ] } },
{ "type": "Feature", "properties": { "RegionCode": "AL", "RegionName": "Andalucía", "DeptCode": 4, "DeptName": "Almería", "CityCode": 102, "CityName": "Vícar", "NumSubAreas": "", "Population": 24571 }, "geometry": { "type": "Point", "coordinates": [ -2.6418821, 36.8314423 ] } }
]
}
