{
"type": "FeatureCollection",
"crs": { "type": "name", "properties": { "name": "urn:ogc:def:crs:OGC:1.3:CRS84" } },
                                                                                
"features": [
{ "type": "Feature", "properties": { "RegionName": "Andalucía", "DeptName": "Almería", "Admin3Name": "Levante Almeriense", "CityName": "Vera", "Population": 15108 }, "geometry": { "type": "Point", "coordinates": [ -1.8679197, 37.2476803 ] } },
{ "type": "Feature", "properties": { "RegionName": "Andalucía", "DeptName": "Almería", "Admin3Name": "Levante Almeriense", "CityName": "Huércal-Overa", "Population": 18530 }, "geometry": { "type": "Point", "coordinates": [ -1.9416877, 37.3962183 ] } },
{ "type": "Feature", "properties": { "RegionName": "Andalucía", "DeptName": "Almería", "Admin3Name": "Levante Almeriense", "CityName": "Cuevas del Almanzora", "Population": 13292 }, "geometry": { "type": "Point", "coordinates": [ -1.876084, 37.2922445 ] } },
{ "type": "Feature", "properties": { "RegionName": "Andalucía", "DeptName": "Almería", "Admin3Name": "Metropolitana de Almería", "CityName": "Almería", "Population": 194203 }, "geometry": { "type": "Point", "coordinates": [ -2.4637136, 36.834047 ] } },
{ "type": "Feature", "properties": { "RegionName": "Andalucía", "DeptName": "Almería", "Admin3Name": "Metropolitana de Almería", "CityName": "Níjar", "Population": 28056 }, "geometry": { "type": "Point", "coordinates": [ -2.2067723, 36.9659306 ] } },
{ "type": "Feature", "properties": { "RegionName": "Andalucía", "DeptName": "Almería", "Admin3Name": "Metropolitana de Almería", "CityName": "Huércal de Almería", "Population": 16823 }, "geometry": { "type": "Point", "coordinates": [ -2.4445519, 36.8881816 ] } },
{ "type": "Feature", "properties": { "RegionName": "Andalucía", "DeptName": "Almería", "Admin3Name": "Poniente Almeriense", "CityName": "Vícar", "Population": 24571 }, "geometry": { "type": "Point", "coordinates": [ -2.6418821, 36.8314423 ] } },
{ "type": "Feature", "properties": { "RegionName": "Andalucía", "DeptName": "Almería", "Admin3Name": "Poniente Almeriense", "CityName": "Adra", "Population": 24670 }, "geometry": { "type": "Point", "coordinates": [ -3.0163202, 36.7479022 ] } },
{ "type": "Feature", "properties": { "RegionName": "Andalucía", "DeptName": "Almería", "Admin3Name": "Poniente Almeriense", "CityName": "El Ejido", "Population": 85961 }, "geometry": { "type": "Point", "coordinates": [ -2.8103551, 36.7731148 ] } },
{ "type": "Feature", "properties": { "RegionName": "Andalucía", "DeptName": "Almería", "Admin3Name": "Poniente Almeriense", "CityName": "Berja", "Population": 15174 }, "geometry": { "type": "Point", "coordinates": [ -2.945068, 36.8451829 ] } },
{ "type": "Feature", "properties": { "RegionName": "Andalucía", "DeptName": "Almería", "Admin3Name": "Poniente Almeriense", "CityName": "Roquetas de Mar", "Population": 90623 }, "geometry": { "type": "Point", "coordinates": [ -2.6154266, 36.7636819 ] } },
{ "type": "Feature", "properties": { "RegionName": "Andalucía", "DeptName": "Almería", "Admin3Name": "Valle del Almanzora", "CityName": "Albox", "Population": 11429 }, "geometry": { "type": "Point", "coordinates": [ -2.1417503, 37.3881024 ] } }
]
}
