{
"type": "FeatureCollection",
"crs": { "type": "name", "properties": { "name": "urn:ogc:def:crs:OGC:1.3:CRS84" } },
                                                                                
"features": [
{ "type": "Feature", "properties": { "RegionCode": "AL", "RegionName": "Andalucía", "DeptCode": 23, "DeptName": "Jaén", "CityCode": 2, "CityName": "Alcalá la Real", "NumSubAreas": "", "Population": 22036 }, "geometry": { "type": "Point", "coordinates": [ -3.9241021, 37.4645203 ] } },
{ "type": "Feature", "properties": { "RegionCode": "AL", "RegionName": "Andalucía", "DeptCode": 23, "DeptName": "Jaén", "CityCode": 3, "CityName": "Alcaudete", "NumSubAreas": "", "Population": 10779 }, "geometry": { "type": "Point", "coordinates": [ -4.083601, 37.5908541 ] } },
{ "type": "Feature", "properties": { "RegionCode": "AL", "RegionName": "Andalucía", "DeptCode": 23, "DeptName": "Jaén", "CityCode": 5, "CityName": "Andújar", "NumSubAreas": "", "Population": 38246 }, "geometry": { "type": "Point", "coordinates": [ -4.0516619, 38.03849 ] } },
{ "type": "Feature", "properties": { "RegionCode": "AL", "RegionName": "Andalucía", "DeptCode": 23, "DeptName": "Jaén", "CityCode": 9, "CityName": "Baeza", "NumSubAreas": "", "Population": 16163 }, "geometry": { "type": "Point", "coordinates": [ -3.4676157, 37.9966884 ] } },
{ "type": "Feature", "properties": { "RegionCode": "AL", "RegionName": "Andalucía", "DeptCode": 23, "DeptName": "Jaén", "CityCode": 10, "CityName": "Bailén", "NumSubAreas": "", "Population": 18243 }, "geometry": { "type": "Point", "coordinates": [ -3.7765276, 38.0951601 ] } },
{ "type": "Feature", "properties": { "RegionCode": "AL", "RegionName": "Andalucía", "DeptCode": 23, "DeptName": "Jaén", "CityCode": 50, "CityName": "Jaén", "NumSubAreas": "", "Population": 115395 }, "geometry": { "type": "Point", "coordinates": [ -3.7849057, 37.7795941 ] } },
{ "type": "Feature", "properties": { "RegionCode": "AL", "RegionName": "Andalucía", "DeptCode": 23, "DeptName": "Jaén", "CityCode": 53, "CityName": "Jódar", "NumSubAreas": "", "Population": 12022 }, "geometry": { "type": "Point", "coordinates": [ -3.3514863, 37.8381872 ] } },
{ "type": "Feature", "properties": { "RegionCode": "AL", "RegionName": "Andalucía", "DeptCode": 23, "DeptName": "Jaén", "CityCode": 24, "CityName": "La Carolina", "NumSubAreas": "", "Population": 15673 }, "geometry": { "type": "Point", "coordinates": [ -3.6141819, 38.2742645 ] } },
{ "type": "Feature", "properties": { "RegionCode": "AL", "RegionName": "Andalucía", "DeptCode": 23, "DeptName": "Jaén", "CityCode": 55, "CityName": "Linares", "NumSubAreas": "", "Population": 59737 }, "geometry": { "type": "Point", "coordinates": [ -3.6369803, 38.096909800000013 ] } },
{ "type": "Feature", "properties": { "RegionCode": "AL", "RegionName": "Andalucía", "DeptCode": 23, "DeptName": "Jaén", "CityCode": 58, "CityName": "Mancha Real", "NumSubAreas": "", "Population": 11212 }, "geometry": { "type": "Point", "coordinates": [ -3.6103832, 37.7868126 ] } },
{ "type": "Feature", "properties": { "RegionCode": "AL", "RegionName": "Andalucía", "DeptCode": 23, "DeptName": "Jaén", "CityCode": 60, "CityName": "Martos", "NumSubAreas": "", "Population": 24398 }, "geometry": { "type": "Point", "coordinates": [ -3.9699874, 37.7182399 ] } },
{ "type": "Feature", "properties": { "RegionCode": "AL", "RegionName": "Andalucía", "DeptCode": 23, "DeptName": "Jaén", "CityCode": 86, "CityName": "Torredelcampo", "NumSubAreas": "", "Population": 14605 }, "geometry": { "type": "Point", "coordinates": [ -3.8997851, 37.7696858 ] } },
{ "type": "Feature", "properties": { "RegionCode": "AL", "RegionName": "Andalucía", "DeptCode": 23, "DeptName": "Jaén", "CityCode": 87, "CityName": "Torredonjimeno", "NumSubAreas": "", "Population": 14011 }, "geometry": { "type": "Point", "coordinates": [ -3.9546877, 37.7665084 ] } },
{ "type": "Feature", "properties": { "RegionCode": "AL", "RegionName": "Andalucía", "DeptCode": 23, "DeptName": "Jaén", "CityCode": 95, "CityName": "Villacarrillo", "NumSubAreas": "", "Population": 11040 }, "geometry": { "type": "Point", "coordinates": [ -3.0786158, 38.1196247 ] } },
{ "type": "Feature", "properties": { "RegionCode": "AL", "RegionName": "Andalucía", "DeptCode": 23, "DeptName": "Jaén", "CityCode": 92, "CityName": "Úbeda", "NumSubAreas": "", "Population": 34930 }, "geometry": { "type": "Point", "coordinates": [ -3.3712457, 38.0114236 ] } }
]
}
