{
"type": "FeatureCollection",
"crs": { "type": "name", "properties": { "name": "urn:ogc:def:crs:OGC:1.3:CRS84" } },
                                                                                
"features": [
{ "type": "Feature", "properties": { "RegionName": "Andalucía", "DeptName": "Jaén", "Admin3Name": "Campiña", "CityName": "Andújar", "Population": 38246 }, "geometry": { "type": "Point", "coordinates": [ -4.0516619, 38.03849 ] } },
{ "type": "Feature", "properties": { "RegionName": "Andalucía", "DeptName": "Jaén", "Admin3Name": "La Loma", "CityName": "Baeza", "Population": 16163 }, "geometry": { "type": "Point", "coordinates": [ -3.4676157, 37.9966884 ] } },
{ "type": "Feature", "properties": { "RegionName": "Andalucía", "DeptName": "Jaén", "Admin3Name": "La Loma", "CityName": "Úbeda", "Population": 34930 }, "geometry": { "type": "Point", "coordinates": [ -3.3712457, 38.0114236 ] } },
{ "type": "Feature", "properties": { "RegionName": "Andalucía", "DeptName": "Jaén", "Admin3Name": "Las Villas", "CityName": "Villacarrillo", "Population": 11040 }, "geometry": { "type": "Point", "coordinates": [ -3.0786158, 38.1196247 ] } },
{ "type": "Feature", "properties": { "RegionName": "Andalucía", "DeptName": "Jaén", "Admin3Name": "Sierra Morena", "CityName": "Bailén", "Population": 18243 }, "geometry": { "type": "Point", "coordinates": [ -3.7765276, 38.0951601 ] } },
{ "type": "Feature", "properties": { "RegionName": "Andalucía", "DeptName": "Jaén", "Admin3Name": "Sierra Morena", "CityName": "La Carolina", "Population": 15673 }, "geometry": { "type": "Point", "coordinates": [ -3.6141819, 38.2742645 ] } },
{ "type": "Feature", "properties": { "RegionName": "Andalucía", "DeptName": "Jaén", "Admin3Name": "Sierra Morena", "CityName": "Linares", "Population": 59737 }, "geometry": { "type": "Point", "coordinates": [ -3.6369803, 38.096909800000013 ] } },
{ "type": "Feature", "properties": { "RegionName": "Andalucía", "DeptName": "Jaén", "Admin3Name": "Sierra Mágina", "CityName": "Jódar", "Population": 12022 }, "geometry": { "type": "Point", "coordinates": [ -3.3514863, 37.8381872 ] } },
{ "type": "Feature", "properties": { "RegionName": "Andalucía", "DeptName": "Jaén", "Admin3Name": "Sierra Sur de Jaén", "CityName": "Alcalá la Real", "Population": 22036 }, "geometry": { "type": "Point", "coordinates": [ -3.9241021, 37.4645203 ] } },
{ "type": "Feature", "properties": { "RegionName": "Andalucía", "DeptName": "Jaén", "Admin3Name": "Sierra Sur de Jaén", "CityName": "Alcaudete", "Population": 10779 }, "geometry": { "type": "Point", "coordinates": [ -4.083601, 37.5908541 ] } },
{ "type": "Feature", "properties": { "RegionName": "Andalucía", "DeptName": "Jaén", "Admin3Name": "Área Metropolitana de Jaén", "CityName": "Jaén", "Population": 115395 }, "geometry": { "type": "Point", "coordinates": [ -3.7849057, 37.7795941 ] } },
{ "type": "Feature", "properties": { "RegionName": "Andalucía", "DeptName": "Jaén", "Admin3Name": "Área Metropolitana de Jaén", "CityName": "Torredonjimeno", "Population": 14011 }, "geometry": { "type": "Point", "coordinates": [ -3.9546877, 37.7665084 ] } },
{ "type": "Feature", "properties": { "RegionName": "Andalucía", "DeptName": "Jaén", "Admin3Name": "Área Metropolitana de Jaén", "CityName": "Martos", "Population": 24398 }, "geometry": { "type": "Point", "coordinates": [ -3.9699874, 37.7182399 ] } },
{ "type": "Feature", "properties": { "RegionName": "Andalucía", "DeptName": "Jaén", "Admin3Name": "Área Metropolitana de Jaén", "CityName": "Mancha Real", "Population": 11212 }, "geometry": { "type": "Point", "coordinates": [ -3.6103832, 37.7868126 ] } },
{ "type": "Feature", "properties": { "RegionName": "Andalucía", "DeptName": "Jaén", "Admin3Name": "Área Metropolitana de Jaén", "CityName": "Torredelcampo", "Population": 14605 }, "geometry": { "type": "Point", "coordinates": [ -3.8997851, 37.7696858 ] } }
]
}
