{
"type": "FeatureCollection",
"crs": { "type": "name", "properties": { "name": "urn:ogc:def:crs:OGC:1.3:CRS84" } },
                                                                                
"features": [
{ "type": "Feature", "properties": { "RegionName": "Comunidad Valenciana", "DeptName": "Alicante", "Admin3Name": "Vega Baja del Segura", "CityName": "Albatera", "Population": 11780, "TextPosition": "default" }, "geometry": { "type": "Point", "coordinates": [ -0.8710884, 38.1801605 ] } },
{ "type": "Feature", "properties": { "RegionName": "Comunidad Valenciana", "DeptName": "Alicante", "Admin3Name": "L'Alcoià", "CityName": "Alcoy", "Population": 59567, "TextPosition": "default" }, "geometry": { "type": "Point", "coordinates": [ -0.4810937, 38.6987066 ] } },
{ "type": "Feature", "properties": { "RegionName": "Comunidad Valenciana", "DeptName": "Alicante", "Admin3Name": "La Marina Baixa", "CityName": "L'Alfàs del Pi", "Population": 21700, "TextPosition": "default" }, "geometry": { "type": "Point", "coordinates": [ -0.099664, 38.578552 ] } },
{ "type": "Feature", "properties": { "RegionName": "Comunidad Valenciana", "DeptName": "Alicante", "Admin3Name": "L'Alacantí", "CityName": "Alicante", "Population": 328648, "TextPosition": "default" }, "geometry": { "type": "Point", "coordinates": [ -0.4906855, 38.3459963 ] } },
{ "type": "Feature", "properties": { "RegionName": "Comunidad Valenciana", "DeptName": "Alicante", "Admin3Name": "Vega Baja del Segura", "CityName": "Almoradí", "Population": 19955, "TextPosition": "default" }, "geometry": { "type": "Point", "coordinates": [ -0.7937015, 38.1107088 ] } },
{ "type": "Feature", "properties": { "RegionName": "Comunidad Valenciana", "DeptName": "Alicante", "Admin3Name": "La Marina Baixa", "CityName": "Altea", "Population": 22385, "TextPosition": "default" }, "geometry": { "type": "Point", "coordinates": [ -0.0450666, 38.6029075 ] } },
{ "type": "Feature", "properties": { "RegionName": "Comunidad Valenciana", "DeptName": "Alicante", "Admin3Name": "Vinalopó Mitjà", "CityName": "Aspe", "Population": 20406, "TextPosition": "default" }, "geometry": { "type": "Point", "coordinates": [ -0.7704126, 38.3435941 ] } },
{ "type": "Feature", "properties": { "RegionName": "Comunidad Valenciana", "DeptName": "Alicante", "Admin3Name": "La Marina Baixa", "CityName": "Benidorm", "Population": 69045, "TextPosition": "default" }, "geometry": { "type": "Point", "coordinates": [ -0.1224937, 38.5410566 ] } },
{ "type": "Feature", "properties": { "RegionName": "Comunidad Valenciana", "DeptName": "Alicante", "Admin3Name": "La Marina Alta", "CityName": "Benissa", "Population": 11598, "TextPosition": "default" }, "geometry": { "type": "Point", "coordinates": [ 0.0524919, 38.7145489 ] } },
{ "type": "Feature", "properties": { "RegionName": "Comunidad Valenciana", "DeptName": "Alicante", "Admin3Name": "La Marina Alta", "CityName": "Calp", "Population": 21540, "TextPosition": "default" }, "geometry": { "type": "Point", "coordinates": [ 0.0456876, 38.6436469 ] } },
{ "type": "Feature", "properties": { "RegionName": "Comunidad Valenciana", "DeptName": "Alicante", "Admin3Name": "Vega Baja del Segura", "CityName": "Callosa de Segura", "Population": 18200, "TextPosition": "default" }, "geometry": { "type": "Point", "coordinates": [ -0.8732975, 38.1269393 ] } },
{ "type": "Feature", "properties": { "RegionName": "Comunidad Valenciana", "DeptName": "Alicante", "Admin3Name": "L'Alacantí", "CityName": "El Campello", "Population": 27356, "TextPosition": "default" }, "geometry": { "type": "Point", "coordinates": [ -0.397816, 38.4289804 ] } },
{ "type": "Feature", "properties": { "RegionName": "Comunidad Valenciana", "DeptName": "Alicante", "Admin3Name": "El Comtat", "CityName": "Cocentaina", "Population": 11406, "TextPosition": "default" }, "geometry": { "type": "Point", "coordinates": [ -0.4396248, 38.7451583 ] } },
{ "type": "Feature", "properties": { "RegionName": "Comunidad Valenciana", "DeptName": "Alicante", "Admin3Name": "Baix Vinalopó", "CityName": "Crevillent", "Population": 28465, "TextPosition": "default" }, "geometry": { "type": "Point", "coordinates": [ -0.8113636, 38.2446844 ] } },
{ "type": "Feature", "properties": { "RegionName": "Comunidad Valenciana", "DeptName": "Alicante", "Admin3Name": "La Marina Alta", "CityName": "Dénia", "Population": 41553, "TextPosition": "default" }, "geometry": { "type": "Point", "coordinates": [ 0.1050557, 38.8387992 ] } },
{ "type": "Feature", "properties": { "RegionName": "Comunidad Valenciana", "DeptName": "Alicante", "Admin3Name": "Baix Vinalopó", "CityName": "Elche", "Population": 227312, "TextPosition": "default" }, "geometry": { "type": "Point", "coordinates": [ -0.7125608, 38.2699329 ] } },
{ "type": "Feature", "properties": { "RegionName": "Comunidad Valenciana", "DeptName": "Alicante", "Admin3Name": "Vinalopó Mitjà", "CityName": "Elda", "Population": 53248, "TextPosition": "default" }, "geometry": { "type": "Point", "coordinates": [ -0.7964597, 38.4765073 ] } },
{ "type": "Feature", "properties": { "RegionName": "Comunidad Valenciana", "DeptName": "Alicante", "Admin3Name": "Vega Baja del Segura", "CityName": "Guardamar del Segura", "Population": 15589, "TextPosition": "default" }, "geometry": { "type": "Point", "coordinates": [ -0.6512823, 38.0851461 ] } },
{ "type": "Feature", "properties": { "RegionName": "Comunidad Valenciana", "DeptName": "Alicante", "Admin3Name": "L'Alcoià", "CityName": "Ibi", "Population": 23321, "TextPosition": "default" }, "geometry": { "type": "Point", "coordinates": [ -0.5776167, 38.6212635 ] } },
{ "type": "Feature", "properties": { "RegionName": "Comunidad Valenciana", "DeptName": "Alicante", "Admin3Name": "La Marina Alta", "CityName": "Jávea", "Population": 27681, "TextPosition": "default" }, "geometry": { "type": "Point", "coordinates": [ 0.1660813, 38.7890109 ] } },
{ "type": "Feature", "properties": { "RegionName": "Comunidad Valenciana", "DeptName": "Alicante", "Admin3Name": "Vinalopó Mitjà", "CityName": "Monóvar", "Population": 12381, "TextPosition": "default" }, "geometry": { "type": "Point", "coordinates": [ -0.9247501, 38.4182514 ] } },
{ "type": "Feature", "properties": { "RegionName": "Comunidad Valenciana", "DeptName": "Alicante", "Admin3Name": "L'Alacantí", "CityName": "Mutxamel", "Population": 24256, "TextPosition": "default" }, "geometry": { "type": "Point", "coordinates": [ -0.4470839, 38.4196718 ] } },
{ "type": "Feature", "properties": { "RegionName": "Comunidad Valenciana", "DeptName": "Alicante", "Admin3Name": "Vinalopó Mitjà", "CityName": "Novelda", "Population": 26146, "TextPosition": "default" }, "geometry": { "type": "Point", "coordinates": [ -0.7668469, 38.3841032 ] } },
{ "type": "Feature", "properties": { "RegionName": "Comunidad Valenciana", "DeptName": "Alicante", "Admin3Name": "La Marina Baixa", "CityName": "La Nucia", "Population": 20039, "TextPosition": "default" }, "geometry": { "type": "Point", "coordinates": [ -0.1272708, 38.612269 ] } },
{ "type": "Feature", "properties": { "RegionName": "Comunidad Valenciana", "DeptName": "Alicante", "Admin3Name": "Vega Baja del Segura", "CityName": "Orihuela", "Population": 82675, "TextPosition": "default" }, "geometry": { "type": "Point", "coordinates": [ -0.9480051, 38.085552799999988 ] } },
{ "type": "Feature", "properties": { "RegionName": "Comunidad Valenciana", "DeptName": "Alicante", "Admin3Name": "La Marina Alta", "CityName": "Pego", "Population": 10331, "TextPosition": "default" }, "geometry": { "type": "Point", "coordinates": [ -0.1156439, 38.8429394 ] } },
{ "type": "Feature", "properties": { "RegionName": "Comunidad Valenciana", "DeptName": "Alicante", "Admin3Name": "Vinalopó Mitjà", "CityName": "Petrer", "Population": 34586, "TextPosition": "default" }, "geometry": { "type": "Point", "coordinates": [ -0.7719244, 38.4807948 ] } },
{ "type": "Feature", "properties": { "RegionName": "Comunidad Valenciana", "DeptName": "Alicante", "Admin3Name": "Vega Baja del Segura", "CityName": "Rojales", "Population": 18127, "TextPosition": "default" }, "geometry": { "type": "Point", "coordinates": [ -0.7235857, 38.0860483 ] } },
{ "type": "Feature", "properties": { "RegionName": "Comunidad Valenciana", "DeptName": "Alicante", "Admin3Name": "L'Alacantí", "CityName": "Sant Joan d'Alacant", "Population": 22825, "TextPosition": "default" }, "geometry": { "type": "Point", "coordinates": [ -0.4360296, 38.4020456 ] } },
{ "type": "Feature", "properties": { "RegionName": "Comunidad Valenciana", "DeptName": "Alicante", "Admin3Name": "Baix Vinalopó", "CityName": "Santa Pola", "Population": 31657, "TextPosition": "default" }, "geometry": { "type": "Point", "coordinates": [ -0.5612438, 38.1965614 ] } },
{ "type": "Feature", "properties": { "RegionName": "Comunidad Valenciana", "DeptName": "Alicante", "Admin3Name": "L'Alacantí", "CityName": "San Vicente del Raspeig", "Population": 56302, "TextPosition": "default" }, "geometry": { "type": "Point", "coordinates": [ -0.5248711, 38.3964181 ] } },
{ "type": "Feature", "properties": { "RegionName": "Comunidad Valenciana", "DeptName": "Alicante", "Admin3Name": "La Marina Alta", "CityName": "Teulada", "Population": 11460, "TextPosition": "default" }, "geometry": { "type": "Point", "coordinates": [ 0.1044712, 38.728262699999988 ] } },
{ "type": "Feature", "properties": { "RegionName": "Comunidad Valenciana", "DeptName": "Alicante", "Admin3Name": "Vega Baja del Segura", "CityName": "Torrevieja", "Population": 88447, "TextPosition": "default" }, "geometry": { "type": "Point", "coordinates": [ -0.6808233, 37.9847003 ] } },
{ "type": "Feature", "properties": { "RegionName": "Comunidad Valenciana", "DeptName": "Alicante", "Admin3Name": "La Marina Baixa", "CityName": "Villajoyosa", "Population": 33878, "TextPosition": "default" }, "geometry": { "type": "Point", "coordinates": [ -0.2285807, 38.5079606 ] } },
{ "type": "Feature", "properties": { "RegionName": "Comunidad Valenciana", "DeptName": "Alicante", "Admin3Name": "Alto Vinalopó", "CityName": "Villena", "Population": 34361, "TextPosition": "default" }, "geometry": { "type": "Point", "coordinates": [ -0.8612206, 38.6318196 ] } },
{ "type": "Feature", "properties": { "RegionName": "Comunidad Valenciana", "DeptName": "Alicante", "Admin3Name": "Vega Baja del Segura", "CityName": "Pilar de la Horadada", "Population": 21629, "TextPosition": "default" }, "geometry": { "type": "Point", "coordinates": [ -0.7901334, 37.8631809 ] } }
]
}
