{
"type": "FeatureCollection",
"crs": { "type": "name", "properties": { "name": "urn:ogc:def:crs:OGC:1.3:CRS84" } },
                                                                                
"features": [
{ "type": "Feature", "properties": { "RegionCode": "GA", "RegionName": "Galicia", "DeptCode": 15, "DeptName": "A Coruña", "CityCode": 30, "CityName": "A Coruña", "NumSubAreas": "", "Population": 243870 }, "geometry": { "type": "Point", "coordinates": [ -8.4115401, 43.3623436 ] } },
{ "type": "Feature", "properties": { "RegionCode": "GA", "RegionName": "Galicia", "DeptCode": 15, "DeptName": "A Coruña", "CityCode": 41, "CityName": "A Laracha", "NumSubAreas": "", "Population": 11402 }, "geometry": { "type": "Point", "coordinates": [ -8.5844049, 43.24827 ] } },
{ "type": "Feature", "properties": { "RegionCode": "GA", "RegionName": "Galicia", "DeptCode": 15, "DeptName": "A Coruña", "CityCode": 2, "CityName": "Ames", "NumSubAreas": "", "Population": 30267 }, "geometry": { "type": "Point", "coordinates": [ -8.6583677, 42.9038027 ] } },
{ "type": "Feature", "properties": { "RegionCode": "GA", "RegionName": "Galicia", "DeptCode": 15, "DeptName": "A Coruña", "CityCode": 5, "CityName": "Arteixo", "NumSubAreas": "", "Population": 30950 }, "geometry": { "type": "Point", "coordinates": [ -8.5102974, 43.3038683 ] } },
{ "type": "Feature", "properties": { "RegionCode": "GA", "RegionName": "Galicia", "DeptCode": 15, "DeptName": "A Coruña", "CityCode": 70, "CityName": "As Pontes de García Rodríguez", "NumSubAreas": "", "Population": 10503 }, "geometry": { "type": "Point", "coordinates": [ -7.8522474, 43.4526064 ] } },
{ "type": "Feature", "properties": { "RegionCode": "GA", "RegionName": "Galicia", "DeptCode": 15, "DeptName": "A Coruña", "CityCode": 9, "CityName": "Betanzos", "NumSubAreas": "", "Population": 13202 }, "geometry": { "type": "Point", "coordinates": [ -8.2131234, 43.2784298 ] } },
{ "type": "Feature", "properties": { "RegionCode": "GA", "RegionName": "Galicia", "DeptCode": 15, "DeptName": "A Coruña", "CityCode": 11, "CityName": "Boiro", "NumSubAreas": "", "Population": 18950 }, "geometry": { "type": "Point", "coordinates": [ -8.8833538, 42.647476 ] } },
{ "type": "Feature", "properties": { "RegionCode": "GA", "RegionName": "Galicia", "DeptCode": 15, "DeptName": "A Coruña", "CityCode": 17, "CityName": "Cambre", "NumSubAreas": "", "Population": 24076 }, "geometry": { "type": "Point", "coordinates": [ -8.3422786, 43.2926146 ] } },
{ "type": "Feature", "properties": { "RegionCode": "GA", "RegionName": "Galicia", "DeptCode": 15, "DeptName": "A Coruña", "CityCode": 19, "CityName": "Carballo", "NumSubAreas": "", "Population": 31283 }, "geometry": { "type": "Point", "coordinates": [ -8.6915264, 43.2128217 ] } },
{ "type": "Feature", "properties": { "RegionCode": "GA", "RegionName": "Galicia", "DeptCode": 15, "DeptName": "A Coruña", "CityCode": 31, "CityName": "Culleredo", "NumSubAreas": "", "Population": 29593 }, "geometry": { "type": "Point", "coordinates": [ -8.389602, 43.2882033 ] } },
{ "type": "Feature", "properties": { "RegionCode": "GA", "RegionName": "Galicia", "DeptCode": 15, "DeptName": "A Coruña", "CityCode": 35, "CityName": "Fene", "NumSubAreas": "", "Population": 13385 }, "geometry": { "type": "Point", "coordinates": [ -8.1662448, 43.475298 ] } },
{ "type": "Feature", "properties": { "RegionCode": "GA", "RegionName": "Galicia", "DeptCode": 15, "DeptName": "A Coruña", "CityCode": 36, "CityName": "Ferrol", "NumSubAreas": "", "Population": 69452 }, "geometry": { "type": "Point", "coordinates": [ -8.2193451, 43.489646 ] } },
{ "type": "Feature", "properties": { "RegionCode": "GA", "RegionName": "Galicia", "DeptCode": 15, "DeptName": "A Coruña", "CityCode": 54, "CityName": "Narón", "NumSubAreas": "", "Population": 39565 }, "geometry": { "type": "Point", "coordinates": [ -8.1923743, 43.5012892 ] } },
{ "type": "Feature", "properties": { "RegionCode": "GA", "RegionName": "Galicia", "DeptCode": 15, "DeptName": "A Coruña", "CityCode": 57, "CityName": "Noia", "NumSubAreas": "", "Population": 14472 }, "geometry": { "type": "Point", "coordinates": [ -8.8882891, 42.784275699999988 ] } },
{ "type": "Feature", "properties": { "RegionCode": "GA", "RegionName": "Galicia", "DeptCode": 15, "DeptName": "A Coruña", "CityCode": 58, "CityName": "Oleiros", "NumSubAreas": "", "Population": 34693 }, "geometry": { "type": "Point", "coordinates": [ -8.3157003, 43.3327059 ] } },
{ "type": "Feature", "properties": { "RegionCode": "GA", "RegionName": "Galicia", "DeptCode": 15, "DeptName": "A Coruña", "CityCode": 59, "CityName": "Ordes", "NumSubAreas": "", "Population": 12776 }, "geometry": { "type": "Point", "coordinates": [ -8.4080662, 43.0763738 ] } },
{ "type": "Feature", "properties": { "RegionCode": "GA", "RegionName": "Galicia", "DeptCode": 15, "DeptName": "A Coruña", "CityCode": 72, "CityName": "Rianxo", "NumSubAreas": "", "Population": 11386 }, "geometry": { "type": "Point", "coordinates": [ -8.8166051, 42.6513206 ] } },
{ "type": "Feature", "properties": { "RegionCode": "GA", "RegionName": "Galicia", "DeptCode": 15, "DeptName": "A Coruña", "CityCode": 73, "CityName": "Ribeira", "NumSubAreas": "", "Population": 27372 }, "geometry": { "type": "Point", "coordinates": [ -8.9922481, 42.5540645 ] } },
{ "type": "Feature", "properties": { "RegionCode": "GA", "RegionName": "Galicia", "DeptCode": 15, "DeptName": "A Coruña", "CityCode": 75, "CityName": "Sada", "NumSubAreas": "", "Population": 15080 }, "geometry": { "type": "Point", "coordinates": [ -8.2557376, 43.3555238 ] } },
{ "type": "Feature", "properties": { "RegionCode": "GA", "RegionName": "Galicia", "DeptCode": 15, "DeptName": "A Coruña", "CityCode": 78, "CityName": "Santiago de Compostela", "NumSubAreas": "", "Population": 95612 }, "geometry": { "type": "Point", "coordinates": [ -8.5448445, 42.8782132 ] } },
{ "type": "Feature", "properties": { "RegionCode": "GA", "RegionName": "Galicia", "DeptCode": 15, "DeptName": "A Coruña", "CityCode": 82, "CityName": "Teo", "NumSubAreas": "", "Population": 18505 }, "geometry": { "type": "Point", "coordinates": [ -8.5158077, 42.7670593 ] } }
]
}
