{
"type": "FeatureCollection",
"crs": { "type": "name", "properties": { "name": "urn:ogc:def:crs:OGC:1.3:CRS84" } },
                                                                                
"features": [
{ "type": "Feature", "properties": { "RegionName": "Galicia", "DeptName": "A Coruña", "Admin3Name": "Santiago", "CityName": "Ames", "Population": 30267, "TextPosition": "default" }, "geometry": { "type": "Point", "coordinates": [ -8.6583677, 42.9038027 ] } },
{ "type": "Feature", "properties": { "RegionName": "Galicia", "DeptName": "A Coruña", "Admin3Name": "A Coruña", "CityName": "Arteixo", "Population": 30950, "TextPosition": "default" }, "geometry": { "type": "Point", "coordinates": [ -8.5102974, 43.3038683 ] } },
{ "type": "Feature", "properties": { "RegionName": "Galicia", "DeptName": "A Coruña", "Admin3Name": "Betanzos", "CityName": "Betanzos", "Population": 13202, "TextPosition": "default" }, "geometry": { "type": "Point", "coordinates": [ -8.2131234, 43.2784298 ] } },
{ "type": "Feature", "properties": { "RegionName": "Galicia", "DeptName": "A Coruña", "Admin3Name": "A Barbanza", "CityName": "Boiro", "Population": 18950, "TextPosition": "default" }, "geometry": { "type": "Point", "coordinates": [ -8.8833538, 42.647476 ] } },
{ "type": "Feature", "properties": { "RegionName": "Galicia", "DeptName": "A Coruña", "Admin3Name": "A Coruña", "CityName": "Cambre", "Population": 24076, "TextPosition": "default" }, "geometry": { "type": "Point", "coordinates": [ -8.3422786, 43.2926146 ] } },
{ "type": "Feature", "properties": { "RegionName": "Galicia", "DeptName": "A Coruña", "Admin3Name": "Bergantiños", "CityName": "Carballo", "Population": 31283, "TextPosition": "default" }, "geometry": { "type": "Point", "coordinates": [ -8.6915264, 43.2128217 ] } },
{ "type": "Feature", "properties": { "RegionName": "Galicia", "DeptName": "A Coruña", "Admin3Name": "A Coruña", "CityName": "A Coruña", "Population": 243870, "TextPosition": "default" }, "geometry": { "type": "Point", "coordinates": [ -8.4115401, 43.3623436 ] } },
{ "type": "Feature", "properties": { "RegionName": "Galicia", "DeptName": "A Coruña", "Admin3Name": "A Coruña", "CityName": "Culleredo", "Population": 29593, "TextPosition": "default" }, "geometry": { "type": "Point", "coordinates": [ -8.389602, 43.2882033 ] } },
{ "type": "Feature", "properties": { "RegionName": "Galicia", "DeptName": "A Coruña", "Admin3Name": "Ferrol", "CityName": "Fene", "Population": 13385, "TextPosition": "default" }, "geometry": { "type": "Point", "coordinates": [ -8.1662448, 43.475298 ] } },
{ "type": "Feature", "properties": { "RegionName": "Galicia", "DeptName": "A Coruña", "Admin3Name": "Ferrol", "CityName": "Ferrol", "Population": 69452, "TextPosition": "default" }, "geometry": { "type": "Point", "coordinates": [ -8.2193451, 43.489646 ] } },
{ "type": "Feature", "properties": { "RegionName": "Galicia", "DeptName": "A Coruña", "Admin3Name": "Bergantiños", "CityName": "A Laracha", "Population": 11402, "TextPosition": "default" }, "geometry": { "type": "Point", "coordinates": [ -8.5844049, 43.24827 ] } },
{ "type": "Feature", "properties": { "RegionName": "Galicia", "DeptName": "A Coruña", "Admin3Name": "Ferrol", "CityName": "Narón", "Population": 39565, "TextPosition": "default" }, "geometry": { "type": "Point", "coordinates": [ -8.1923743, 43.5012892 ] } },
{ "type": "Feature", "properties": { "RegionName": "Galicia", "DeptName": "A Coruña", "Admin3Name": "Noia", "CityName": "Noia", "Population": 14472, "TextPosition": "default" }, "geometry": { "type": "Point", "coordinates": [ -8.8882891, 42.784275699999988 ] } },
{ "type": "Feature", "properties": { "RegionName": "Galicia", "DeptName": "A Coruña", "Admin3Name": "A Coruña", "CityName": "Oleiros", "Population": 34693, "TextPosition": "default" }, "geometry": { "type": "Point", "coordinates": [ -8.3157003, 43.3327059 ] } },
{ "type": "Feature", "properties": { "RegionName": "Galicia", "DeptName": "A Coruña", "Admin3Name": "Ordes", "CityName": "Ordes", "Population": 12776, "TextPosition": "default" }, "geometry": { "type": "Point", "coordinates": [ -8.4080662, 43.0763738 ] } },
{ "type": "Feature", "properties": { "RegionName": "Galicia", "DeptName": "A Coruña", "Admin3Name": "O Eume", "CityName": "As Pontes de García Rodríguez", "Population": 10503, "TextPosition": "default" }, "geometry": { "type": "Point", "coordinates": [ -7.8522474, 43.4526064 ] } },
{ "type": "Feature", "properties": { "RegionName": "Galicia", "DeptName": "A Coruña", "Admin3Name": "A Barbanza", "CityName": "Rianxo", "Population": 11386, "TextPosition": "default" }, "geometry": { "type": "Point", "coordinates": [ -8.8166051, 42.6513206 ] } },
{ "type": "Feature", "properties": { "RegionName": "Galicia", "DeptName": "A Coruña", "Admin3Name": "A Barbanza", "CityName": "Ribeira", "Population": 27372, "TextPosition": "default" }, "geometry": { "type": "Point", "coordinates": [ -8.9922481, 42.5540645 ] } },
{ "type": "Feature", "properties": { "RegionName": "Galicia", "DeptName": "A Coruña", "Admin3Name": "A Coruña", "CityName": "Sada", "Population": 15080, "TextPosition": "default" }, "geometry": { "type": "Point", "coordinates": [ -8.2557376, 43.3555238 ] } },
{ "type": "Feature", "properties": { "RegionName": "Galicia", "DeptName": "A Coruña", "Admin3Name": "Santiago", "CityName": "Santiago de Compostela", "Population": 95612, "TextPosition": "default" }, "geometry": { "type": "Point", "coordinates": [ -8.5448445, 42.8782132 ] } },
{ "type": "Feature", "properties": { "RegionName": "Galicia", "DeptName": "A Coruña", "Admin3Name": "Santiago", "CityName": "Teo", "Population": 18505, "TextPosition": "default" }, "geometry": { "type": "Point", "coordinates": [ -8.5158077, 42.7670593 ] } }
]
}
