{
"type": "FeatureCollection",
"crs": { "type": "name", "properties": { "name": "urn:ogc:def:crs:OGC:1.3:CRS84" } },
                                                                                
"features": [
{ "type": "Feature", "properties": { "RegionCode": "CN", "RegionName": "Islas Canarias", "DeptCode": 35, "DeptName": "Las Palmas", "CityCode": 2, "CityName": "Agüimes", "NumSubAreas": "", "Population": 30294 }, "geometry": { "type": "Point", "coordinates": [ -15.4463485, 27.9018327 ] } },
{ "type": "Feature", "properties": { "RegionCode": "CN", "RegionName": "Islas Canarias", "DeptCode": 35, "DeptName": "Las Palmas", "CityCode": 3, "CityName": "Antigua", "NumSubAreas": "", "Population": 11024 }, "geometry": { "type": "Point", "coordinates": [ -14.0110599, 28.415292 ] } },
{ "type": "Feature", "properties": { "RegionCode": "CN", "RegionName": "Islas Canarias", "DeptCode": 35, "DeptName": "Las Palmas", "CityCode": 4, "CityName": "Arrecife", "NumSubAreas": "", "Population": 56940 }, "geometry": { "type": "Point", "coordinates": [ -13.5550363, 28.9651694 ] } },
{ "type": "Feature", "properties": { "RegionCode": "CN", "RegionName": "Islas Canarias", "DeptCode": 35, "DeptName": "Las Palmas", "CityCode": 6, "CityName": "Arucas", "NumSubAreas": "", "Population": 37054 }, "geometry": { "type": "Point", "coordinates": [ -15.5210607, 28.1201412 ] } },
{ "type": "Feature", "properties": { "RegionCode": "CN", "RegionName": "Islas Canarias", "DeptCode": 35, "DeptName": "Las Palmas", "CityCode": 9, "CityName": "Gáldar", "NumSubAreas": "", "Population": 24235 }, "geometry": { "type": "Point", "coordinates": [ -15.6515167, 28.1463501 ] } },
{ "type": "Feature", "properties": { "RegionCode": "CN", "RegionName": "Islas Canarias", "DeptCode": 35, "DeptName": "Las Palmas", "CityCode": 11, "CityName": "Ingenio", "NumSubAreas": "", "Population": 30258 }, "geometry": { "type": "Point", "coordinates": [ -15.4331746, 27.9182821 ] } },
{ "type": "Feature", "properties": { "RegionCode": "CN", "RegionName": "Islas Canarias", "DeptCode": 35, "DeptName": "Las Palmas", "CityCode": 14, "CityName": "La Oliva", "NumSubAreas": "", "Population": 25199 }, "geometry": { "type": "Point", "coordinates": [ -13.9267252, 28.6100767 ] } },
{ "type": "Feature", "properties": { "RegionCode": "CN", "RegionName": "Islas Canarias", "DeptCode": 35, "DeptName": "Las Palmas", "CityCode": 16, "CityName": "Las Palmas de Gran Canaria", "NumSubAreas": "", "Population": 379766 }, "geometry": { "type": "Point", "coordinates": [ -15.4362574, 28.1235459 ] } },
{ "type": "Feature", "properties": { "RegionCode": "CN", "RegionName": "Islas Canarias", "DeptCode": 35, "DeptName": "Las Palmas", "CityCode": 12, "CityName": "Mogán", "NumSubAreas": "", "Population": 22277 }, "geometry": { "type": "Point", "coordinates": [ -15.723279, 27.8839292 ] } },
{ "type": "Feature", "properties": { "RegionCode": "CN", "RegionName": "Islas Canarias", "DeptCode": 35, "DeptName": "Las Palmas", "CityCode": 17, "CityName": "Puerto del Rosario", "NumSubAreas": "", "Population": 37363 }, "geometry": { "type": "Point", "coordinates": [ -13.8628367, 28.500821 ] } },
{ "type": "Feature", "properties": { "RegionCode": "CN", "RegionName": "Islas Canarias", "DeptCode": 35, "DeptName": "Las Palmas", "CityCode": 15, "CityName": "Pájara", "NumSubAreas": "", "Population": 19271 }, "geometry": { "type": "Point", "coordinates": [ -14.1081189, 28.3508903 ] } },
{ "type": "Feature", "properties": { "RegionCode": "CN", "RegionName": "Islas Canarias", "DeptCode": 35, "DeptName": "Las Palmas", "CityCode": 18, "CityName": "San Bartolomé", "NumSubAreas": "", "Population": 18402 }, "geometry": { "type": "Point", "coordinates": [ -13.6117649, 29.0010487 ] } },
{ "type": "Feature", "properties": { "RegionCode": "CN", "RegionName": "Islas Canarias", "DeptCode": 35, "DeptName": "Las Palmas", "CityCode": 19, "CityName": "San Bartolomé de Tirajana", "NumSubAreas": "", "Population": 54932 }, "geometry": { "type": "Point", "coordinates": [ -15.5730295, 27.9249459 ] } },
{ "type": "Feature", "properties": { "RegionCode": "CN", "RegionName": "Islas Canarias", "DeptCode": 35, "DeptName": "Las Palmas", "CityCode": 21, "CityName": "Santa Brígida", "NumSubAreas": "", "Population": 18582 }, "geometry": { "type": "Point", "coordinates": [ -15.4975124, 28.0358502 ] } },
{ "type": "Feature", "properties": { "RegionCode": "CN", "RegionName": "Islas Canarias", "DeptCode": 35, "DeptName": "Las Palmas", "CityCode": 22, "CityName": "Santa Lucía de Tirajana", "NumSubAreas": "", "Population": 69069 }, "geometry": { "type": "Point", "coordinates": [ -15.5401365, 27.9101389 ] } },
{ "type": "Feature", "properties": { "RegionCode": "CN", "RegionName": "Islas Canarias", "DeptCode": 35, "DeptName": "Las Palmas", "CityCode": 23, "CityName": "Santa María de Guía de Gran Canaria", "NumSubAreas": "", "Population": 13890 }, "geometry": { "type": "Point", "coordinates": [ -15.6060661, 28.1074494 ] } },
{ "type": "Feature", "properties": { "RegionCode": "CN", "RegionName": "Islas Canarias", "DeptCode": 35, "DeptName": "Las Palmas", "CityCode": 24, "CityName": "Teguise", "NumSubAreas": "", "Population": 21454 }, "geometry": { "type": "Point", "coordinates": [ -13.5595989, 29.0599533 ] } },
{ "type": "Feature", "properties": { "RegionCode": "CN", "RegionName": "Islas Canarias", "DeptCode": 35, "DeptName": "Las Palmas", "CityCode": 26, "CityName": "Telde", "NumSubAreas": "", "Population": 102078 }, "geometry": { "type": "Point", "coordinates": [ -15.4173726, 27.9955313 ] } },
{ "type": "Feature", "properties": { "RegionCode": "CN", "RegionName": "Islas Canarias", "DeptCode": 35, "DeptName": "Las Palmas", "CityCode": 27, "CityName": "Teror", "NumSubAreas": "", "Population": 12499 }, "geometry": { "type": "Point", "coordinates": [ -15.5459718, 28.0616461 ] } },
{ "type": "Feature", "properties": { "RegionCode": "CN", "RegionName": "Islas Canarias", "DeptCode": 35, "DeptName": "Las Palmas", "CityCode": 30, "CityName": "Tuineje", "NumSubAreas": "", "Population": 13797 }, "geometry": { "type": "Point", "coordinates": [ -14.0471443, 28.3258026 ] } },
{ "type": "Feature", "properties": { "RegionCode": "CN", "RegionName": "Islas Canarias", "DeptCode": 35, "DeptName": "Las Palmas", "CityCode": 28, "CityName": "Tías", "NumSubAreas": "", "Population": 20019 }, "geometry": { "type": "Point", "coordinates": [ -13.6507431, 28.9578494 ] } },
{ "type": "Feature", "properties": { "RegionCode": "CN", "RegionName": "Islas Canarias", "DeptCode": 35, "DeptName": "Las Palmas", "CityCode": 34, "CityName": "Yaiza", "NumSubAreas": "", "Population": 15815 }, "geometry": { "type": "Point", "coordinates": [ -13.7680207, 28.9557183 ] } }
]
}
