{
"type": "FeatureCollection",
"crs": { "type": "name", "properties": { "name": "urn:ogc:def:crs:OGC:1.3:CRS84" } },
                                                                                
"features": [
{ "type": "Feature", "properties": { "RegionName": "Islas Canarias", "DeptName": "Las Palmas", "Admin3Name": "Comarca Este", "CityName": "Ingenio", "Population": 30258 }, "geometry": { "type": "Point", "coordinates": [ -15.4331746, 27.9182821 ] } },
{ "type": "Feature", "properties": { "RegionName": "Islas Canarias", "DeptName": "Las Palmas", "Admin3Name": "Comarca Este", "CityName": "Telde", "Population": 102078 }, "geometry": { "type": "Point", "coordinates": [ -15.4173726, 27.9955313 ] } },
{ "type": "Feature", "properties": { "RegionName": "Islas Canarias", "DeptName": "Las Palmas", "Admin3Name": "Comarca Este", "CityName": "Agüimes", "Population": 30294 }, "geometry": { "type": "Point", "coordinates": [ -15.4463485, 27.9018327 ] } },
{ "type": "Feature", "properties": { "RegionName": "Islas Canarias", "DeptName": "Las Palmas", "Admin3Name": "Comarca Este", "CityName": "Santa Lucía de Tirajana", "Population": 69069 }, "geometry": { "type": "Point", "coordinates": [ -15.5401365, 27.9101389 ] } },
{ "type": "Feature", "properties": { "RegionName": "Islas Canarias", "DeptName": "Las Palmas", "Admin3Name": "Comarca Norte", "CityName": "Arucas", "Population": 37054 }, "geometry": { "type": "Point", "coordinates": [ -15.5210607, 28.1201412 ] } },
{ "type": "Feature", "properties": { "RegionName": "Islas Canarias", "DeptName": "Las Palmas", "Admin3Name": "Comarca Norte", "CityName": "Gáldar", "Population": 24235 }, "geometry": { "type": "Point", "coordinates": [ -15.6515167, 28.1463501 ] } },
{ "type": "Feature", "properties": { "RegionName": "Islas Canarias", "DeptName": "Las Palmas", "Admin3Name": "Comarca Norte", "CityName": "Santa María de Guía de Gran Canaria", "Population": 13890 }, "geometry": { "type": "Point", "coordinates": [ -15.6060661, 28.1074494 ] } },
{ "type": "Feature", "properties": { "RegionName": "Islas Canarias", "DeptName": "Las Palmas", "Admin3Name": "Comarca Sur", "CityName": "Mogán", "Population": 22277 }, "geometry": { "type": "Point", "coordinates": [ -15.723279, 27.8839292 ] } },
{ "type": "Feature", "properties": { "RegionName": "Islas Canarias", "DeptName": "Las Palmas", "Admin3Name": "Comarca Sur", "CityName": "San Bartolomé de Tirajana", "Population": 54932 }, "geometry": { "type": "Point", "coordinates": [ -15.5730295, 27.9249459 ] } },
{ "type": "Feature", "properties": { "RegionName": "Islas Canarias", "DeptName": "Las Palmas", "Admin3Name": "Isla de Lanzarote", "CityName": "Yaiza", "Population": 15815 }, "geometry": { "type": "Point", "coordinates": [ -13.7680207, 28.9557183 ] } },
{ "type": "Feature", "properties": { "RegionName": "Islas Canarias", "DeptName": "Las Palmas", "Admin3Name": "Isla de Lanzarote", "CityName": "Arrecife", "Population": 56940 }, "geometry": { "type": "Point", "coordinates": [ -13.5550363, 28.9651694 ] } },
{ "type": "Feature", "properties": { "RegionName": "Islas Canarias", "DeptName": "Las Palmas", "Admin3Name": "Isla de Lanzarote", "CityName": "Teguise", "Population": 21454 }, "geometry": { "type": "Point", "coordinates": [ -13.5595989, 29.0599533 ] } },
{ "type": "Feature", "properties": { "RegionName": "Islas Canarias", "DeptName": "Las Palmas", "Admin3Name": "Isla de Lanzarote", "CityName": "San Bartolomé", "Population": 18402 }, "geometry": { "type": "Point", "coordinates": [ -13.6117649, 29.0010487 ] } },
{ "type": "Feature", "properties": { "RegionName": "Islas Canarias", "DeptName": "Las Palmas", "Admin3Name": "Isla de Lanzarote", "CityName": "Tías", "Population": 20019 }, "geometry": { "type": "Point", "coordinates": [ -13.6507431, 28.9578494 ] } },
{ "type": "Feature", "properties": { "RegionName": "Islas Canarias", "DeptName": "Las Palmas", "Admin3Name": "Jandía", "CityName": "Pájara", "Population": 19271 }, "geometry": { "type": "Point", "coordinates": [ -14.1081189, 28.3508903 ] } },
{ "type": "Feature", "properties": { "RegionName": "Islas Canarias", "DeptName": "Las Palmas", "Admin3Name": "Las Palmas de Gran Canaria - Cuenca del Guiniguada", "CityName": "Santa Brígida", "Population": 18582 }, "geometry": { "type": "Point", "coordinates": [ -15.4975124, 28.0358502 ] } },
{ "type": "Feature", "properties": { "RegionName": "Islas Canarias", "DeptName": "Las Palmas", "Admin3Name": "Las Palmas de Gran Canaria - Cuenca del Guiniguada", "CityName": "Teror", "Population": 12499 }, "geometry": { "type": "Point", "coordinates": [ -15.5459718, 28.0616461 ] } },
{ "type": "Feature", "properties": { "RegionName": "Islas Canarias", "DeptName": "Las Palmas", "Admin3Name": "Las Palmas de Gran Canaria - Cuenca del Guiniguada", "CityName": "Las Palmas de Gran Canaria", "Population": 379766 }, "geometry": { "type": "Point", "coordinates": [ -15.4362574, 28.1235459 ] } },
{ "type": "Feature", "properties": { "RegionName": "Islas Canarias", "DeptName": "Las Palmas", "Admin3Name": "Maxorata", "CityName": "Puerto del Rosario", "Population": 37363 }, "geometry": { "type": "Point", "coordinates": [ -13.8628367, 28.500821 ] } },
{ "type": "Feature", "properties": { "RegionName": "Islas Canarias", "DeptName": "Las Palmas", "Admin3Name": "Maxorata", "CityName": "La Oliva", "Population": 25199 }, "geometry": { "type": "Point", "coordinates": [ -13.9267252, 28.6100767 ] } },
{ "type": "Feature", "properties": { "RegionName": "Islas Canarias", "DeptName": "Las Palmas", "Admin3Name": "Maxorata", "CityName": "Antigua", "Population": 11024 }, "geometry": { "type": "Point", "coordinates": [ -14.0110599, 28.415292 ] } },
{ "type": "Feature", "properties": { "RegionName": "Islas Canarias", "DeptName": "Las Palmas", "Admin3Name": "Maxorata", "CityName": "Tuineje", "Population": 13797 }, "geometry": { "type": "Point", "coordinates": [ -14.0471443, 28.3258026 ] } }
]
}
