{
"type": "FeatureCollection",
"crs": { "type": "name", "properties": { "name": "urn:ogc:def:crs:OGC:1.3:CRS84" } },
                                                                                
"features": [
{ "type": "Feature", "properties": { "RegionName": "Navarra", "DeptName": "Navarra", "Admin3Name": "Cuenca de Pamplona - Pamplona", "CityName": "Ansoáin", "Population": 10830 }, "geometry": { "type": "Point", "coordinates": [ -1.6432837, 42.8337593 ] } },
{ "type": "Feature", "properties": { "RegionName": "Navarra", "DeptName": "Navarra", "Admin3Name": "Cuenca de Pamplona - Pamplona", "CityName": "Zizur Mayor", "Population": 14493 }, "geometry": { "type": "Point", "coordinates": [ -1.6882181, 42.7855575 ] } },
{ "type": "Feature", "properties": { "RegionName": "Navarra", "DeptName": "Navarra", "Admin3Name": "Cuenca de Pamplona - Pamplona", "CityName": "Barañain", "Population": 20475 }, "geometry": { "type": "Point", "coordinates": [ -1.6846077, 42.8041023 ] } },
{ "type": "Feature", "properties": { "RegionName": "Navarra", "DeptName": "Navarra", "Admin3Name": "Cuenca de Pamplona - Pamplona", "CityName": "Villava", "Population": 10265 }, "geometry": { "type": "Point", "coordinates": [ -1.6123283, 42.8314377 ] } },
{ "type": "Feature", "properties": { "RegionName": "Navarra", "DeptName": "Navarra", "Admin3Name": "Cuenca de Pamplona - Pamplona", "CityName": "Burlada", "Population": 18336 }, "geometry": { "type": "Point", "coordinates": [ -1.6156261, 42.8264759 ] } },
{ "type": "Feature", "properties": { "RegionName": "Navarra", "DeptName": "Navarra", "Admin3Name": "Estella Oriental", "CityName": "Estella-Lizarra", "Population": 13702 }, "geometry": { "type": "Point", "coordinates": [ -2.0324524, 42.6720856 ] } },
{ "type": "Feature", "properties": { "RegionName": "Navarra", "DeptName": "Navarra", "Admin3Name": "Tafalla", "CityName": "Tafalla", "Population": 10809 }, "geometry": { "type": "Point", "coordinates": [ -1.6776784, 42.5267993 ] } },
{ "type": "Feature", "properties": { "RegionName": "Navarra", "DeptName": "Navarra", "Admin3Name": "Tudela", "CityName": "Tudela", "Population": 35388 }, "geometry": { "type": "Point", "coordinates": [ -1.6063169, 42.0613816 ] } }
]
}
