{
"type": "FeatureCollection",
"crs": { "type": "name", "properties": { "name": "urn:ogc:def:crs:OGC:1.3:CRS84" } },
                                                                                
"features": [
{ "type": "Feature", "properties": { "RegionCode": "AL", "RegionName": "Andalucía", "DeptCode": 41, "DeptName": "Sevilla", "CityCode": 4, "CityName": "Alcalá de Guadaíra", "NumSubAreas": "", "Population": 74845 }, "geometry": { "type": "Point", "coordinates": [ -5.8416716, 37.3397234 ] } },
{ "type": "Feature", "properties": { "RegionCode": "AL", "RegionName": "Andalucía", "DeptCode": 41, "DeptName": "Sevilla", "CityCode": 5, "CityName": "Alcalá del Río", "NumSubAreas": "", "Population": 11745 }, "geometry": { "type": "Point", "coordinates": [ -5.9812748, 37.5187353 ] } },
{ "type": "Feature", "properties": { "RegionCode": "AL", "RegionName": "Andalucía", "DeptCode": 41, "DeptName": "Sevilla", "CityCode": 11, "CityName": "Arahal", "NumSubAreas": "", "Population": 19550 }, "geometry": { "type": "Point", "coordinates": [ -5.5434222, 37.2593351 ] } },
{ "type": "Feature", "properties": { "RegionCode": "AL", "RegionName": "Andalucía", "DeptCode": 41, "DeptName": "Sevilla", "CityCode": 16, "CityName": "Bollullos de la Mitación", "NumSubAreas": "", "Population": 10199 }, "geometry": { "type": "Point", "coordinates": [ -6.1381188, 37.339834 ] } },
{ "type": "Feature", "properties": { "RegionCode": "AL", "RegionName": "Andalucía", "DeptCode": 41, "DeptName": "Sevilla", "CityCode": 17, "CityName": "Bormujos", "NumSubAreas": "", "Population": 21362 }, "geometry": { "type": "Point", "coordinates": [ -6.0701344, 37.3722503 ] } },
{ "type": "Feature", "properties": { "RegionCode": "AL", "RegionName": "Andalucía", "DeptCode": 41, "DeptName": "Sevilla", "CityCode": 18, "CityName": "Brenes", "NumSubAreas": "", "Population": 12697 }, "geometry": { "type": "Point", "coordinates": [ -5.8719234, 37.5486335 ] } },
{ "type": "Feature", "properties": { "RegionCode": "AL", "RegionName": "Andalucía", "DeptCode": 41, "DeptName": "Sevilla", "CityCode": 21, "CityName": "Camas", "NumSubAreas": "", "Population": 26861 }, "geometry": { "type": "Point", "coordinates": [ -6.0321884, 37.401173 ] } },
{ "type": "Feature", "properties": { "RegionCode": "AL", "RegionName": "Andalucía", "DeptCode": 41, "DeptName": "Sevilla", "CityCode": 23, "CityName": "Cantillana", "NumSubAreas": "", "Population": 10717 }, "geometry": { "type": "Point", "coordinates": [ -5.8235168, 37.6109062 ] } },
{ "type": "Feature", "properties": { "RegionCode": "AL", "RegionName": "Andalucía", "DeptCode": 41, "DeptName": "Sevilla", "CityCode": 24, "CityName": "Carmona", "NumSubAreas": "", "Population": 28656 }, "geometry": { "type": "Point", "coordinates": [ -5.6418214, 37.471274 ] } },
{ "type": "Feature", "properties": { "RegionCode": "AL", "RegionName": "Andalucía", "DeptCode": 41, "DeptName": "Sevilla", "CityCode": 29, "CityName": "Castilleja de la Cuesta", "NumSubAreas": "", "Population": 17459 }, "geometry": { "type": "Point", "coordinates": [ -6.0550852, 37.3861591 ] } },
{ "type": "Feature", "properties": { "RegionCode": "AL", "RegionName": "Andalucía", "DeptCode": 41, "DeptName": "Sevilla", "CityCode": 34, "CityName": "Coria del Río", "NumSubAreas": "", "Population": 30358 }, "geometry": { "type": "Point", "coordinates": [ -6.0533598, 37.2882628 ] } },
{ "type": "Feature", "properties": { "RegionCode": "AL", "RegionName": "Andalucía", "DeptCode": 41, "DeptName": "Sevilla", "CityCode": 38, "CityName": "Dos Hermanas", "NumSubAreas": "", "Population": 131317 }, "geometry": { "type": "Point", "coordinates": [ -5.9242391, 37.2865803 ] } },
{ "type": "Feature", "properties": { "RegionCode": "AL", "RegionName": "Andalucía", "DeptCode": 41, "DeptName": "Sevilla", "CityCode": 102, "CityName": "El Viso del Alcor", "NumSubAreas": "", "Population": 19149 }, "geometry": { "type": "Point", "coordinates": [ -5.7217811, 37.3886862 ] } },
{ "type": "Feature", "properties": { "RegionCode": "AL", "RegionName": "Andalucía", "DeptCode": 41, "DeptName": "Sevilla", "CityCode": 40, "CityName": "Espartinas", "NumSubAreas": "", "Population": 14909 }, "geometry": { "type": "Point", "coordinates": [ -6.1328179, 37.3800349 ] } },
{ "type": "Feature", "properties": { "RegionCode": "AL", "RegionName": "Andalucía", "DeptCode": 41, "DeptName": "Sevilla", "CityCode": 41, "CityName": "Estepa", "NumSubAreas": "", "Population": 12716 }, "geometry": { "type": "Point", "coordinates": [ -4.8792939, 37.2917592 ] } },
{ "type": "Feature", "properties": { "RegionCode": "AL", "RegionName": "Andalucía", "DeptCode": 41, "DeptName": "Sevilla", "CityCode": 47, "CityName": "Gines", "NumSubAreas": "", "Population": 13309 }, "geometry": { "type": "Point", "coordinates": [ -6.0780749, 37.3873487 ] } },
{ "type": "Feature", "properties": { "RegionCode": "AL", "RegionName": "Andalucía", "DeptCode": 41, "DeptName": "Sevilla", "CityCode": 49, "CityName": "Guillena", "NumSubAreas": "", "Population": 12506 }, "geometry": { "type": "Point", "coordinates": [ -6.0568552, 37.5429955 ] } },
{ "type": "Feature", "properties": { "RegionCode": "AL", "RegionName": "Andalucía", "DeptCode": 41, "DeptName": "Sevilla", "CityCode": 7, "CityName": "La Algaba", "NumSubAreas": "", "Population": 16279 }, "geometry": { "type": "Point", "coordinates": [ -6.0136317, 37.4587461 ] } },
{ "type": "Feature", "properties": { "RegionCode": "AL", "RegionName": "Andalucía", "DeptCode": 41, "DeptName": "Sevilla", "CityCode": 77, "CityName": "La Puebla de Cazalla", "NumSubAreas": "", "Population": 11241 }, "geometry": { "type": "Point", "coordinates": [ -5.3141714, 37.2223653 ] } },
{ "type": "Feature", "properties": { "RegionCode": "AL", "RegionName": "Andalucía", "DeptCode": 41, "DeptName": "Sevilla", "CityCode": 79, "CityName": "La Puebla del Río", "NumSubAreas": "", "Population": 12114 }, "geometry": { "type": "Point", "coordinates": [ -6.063133, 37.2694065 ] } },
{ "type": "Feature", "properties": { "RegionCode": "AL", "RegionName": "Andalucía", "DeptCode": 41, "DeptName": "Sevilla", "CityCode": 81, "CityName": "La Rinconada", "NumSubAreas": "", "Population": 38180 }, "geometry": { "type": "Point", "coordinates": [ -5.9816424, 37.4872681 ] } },
{ "type": "Feature", "properties": { "RegionCode": "AL", "RegionName": "Andalucía", "DeptCode": 41, "DeptName": "Sevilla", "CityCode": 20, "CityName": "Las Cabezas de San Juan", "NumSubAreas": "", "Population": 16514 }, "geometry": { "type": "Point", "coordinates": [ -5.9383291, 36.9802873 ] } },
{ "type": "Feature", "properties": { "RegionCode": "AL", "RegionName": "Andalucía", "DeptCode": 41, "DeptName": "Sevilla", "CityCode": 53, "CityName": "Lebrija", "NumSubAreas": "", "Population": 27449 }, "geometry": { "type": "Point", "coordinates": [ -6.0758624, 36.9197889 ] } },
{ "type": "Feature", "properties": { "RegionCode": "AL", "RegionName": "Andalucía", "DeptCode": 41, "DeptName": "Sevilla", "CityCode": 55, "CityName": "Lora del Río", "NumSubAreas": "", "Population": 19328 }, "geometry": { "type": "Point", "coordinates": [ -5.52761, 37.6556349 ] } },
{ "type": "Feature", "properties": { "RegionCode": "AL", "RegionName": "Andalucía", "DeptCode": 41, "DeptName": "Sevilla", "CityCode": 69, "CityName": "Los Palacios y Villafranca", "NumSubAreas": "", "Population": 38157 }, "geometry": { "type": "Point", "coordinates": [ -5.9244808, 37.1584636 ] } },
{ "type": "Feature", "properties": { "RegionCode": "AL", "RegionName": "Andalucía", "DeptCode": 41, "DeptName": "Sevilla", "CityCode": 58, "CityName": "Mairena del Alcor", "NumSubAreas": "", "Population": 22749 }, "geometry": { "type": "Point", "coordinates": [ -5.7484139, 37.3740447 ] } },
{ "type": "Feature", "properties": { "RegionCode": "AL", "RegionName": "Andalucía", "DeptCode": 41, "DeptName": "Sevilla", "CityCode": 59, "CityName": "Mairena del Aljarafe", "NumSubAreas": "", "Population": 44388 }, "geometry": { "type": "Point", "coordinates": [ -6.0520363, 37.350923 ] } },
{ "type": "Feature", "properties": { "RegionCode": "AL", "RegionName": "Andalucía", "DeptCode": 41, "DeptName": "Sevilla", "CityCode": 60, "CityName": "Marchena", "NumSubAreas": "", "Population": 19878 }, "geometry": { "type": "Point", "coordinates": [ -5.4162096, 37.3271048 ] } },
{ "type": "Feature", "properties": { "RegionCode": "AL", "RegionName": "Andalucía", "DeptCode": 41, "DeptName": "Sevilla", "CityCode": 65, "CityName": "Morón de la Frontera", "NumSubAreas": "", "Population": 28223 }, "geometry": { "type": "Point", "coordinates": [ -5.4541928, 37.1211901 ] } },
{ "type": "Feature", "properties": { "RegionCode": "AL", "RegionName": "Andalucía", "DeptCode": 41, "DeptName": "Sevilla", "CityCode": 68, "CityName": "Osuna", "NumSubAreas": "", "Population": 17801 }, "geometry": { "type": "Point", "coordinates": [ -5.1033081, 37.2373642 ] } },
{ "type": "Feature", "properties": { "RegionCode": "AL", "RegionName": "Andalucía", "DeptCode": 41, "DeptName": "Sevilla", "CityCode": 75, "CityName": "Pilas", "NumSubAreas": "", "Population": 13987 }, "geometry": { "type": "Point", "coordinates": [ -6.2986857, 37.3034383 ] } },
{ "type": "Feature", "properties": { "RegionCode": "AL", "RegionName": "Andalucía", "DeptCode": 41, "DeptName": "Sevilla", "CityCode": 86, "CityName": "San Juan de Aznalfarache", "NumSubAreas": "", "Population": 21390 }, "geometry": { "type": "Point", "coordinates": [ -6.0343054, 37.3592432 ] } },
{ "type": "Feature", "properties": { "RegionCode": "AL", "RegionName": "Andalucía", "DeptCode": 41, "DeptName": "Sevilla", "CityCode": 87, "CityName": "Sanlúcar la Mayor", "NumSubAreas": "", "Population": 13451 }, "geometry": { "type": "Point", "coordinates": [ -6.2017649, 37.3870837 ] } },
{ "type": "Feature", "properties": { "RegionCode": "AL", "RegionName": "Andalucía", "DeptCode": 41, "DeptName": "Sevilla", "CityCode": 91, "CityName": "Sevilla", "NumSubAreas": "", "Population": 693878 }, "geometry": { "type": "Point", "coordinates": [ -5.9844589, 37.3890924 ] } },
{ "type": "Feature", "properties": { "RegionCode": "AL", "RegionName": "Andalucía", "DeptCode": 41, "DeptName": "Sevilla", "CityCode": 93, "CityName": "Tomares", "NumSubAreas": "", "Population": 24743 }, "geometry": { "type": "Point", "coordinates": [ -6.0450059, 37.375855 ] } },
{ "type": "Feature", "properties": { "RegionCode": "AL", "RegionName": "Andalucía", "DeptCode": 41, "DeptName": "Sevilla", "CityCode": 95, "CityName": "Utrera", "NumSubAreas": "", "Population": 52558 }, "geometry": { "type": "Point", "coordinates": [ -5.7795147, 37.1848134 ] } },
{ "type": "Feature", "properties": { "RegionCode": "AL", "RegionName": "Andalucía", "DeptCode": 41, "DeptName": "Sevilla", "CityCode": 39, "CityName": "Écija", "NumSubAreas": "", "Population": 40320 }, "geometry": { "type": "Point", "coordinates": [ -5.0826742, 37.5414656 ] } }
]
}
