{
"type": "FeatureCollection",
"crs": { "type": "name", "properties": { "name": "urn:ogc:def:crs:OGC:1.3:CRS84" } },
                                                                                
"features": [
{ "type": "Feature", "properties": { "RegionCode": "AL", "RegionName": "Andalucía", "DeptCode": 11, "DeptName": "Cádiz", "CityCode": 4, "CityName": "Algeciras", "NumSubAreas": "", "Population": 118920 }, "geometry": { "type": "Point", "coordinates": [ -5.456233, 36.1407591 ] } },
{ "type": "Feature", "properties": { "RegionCode": "AL", "RegionName": "Andalucía", "DeptCode": 11, "DeptName": "Cádiz", "CityCode": 6, "CityName": "Arcos de la Frontera", "NumSubAreas": "", "Population": 31193 }, "geometry": { "type": "Point", "coordinates": [ -5.8116522, 36.7560042 ] } },
{ "type": "Feature", "properties": { "RegionCode": "AL", "RegionName": "Andalucía", "DeptCode": 11, "DeptName": "Cádiz", "CityCode": 7, "CityName": "Barbate", "NumSubAreas": "", "Population": 22808 }, "geometry": { "type": "Point", "coordinates": [ -5.9224799, 36.1900204 ] } },
{ "type": "Feature", "properties": { "RegionCode": "AL", "RegionName": "Andalucía", "DeptCode": 11, "DeptName": "Cádiz", "CityCode": 15, "CityName": "Chiclana de la Frontera", "NumSubAreas": "", "Population": 82777 }, "geometry": { "type": "Point", "coordinates": [ -6.1461102, 36.4165052 ] } },
{ "type": "Feature", "properties": { "RegionCode": "AL", "RegionName": "Andalucía", "DeptCode": 11, "DeptName": "Cádiz", "CityCode": 16, "CityName": "Chipiona", "NumSubAreas": "", "Population": 19062 }, "geometry": { "type": "Point", "coordinates": [ -6.431699, 36.7348614 ] } },
{ "type": "Feature", "properties": { "RegionCode": "AL", "RegionName": "Andalucía", "DeptCode": 11, "DeptName": "Cádiz", "CityCode": 14, "CityName": "Conil de la Frontera", "NumSubAreas": "", "Population": 22136 }, "geometry": { "type": "Point", "coordinates": [ -6.0862071, 36.2780988 ] } },
{ "type": "Feature", "properties": { "RegionCode": "AL", "RegionName": "Andalucía", "DeptCode": 11, "DeptName": "Cádiz", "CityCode": 12, "CityName": "Cádiz", "NumSubAreas": "", "Population": 120468 }, "geometry": { "type": "Point", "coordinates": [ -6.2885962, 36.5270612 ] } },
{ "type": "Feature", "properties": { "RegionCode": "AL", "RegionName": "Andalucía", "DeptCode": 11, "DeptName": "Cádiz", "CityCode": 27, "CityName": "El Puerto de Santa María", "NumSubAreas": "", "Population": 88335 }, "geometry": { "type": "Point", "coordinates": [ -6.2329094, 36.600595 ] } },
{ "type": "Feature", "properties": { "RegionCode": "AL", "RegionName": "Andalucía", "DeptCode": 11, "DeptName": "Cádiz", "CityCode": 20, "CityName": "Jerez de la Frontera", "NumSubAreas": "", "Population": 212876 }, "geometry": { "type": "Point", "coordinates": [ -6.1260744, 36.6850064 ] } },
{ "type": "Feature", "properties": { "RegionCode": "AL", "RegionName": "Andalucía", "DeptCode": 11, "DeptName": "Cádiz", "CityCode": 22, "CityName": "La Línea de la Concepción", "NumSubAreas": "", "Population": 63352 }, "geometry": { "type": "Point", "coordinates": [ -5.3468563, 36.1927346 ] } },
{ "type": "Feature", "properties": { "RegionCode": "AL", "RegionName": "Andalucía", "DeptCode": 11, "DeptName": "Cádiz", "CityCode": 8, "CityName": "Los Barrios", "NumSubAreas": "", "Population": 23167 }, "geometry": { "type": "Point", "coordinates": [ -5.4925573, 36.1850645 ] } },
{ "type": "Feature", "properties": { "RegionCode": "AL", "RegionName": "Andalucía", "DeptCode": 11, "DeptName": "Cádiz", "CityCode": 23, "CityName": "Medina-Sidonia", "NumSubAreas": "", "Population": 11749 }, "geometry": { "type": "Point", "coordinates": [ -5.9292131, 36.4619644 ] } },
{ "type": "Feature", "properties": { "RegionCode": "AL", "RegionName": "Andalucía", "DeptCode": 11, "DeptName": "Cádiz", "CityCode": 28, "CityName": "Puerto Real", "NumSubAreas": "", "Population": 41509 }, "geometry": { "type": "Point", "coordinates": [ -6.1831947, 36.5316485 ] } },
{ "type": "Feature", "properties": { "RegionCode": "AL", "RegionName": "Andalucía", "DeptCode": 11, "DeptName": "Cádiz", "CityCode": 30, "CityName": "Rota", "NumSubAreas": "", "Population": 29123 }, "geometry": { "type": "Point", "coordinates": [ -6.3601441, 36.6236874 ] } },
{ "type": "Feature", "properties": { "RegionCode": "AL", "RegionName": "Andalucía", "DeptCode": 11, "DeptName": "Cádiz", "CityCode": 31, "CityName": "San Fernando", "NumSubAreas": "", "Population": 96131 }, "geometry": { "type": "Point", "coordinates": [ -6.1965948, 36.4718646 ] } },
{ "type": "Feature", "properties": { "RegionCode": "AL", "RegionName": "Andalucía", "DeptCode": 11, "DeptName": "Cádiz", "CityCode": 33, "CityName": "San Roque", "NumSubAreas": "", "Population": 29373 }, "geometry": { "type": "Point", "coordinates": [ -5.3844317, 36.2104615 ] } },
{ "type": "Feature", "properties": { "RegionCode": "AL", "RegionName": "Andalucía", "DeptCode": 11, "DeptName": "Cádiz", "CityCode": 32, "CityName": "Sanlúcar de Barrameda", "NumSubAreas": "", "Population": 67433 }, "geometry": { "type": "Point", "coordinates": [ -6.3529689, 36.7725774 ] } },
{ "type": "Feature", "properties": { "RegionCode": "AL", "RegionName": "Andalucía", "DeptCode": 11, "DeptName": "Cádiz", "CityCode": 35, "CityName": "Tarifa", "NumSubAreas": "", "Population": 18011 }, "geometry": { "type": "Point", "coordinates": [ -5.6044497, 36.0143209 ] } },
{ "type": "Feature", "properties": { "RegionCode": "AL", "RegionName": "Andalucía", "DeptCode": 11, "DeptName": "Cádiz", "CityCode": 38, "CityName": "Ubrique", "NumSubAreas": "", "Population": 16836 }, "geometry": { "type": "Point", "coordinates": [ -5.44539, 36.6770842 ] } },
{ "type": "Feature", "properties": { "RegionCode": "AL", "RegionName": "Andalucía", "DeptCode": 11, "DeptName": "Cádiz", "CityCode": 39, "CityName": "Vejer de la Frontera", "NumSubAreas": "", "Population": 12812 }, "geometry": { "type": "Point", "coordinates": [ -5.9667359, 36.252034 ] } },
{ "type": "Feature", "properties": { "RegionCode": "AL", "RegionName": "Andalucía", "DeptCode": 11, "DeptName": "Cádiz", "CityCode": 41, "CityName": "Villamartín", "NumSubAreas": "", "Population": 12271 }, "geometry": { "type": "Point", "coordinates": [ -5.6417243, 36.8610112 ] } }
]
}
