{
"type": "FeatureCollection",
"crs": { "type": "name", "properties": { "name": "urn:ogc:def:crs:OGC:1.3:CRS84" } },
                                                                                
"features": [
{ "type": "Feature", "properties": { "RegionCode": "M", "RegionName": "Comunidad de Madrid", "DeptCode": 28, "DeptName": "Madrid", "CityCode": 5, "CityName": "Alcalá de Henares", "NumSubAreas": "", "Population": 198750 }, "geometry": { "type": "Point", "coordinates": [ -3.3635421, 40.4819791 ] } },
{ "type": "Feature", "properties": { "RegionCode": "M", "RegionName": "Comunidad de Madrid", "DeptCode": 28, "DeptName": "Madrid", "CityCode": 6, "CityName": "Alcobendas", "NumSubAreas": "", "Population": 113055 }, "geometry": { "type": "Point", "coordinates": [ -3.6372245, 40.5372512 ] } },
{ "type": "Feature", "properties": { "RegionCode": "M", "RegionName": "Comunidad de Madrid", "DeptCode": 28, "DeptName": "Madrid", "CityCode": 7, "CityName": "Alcorcón", "NumSubAreas": "", "Population": 167136 }, "geometry": { "type": "Point", "coordinates": [ -3.8278443, 40.3468454 ] } },
{ "type": "Feature", "properties": { "RegionCode": "M", "RegionName": "Comunidad de Madrid", "DeptCode": 28, "DeptName": "Madrid", "CityCode": 9, "CityName": "Algete", "NumSubAreas": "", "Population": 20148 }, "geometry": { "type": "Point", "coordinates": [ -3.5016452, 40.5964617 ] } },
{ "type": "Feature", "properties": { "RegionCode": "M", "RegionName": "Comunidad de Madrid", "DeptCode": 28, "DeptName": "Madrid", "CityCode": 10, "CityName": "Alpedrete", "NumSubAreas": "", "Population": 14248 }, "geometry": { "type": "Point", "coordinates": [ -4.031169, 40.6621635 ] } },
{ "type": "Feature", "properties": { "RegionCode": "M", "RegionName": "Comunidad de Madrid", "DeptCode": 28, "DeptName": "Madrid", "CityCode": 13, "CityName": "Aranjuez", "NumSubAreas": "", "Population": 58168 }, "geometry": { "type": "Point", "coordinates": [ -3.6040527, 40.0305018 ] } },
{ "type": "Feature", "properties": { "RegionCode": "M", "RegionName": "Comunidad de Madrid", "DeptCode": 28, "DeptName": "Madrid", "CityCode": 14, "CityName": "Arganda del Rey", "NumSubAreas": "", "Population": 54533 }, "geometry": { "type": "Point", "coordinates": [ -3.4479063, 40.3064463 ] } },
{ "type": "Feature", "properties": { "RegionCode": "M", "RegionName": "Comunidad de Madrid", "DeptCode": 28, "DeptName": "Madrid", "CityCode": 15, "CityName": "Arroyomolinos", "NumSubAreas": "", "Population": 26846 }, "geometry": { "type": "Point", "coordinates": [ -3.9215541, 40.2783308 ] } },
{ "type": "Feature", "properties": { "RegionCode": "M", "RegionName": "Comunidad de Madrid", "DeptCode": 28, "DeptName": "Madrid", "CityCode": 22, "CityName": "Boadilla del Monte", "NumSubAreas": "", "Population": 48775 }, "geometry": { "type": "Point", "coordinates": [ -3.8887699, 40.4122794 ] } },
{ "type": "Feature", "properties": { "RegionCode": "M", "RegionName": "Comunidad de Madrid", "DeptCode": 28, "DeptName": "Madrid", "CityCode": 26, "CityName": "Brunete", "NumSubAreas": "", "Population": 10398 }, "geometry": { "type": "Point", "coordinates": [ -3.9993244, 40.4043103 ] } },
{ "type": "Feature", "properties": { "RegionCode": "M", "RegionName": "Comunidad de Madrid", "DeptCode": 28, "DeptName": "Madrid", "CityCode": 40, "CityName": "Ciempozuelos", "NumSubAreas": "", "Population": 23696 }, "geometry": { "type": "Point", "coordinates": [ -3.6192473, 40.157955 ] } },
{ "type": "Feature", "properties": { "RegionCode": "M", "RegionName": "Comunidad de Madrid", "DeptCode": 28, "DeptName": "Madrid", "CityCode": 47, "CityName": "Collado Villalba", "NumSubAreas": "", "Population": 62056 }, "geometry": { "type": "Point", "coordinates": [ -4.0055605, 40.6308775 ] } },
{ "type": "Feature", "properties": { "RegionCode": "M", "RegionName": "Comunidad de Madrid", "DeptCode": 28, "DeptName": "Madrid", "CityCode": 45, "CityName": "Colmenar Viejo", "NumSubAreas": "", "Population": 47601 }, "geometry": { "type": "Point", "coordinates": [ -3.7710457, 40.6626481 ] } },
{ "type": "Feature", "properties": { "RegionCode": "M", "RegionName": "Comunidad de Madrid", "DeptCode": 28, "DeptName": "Madrid", "CityCode": 49, "CityName": "Coslada", "NumSubAreas": "", "Population": 86919 }, "geometry": { "type": "Point", "coordinates": [ -3.5651646, 40.4260459 ] } },
{ "type": "Feature", "properties": { "RegionCode": "M", "RegionName": "Comunidad de Madrid", "DeptCode": 28, "DeptName": "Madrid", "CityCode": 54, "CityName": "El Escorial", "NumSubAreas": "", "Population": 15342 }, "geometry": { "type": "Point", "coordinates": [ -4.1270438, 40.583347 ] } },
{ "type": "Feature", "properties": { "RegionCode": "M", "RegionName": "Comunidad de Madrid", "DeptCode": 28, "DeptName": "Madrid", "CityCode": 58, "CityName": "Fuenlabrada", "NumSubAreas": "", "Population": 195180 }, "geometry": { "type": "Point", "coordinates": [ -3.8035477, 40.2902056 ] } },
{ "type": "Feature", "properties": { "RegionCode": "M", "RegionName": "Comunidad de Madrid", "DeptCode": 28, "DeptName": "Madrid", "CityCode": 61, "CityName": "Galapagar", "NumSubAreas": "", "Population": 32294 }, "geometry": { "type": "Point", "coordinates": [ -4.0058027, 40.5768377 ] } },
{ "type": "Feature", "properties": { "RegionCode": "M", "RegionName": "Comunidad de Madrid", "DeptCode": 28, "DeptName": "Madrid", "CityCode": 65, "CityName": "Getafe", "NumSubAreas": "", "Population": 174921 }, "geometry": { "type": "Point", "coordinates": [ -3.7323934, 40.3082504 ] } },
{ "type": "Feature", "properties": { "RegionCode": "M", "RegionName": "Comunidad de Madrid", "DeptCode": 28, "DeptName": "Madrid", "CityCode": 68, "CityName": "Guadarrama", "NumSubAreas": "", "Population": 15538 }, "geometry": { "type": "Point", "coordinates": [ -4.0875528, 40.6731798 ] } },
{ "type": "Feature", "properties": { "RegionCode": "M", "RegionName": "Comunidad de Madrid", "DeptCode": 28, "DeptName": "Madrid", "CityCode": 73, "CityName": "Humanes de Madrid", "NumSubAreas": "", "Population": 19413 }, "geometry": { "type": "Point", "coordinates": [ -3.8209585, 40.2596169 ] } },
{ "type": "Feature", "properties": { "RegionCode": "M", "RegionName": "Comunidad de Madrid", "DeptCode": 28, "DeptName": "Madrid", "CityCode": 127, "CityName": "Las Rozas de Madrid", "NumSubAreas": "", "Population": 93520 }, "geometry": { "type": "Point", "coordinates": [ -3.8757916, 40.4935329 ] } },
{ "type": "Feature", "properties": { "RegionCode": "M", "RegionName": "Comunidad de Madrid", "DeptCode": 28, "DeptName": "Madrid", "CityCode": 74, "CityName": "Leganés", "NumSubAreas": "", "Population": 186907 }, "geometry": { "type": "Point", "coordinates": [ -3.7686545, 40.3319506 ] } },
{ "type": "Feature", "properties": { "RegionCode": "M", "RegionName": "Comunidad de Madrid", "DeptCode": 28, "DeptName": "Madrid", "CityCode": 79, "CityName": "Madrid", "NumSubAreas": "", "Population": 3141991 }, "geometry": { "type": "Point", "coordinates": [ -3.7037902, 40.4167754 ] } },
{ "type": "Feature", "properties": { "RegionCode": "M", "RegionName": "Comunidad de Madrid", "DeptCode": 28, "DeptName": "Madrid", "CityCode": 80, "CityName": "Majadahonda", "NumSubAreas": "", "Population": 70800 }, "geometry": { "type": "Point", "coordinates": [ -3.8683123, 40.4737586 ] } },
{ "type": "Feature", "properties": { "RegionCode": "M", "RegionName": "Comunidad de Madrid", "DeptCode": 28, "DeptName": "Madrid", "CityCode": 83, "CityName": "Meco", "NumSubAreas": "", "Population": 13269 }, "geometry": { "type": "Point", "coordinates": [ -3.3263003, 40.5539468 ] } },
{ "type": "Feature", "properties": { "RegionCode": "M", "RegionName": "Comunidad de Madrid", "DeptCode": 28, "DeptName": "Madrid", "CityCode": 84, "CityName": "Mejorada del Campo", "NumSubAreas": "", "Population": 22902 }, "geometry": { "type": "Point", "coordinates": [ -3.4877129, 40.396654 ] } },
{ "type": "Feature", "properties": { "RegionCode": "M", "RegionName": "Comunidad de Madrid", "DeptCode": 28, "DeptName": "Madrid", "CityCode": 90, "CityName": "Moralzarzal", "NumSubAreas": "", "Population": 12213 }, "geometry": { "type": "Point", "coordinates": [ -3.9704867, 40.6763507 ] } },
{ "type": "Feature", "properties": { "RegionCode": "M", "RegionName": "Comunidad de Madrid", "DeptCode": 28, "DeptName": "Madrid", "CityCode": 92, "CityName": "Móstoles", "NumSubAreas": "", "Population": 206263 }, "geometry": { "type": "Point", "coordinates": [ -3.8676291, 40.3232129 ] } },
{ "type": "Feature", "properties": { "RegionCode": "M", "RegionName": "Comunidad de Madrid", "DeptCode": 28, "DeptName": "Madrid", "CityCode": 96, "CityName": "Navalcarnero", "NumSubAreas": "", "Population": 26672 }, "geometry": { "type": "Point", "coordinates": [ -4.0166526, 40.285599 ] } },
{ "type": "Feature", "properties": { "RegionCode": "M", "RegionName": "Comunidad de Madrid", "DeptCode": 28, "DeptName": "Madrid", "CityCode": 104, "CityName": "Paracuellos de Jarama", "NumSubAreas": "", "Population": 22293 }, "geometry": { "type": "Point", "coordinates": [ -3.5302108, 40.5056034 ] } },
{ "type": "Feature", "properties": { "RegionCode": "M", "RegionName": "Comunidad de Madrid", "DeptCode": 28, "DeptName": "Madrid", "CityCode": 106, "CityName": "Parla", "NumSubAreas": "", "Population": 125056 }, "geometry": { "type": "Point", "coordinates": [ -3.768906, 40.232367 ] } },
{ "type": "Feature", "properties": { "RegionCode": "M", "RegionName": "Comunidad de Madrid", "DeptCode": 28, "DeptName": "Madrid", "CityCode": 113, "CityName": "Pinto", "NumSubAreas": "", "Population": 48660 }, "geometry": { "type": "Point", "coordinates": [ -3.6967718, 40.2375052 ] } },
{ "type": "Feature", "properties": { "RegionCode": "M", "RegionName": "Comunidad de Madrid", "DeptCode": 28, "DeptName": "Madrid", "CityCode": 115, "CityName": "Pozuelo de Alarcón", "NumSubAreas": "", "Population": 84558 }, "geometry": { "type": "Point", "coordinates": [ -3.8074152, 40.4475272 ] } },
{ "type": "Feature", "properties": { "RegionCode": "M", "RegionName": "Comunidad de Madrid", "DeptCode": 28, "DeptName": "Madrid", "CityCode": 123, "CityName": "Rivas-Vaciamadrid", "NumSubAreas": "", "Population": 81473 }, "geometry": { "type": "Point", "coordinates": [ -3.5357334, 40.3519065 ] } },
{ "type": "Feature", "properties": { "RegionCode": "M", "RegionName": "Comunidad de Madrid", "DeptCode": 28, "DeptName": "Madrid", "CityCode": 129, "CityName": "San Agustín del Guadalix", "NumSubAreas": "", "Population": 12982 }, "geometry": { "type": "Point", "coordinates": [ -3.6163061, 40.6788466 ] } },
{ "type": "Feature", "properties": { "RegionCode": "M", "RegionName": "Comunidad de Madrid", "DeptCode": 28, "DeptName": "Madrid", "CityCode": 130, "CityName": "San Fernando de Henares", "NumSubAreas": "", "Population": 40188 }, "geometry": { "type": "Point", "coordinates": [ -3.5318722, 40.4256038 ] } },
{ "type": "Feature", "properties": { "RegionCode": "M", "RegionName": "Comunidad de Madrid", "DeptCode": 28, "DeptName": "Madrid", "CityCode": 131, "CityName": "San Lorenzo de El Escorial", "NumSubAreas": "", "Population": 18191 }, "geometry": { "type": "Point", "coordinates": [ -4.1475748, 40.5932386 ] } },
{ "type": "Feature", "properties": { "RegionCode": "M", "RegionName": "Comunidad de Madrid", "DeptCode": 28, "DeptName": "Madrid", "CityCode": 132, "CityName": "San Martín de la Vega", "NumSubAreas": "", "Population": 18835 }, "geometry": { "type": "Point", "coordinates": [ -3.5787384, 40.2103049 ] } },
{ "type": "Feature", "properties": { "RegionCode": "M", "RegionName": "Comunidad de Madrid", "DeptCode": 28, "DeptName": "Madrid", "CityCode": 134, "CityName": "San Sebastián de los Reyes", "NumSubAreas": "", "Population": 84944 }, "geometry": { "type": "Point", "coordinates": [ -3.6261976, 40.5589672 ] } },
{ "type": "Feature", "properties": { "RegionCode": "M", "RegionName": "Comunidad de Madrid", "DeptCode": 28, "DeptName": "Madrid", "CityCode": 148, "CityName": "Torrejón de Ardoz", "NumSubAreas": "", "Population": 126934 }, "geometry": { "type": "Point", "coordinates": [ -3.4754967, 40.4567552 ] } },
{ "type": "Feature", "properties": { "RegionCode": "M", "RegionName": "Comunidad de Madrid", "DeptCode": 28, "DeptName": "Madrid", "CityCode": 152, "CityName": "Torrelodones", "NumSubAreas": "", "Population": 23117 }, "geometry": { "type": "Point", "coordinates": [ -3.9293646, 40.5766078 ] } },
{ "type": "Feature", "properties": { "RegionCode": "M", "RegionName": "Comunidad de Madrid", "DeptCode": 28, "DeptName": "Madrid", "CityCode": 903, "CityName": "Tres Cantos", "NumSubAreas": "", "Population": 43309 }, "geometry": { "type": "Point", "coordinates": [ -3.7079745, 40.600727 ] } },
{ "type": "Feature", "properties": { "RegionCode": "M", "RegionName": "Comunidad de Madrid", "DeptCode": 28, "DeptName": "Madrid", "CityCode": 160, "CityName": "Valdemorillo", "NumSubAreas": "", "Population": 12173 }, "geometry": { "type": "Point", "coordinates": [ -4.0652559, 40.4991922 ] } },
{ "type": "Feature", "properties": { "RegionCode": "M", "RegionName": "Comunidad de Madrid", "DeptCode": 28, "DeptName": "Madrid", "CityCode": 161, "CityName": "Valdemoro", "NumSubAreas": "", "Population": 72854 }, "geometry": { "type": "Point", "coordinates": [ -3.6740182, 40.1912403 ] } },
{ "type": "Feature", "properties": { "RegionCode": "M", "RegionName": "Comunidad de Madrid", "DeptCode": 28, "DeptName": "Madrid", "CityCode": 167, "CityName": "Velilla de San Antonio", "NumSubAreas": "", "Population": 12382 }, "geometry": { "type": "Point", "coordinates": [ -3.4864498, 40.3699557 ] } },
{ "type": "Feature", "properties": { "RegionCode": "M", "RegionName": "Comunidad de Madrid", "DeptCode": 28, "DeptName": "Madrid", "CityCode": 172, "CityName": "Villalbilla", "NumSubAreas": "", "Population": 12351 }, "geometry": { "type": "Point", "coordinates": [ -3.3005573, 40.4329592 ] } },
{ "type": "Feature", "properties": { "RegionCode": "M", "RegionName": "Comunidad de Madrid", "DeptCode": 28, "DeptName": "Madrid", "CityCode": 176, "CityName": "Villanueva de la Cañada", "NumSubAreas": "", "Population": 19250 }, "geometry": { "type": "Point", "coordinates": [ -3.9975566, 40.4481075 ] } },
{ "type": "Feature", "properties": { "RegionCode": "M", "RegionName": "Comunidad de Madrid", "DeptCode": 28, "DeptName": "Madrid", "CityCode": 177, "CityName": "Villanueva del Pardillo", "NumSubAreas": "", "Population": 16797 }, "geometry": { "type": "Point", "coordinates": [ -3.9615348, 40.4898209 ] } },
{ "type": "Feature", "properties": { "RegionCode": "M", "RegionName": "Comunidad de Madrid", "DeptCode": 28, "DeptName": "Madrid", "CityCode": 181, "CityName": "Villaviciosa de Odón", "NumSubAreas": "", "Population": 27075 }, "geometry": { "type": "Point", "coordinates": [ -3.9139109, 40.3626807 ] } }
]
}
