{
"type": "FeatureCollection",
"crs": { "type": "name", "properties": { "name": "urn:ogc:def:crs:OGC:1.3:CRS84" } },
                                                                                
"features": [
{ "type": "Feature", "properties": { "RegionCode": "PM", "RegionName": "Illes Balears", "DeptCode": 7, "DeptName": "Illes Balears", "CityCode": 3, "CityName": "Alcúdia", "NumSubAreas": "", "Population": 19763 }, "geometry": { "type": "Point", "coordinates": [ 3.1240239, 39.8532672 ] } },
{ "type": "Feature", "properties": { "RegionCode": "PM", "RegionName": "Illes Balears", "DeptCode": 7, "DeptName": "Illes Balears", "CityCode": 5, "CityName": "Andratx", "NumSubAreas": "", "Population": 11093 }, "geometry": { "type": "Point", "coordinates": [ 2.4202537, 39.5744273 ] } },
{ "type": "Feature", "properties": { "RegionCode": "PM", "RegionName": "Illes Balears", "DeptCode": 7, "DeptName": "Illes Balears", "CityCode": 11, "CityName": "Calvià", "NumSubAreas": "", "Population": 50328 }, "geometry": { "type": "Point", "coordinates": [ 2.5033683, 39.5653483 ] } },
{ "type": "Feature", "properties": { "RegionCode": "PM", "RegionName": "Illes Balears", "DeptCode": 7, "DeptName": "Illes Balears", "CityCode": 14, "CityName": "Capdepera", "NumSubAreas": "", "Population": 11420 }, "geometry": { "type": "Point", "coordinates": [ 3.4353222, 39.7023646 ] } },
{ "type": "Feature", "properties": { "RegionCode": "PM", "RegionName": "Illes Balears", "DeptCode": 7, "DeptName": "Illes Balears", "CityCode": 15, "CityName": "Ciutadella de Menorca", "NumSubAreas": "", "Population": 29098 }, "geometry": { "type": "Point", "coordinates": [ 3.8389047, 39.9991163 ] } },
{ "type": "Feature", "properties": { "RegionCode": "PM", "RegionName": "Illes Balears", "DeptCode": 7, "DeptName": "Illes Balears", "CityCode": 26, "CityName": "Eivissa", "NumSubAreas": "", "Population": 49975 }, "geometry": { "type": "Point", "coordinates": [ 1.4205983, 38.9067339 ] } },
{ "type": "Feature", "properties": { "RegionCode": "PM", "RegionName": "Illes Balears", "DeptCode": 7, "DeptName": "Illes Balears", "CityCode": 22, "CityName": "Felanitx", "NumSubAreas": "", "Population": 17412 }, "geometry": { "type": "Point", "coordinates": [ 3.148297, 39.4696851 ] } },
{ "type": "Feature", "properties": { "RegionCode": "PM", "RegionName": "Illes Balears", "DeptCode": 7, "DeptName": "Illes Balears", "CityCode": 24, "CityName": "Formentera", "NumSubAreas": "", "Population": 11878 }, "geometry": { "type": "Point", "coordinates": [ 1.4531355, 38.6964006 ] } },
{ "type": "Feature", "properties": { "RegionCode": "PM", "RegionName": "Illes Balears", "DeptCode": 7, "DeptName": "Illes Balears", "CityCode": 27, "CityName": "Inca", "NumSubAreas": "", "Population": 30651 }, "geometry": { "type": "Point", "coordinates": [ 2.9075475, 39.717774299999988 ] } },
{ "type": "Feature", "properties": { "RegionCode": "PM", "RegionName": "Illes Balears", "DeptCode": 7, "DeptName": "Illes Balears", "CityCode": 31, "CityName": "Llucmajor", "NumSubAreas": "", "Population": 34618 }, "geometry": { "type": "Point", "coordinates": [ 2.8916657, 39.4908439 ] } },
{ "type": "Feature", "properties": { "RegionCode": "PM", "RegionName": "Illes Balears", "DeptCode": 7, "DeptName": "Illes Balears", "CityCode": 33, "CityName": "Manacor", "NumSubAreas": "", "Population": 40170 }, "geometry": { "type": "Point", "coordinates": [ 3.2095318, 39.5697165 ] } },
{ "type": "Feature", "properties": { "RegionCode": "PM", "RegionName": "Illes Balears", "DeptCode": 7, "DeptName": "Illes Balears", "CityCode": 36, "CityName": "Marratxí", "NumSubAreas": "", "Population": 35726 }, "geometry": { "type": "Point", "coordinates": [ 2.7253135, 39.6214684 ] } },
{ "type": "Feature", "properties": { "RegionCode": "PM", "RegionName": "Illes Balears", "DeptCode": 7, "DeptName": "Illes Balears", "CityCode": 32, "CityName": "Maó-Mahón", "NumSubAreas": "", "Population": 28006 }, "geometry": { "type": "Point", "coordinates": [ 4.2596195, 39.8873296 ] } },
{ "type": "Feature", "properties": { "RegionCode": "PM", "RegionName": "Illes Balears", "DeptCode": 7, "DeptName": "Illes Balears", "CityCode": 40, "CityName": "Palma de Mallorca", "NumSubAreas": "", "Population": 400578 }, "geometry": { "type": "Point", "coordinates": [ 2.6501603, 39.5696005 ] } },
{ "type": "Feature", "properties": { "RegionCode": "PM", "RegionName": "Illes Balears", "DeptCode": 7, "DeptName": "Illes Balears", "CityCode": 42, "CityName": "Pollença", "NumSubAreas": "", "Population": 16115 }, "geometry": { "type": "Point", "coordinates": [ 3.0162026, 39.8771939 ] } },
{ "type": "Feature", "properties": { "RegionCode": "PM", "RegionName": "Illes Balears", "DeptCode": 7, "DeptName": "Illes Balears", "CityCode": 44, "CityName": "Sa Pobla", "NumSubAreas": "", "Population": 12694 }, "geometry": { "type": "Point", "coordinates": [ 3.0250778, 39.7697384 ] } },
{ "type": "Feature", "properties": { "RegionCode": "PM", "RegionName": "Illes Balears", "DeptCode": 7, "DeptName": "Illes Balears", "CityCode": 46, "CityName": "Sant Antoni de Portmany", "NumSubAreas": "", "Population": 23631 }, "geometry": { "type": "Point", "coordinates": [ 1.3015192, 38.9826357 ] } },
{ "type": "Feature", "properties": { "RegionCode": "PM", "RegionName": "Illes Balears", "DeptCode": 7, "DeptName": "Illes Balears", "CityCode": 48, "CityName": "Sant Josep de sa Talaia", "NumSubAreas": "", "Population": 25674 }, "geometry": { "type": "Point", "coordinates": [ 1.2934954, 38.9217535 ] } },
{ "type": "Feature", "properties": { "RegionCode": "PM", "RegionName": "Illes Balears", "DeptCode": 7, "DeptName": "Illes Balears", "CityCode": 54, "CityName": "Santa Eulària des Riu", "NumSubAreas": "", "Population": 35812 }, "geometry": { "type": "Point", "coordinates": [ 1.5350964, 38.9852753 ] } },
{ "type": "Feature", "properties": { "RegionCode": "PM", "RegionName": "Illes Balears", "DeptCode": 7, "DeptName": "Illes Balears", "CityCode": 55, "CityName": "Santa Margalida", "NumSubAreas": "", "Population": 11672 }, "geometry": { "type": "Point", "coordinates": [ 3.1039678, 39.7020092 ] } },
{ "type": "Feature", "properties": { "RegionCode": "PM", "RegionName": "Illes Balears", "DeptCode": 7, "DeptName": "Illes Balears", "CityCode": 57, "CityName": "Santanyí", "NumSubAreas": "", "Population": 11316 }, "geometry": { "type": "Point", "coordinates": [ 3.1302932, 39.3538601 ] } },
{ "type": "Feature", "properties": { "RegionCode": "PM", "RegionName": "Illes Balears", "DeptCode": 7, "DeptName": "Illes Balears", "CityCode": 62, "CityName": "Son Servera", "NumSubAreas": "", "Population": 11449 }, "geometry": { "type": "Point", "coordinates": [ 3.3603044, 39.6201493 ] } },
{ "type": "Feature", "properties": { "RegionCode": "PM", "RegionName": "Illes Balears", "DeptCode": 7, "DeptName": "Illes Balears", "CityCode": 61, "CityName": "Sóller", "NumSubAreas": "", "Population": 13648 }, "geometry": { "type": "Point", "coordinates": [ 2.7157866, 39.7670693 ] } }
]
}
