{
"type": "FeatureCollection",
"crs": { "type": "name", "properties": { "name": "urn:ogc:def:crs:OGC:1.3:CRS84" } },
                                                                                
"features": [
{ "type": "Feature", "properties": { "RegionName": "Aquitaine", "DeptName": "Gironde", "CityName": "Ambarès-et-Lagrave", "Population": 14609 }, "geometry": { "type": "Point", "coordinates": [ -0.490401, 44.926494 ] } },
{ "type": "Feature", "properties": { "RegionName": "Aquitaine", "DeptName": "Gironde", "CityName": "Andernos-les-Bains", "Population": 11575 }, "geometry": { "type": "Point", "coordinates": [ -1.102449, 44.743536 ] } },
{ "type": "Feature", "properties": { "RegionName": "Aquitaine", "DeptName": "Gironde", "CityName": "Arcachon", "Population": 10476 }, "geometry": { "type": "Point", "coordinates": [ -1.1785016, 44.652297 ] } },
{ "type": "Feature", "properties": { "RegionName": "Aquitaine", "DeptName": "Gironde", "CityName": "Blanquefort", "Population": 15297 }, "geometry": { "type": "Point", "coordinates": [ -0.635244, 44.910084 ] } },
{ "type": "Feature", "properties": { "RegionName": "Aquitaine", "DeptName": "Gironde", "CityName": "Bordeaux", "Population": 243626 }, "geometry": { "type": "Point", "coordinates": [ -0.57918, 44.837789 ] } },
{ "type": "Feature", "properties": { "RegionName": "Aquitaine", "DeptName": "Gironde", "CityName": "Bruges", "Population": 16954 }, "geometry": { "type": "Point", "coordinates": [ -0.612747, 44.881793 ] } },
{ "type": "Feature", "properties": { "RegionName": "Aquitaine", "DeptName": "Gironde", "CityName": "Bègles", "Population": 26104 }, "geometry": { "type": "Point", "coordinates": [ -0.543784, 44.812023 ] } },
{ "type": "Feature", "properties": { "RegionName": "Aquitaine", "DeptName": "Gironde", "CityName": "Cenon", "Population": 22882 }, "geometry": { "type": "Point", "coordinates": [ -0.530906, 44.857738 ] } },
{ "type": "Feature", "properties": { "RegionName": "Aquitaine", "DeptName": "Gironde", "CityName": "Cestas", "Population": 16438 }, "geometry": { "type": "Point", "coordinates": [ -0.684355, 44.741163 ] } },
{ "type": "Feature", "properties": { "RegionName": "Aquitaine", "DeptName": "Gironde", "CityName": "Eysines", "Population": 21762 }, "geometry": { "type": "Point", "coordinates": [ -0.648815, 44.885793 ] } },
{ "type": "Feature", "properties": { "RegionName": "Aquitaine", "DeptName": "Gironde", "CityName": "Floirac", "Population": 16531 }, "geometry": { "type": "Point", "coordinates": [ -0.527552, 44.8305549 ] } },
{ "type": "Feature", "properties": { "RegionName": "Aquitaine", "DeptName": "Gironde", "CityName": "Gradignan", "Population": 24439 }, "geometry": { "type": "Point", "coordinates": [ -0.618945, 44.774267 ] } },
{ "type": "Feature", "properties": { "RegionName": "Aquitaine", "DeptName": "Gironde", "CityName": "Gujan-Mestras", "Population": 20294 }, "geometry": { "type": "Point", "coordinates": [ -1.071189, 44.635731 ] } },
{ "type": "Feature", "properties": { "RegionName": "Aquitaine", "DeptName": "Gironde", "CityName": "La Teste-de-Buch", "Population": 25587 }, "geometry": { "type": "Point", "coordinates": [ -1.148224, 44.631077 ] } },
{ "type": "Feature", "properties": { "RegionName": "Aquitaine", "DeptName": "Gironde", "CityName": "Le Bouscat", "Population": 23207 }, "geometry": { "type": "Point", "coordinates": [ -0.59944, 44.865164 ] } },
{ "type": "Feature", "properties": { "RegionName": "Aquitaine", "DeptName": "Gironde", "CityName": "Libourne", "Population": 23947 }, "geometry": { "type": "Point", "coordinates": [ -0.243985, 44.912998 ] } },
{ "type": "Feature", "properties": { "RegionName": "Aquitaine", "DeptName": "Gironde", "CityName": "Lormont", "Population": 20770 }, "geometry": { "type": "Point", "coordinates": [ -0.523108, 44.880163 ] } },
{ "type": "Feature", "properties": { "RegionName": "Aquitaine", "DeptName": "Gironde", "CityName": "Mérignac", "Population": 68386 }, "geometry": { "type": "Point", "coordinates": [ -0.656358, 44.8448769 ] } },
{ "type": "Feature", "properties": { "RegionName": "Aquitaine", "DeptName": "Gironde", "CityName": "Pessac", "Population": 60763 }, "geometry": { "type": "Point", "coordinates": [ -0.630386, 44.80583 ] } },
{ "type": "Feature", "properties": { "RegionName": "Aquitaine", "DeptName": "Gironde", "CityName": "Saint-André-de-Cubzac", "Population": 10495 }, "geometry": { "type": "Point", "coordinates": [ -0.445865, 44.99456 ] } },
{ "type": "Feature", "properties": { "RegionName": "Aquitaine", "DeptName": "Gironde", "CityName": "Saint-Médard-en-Jalles", "Population": 29178 }, "geometry": { "type": "Point", "coordinates": [ -0.7181, 44.895295 ] } },
{ "type": "Feature", "properties": { "RegionName": "Aquitaine", "DeptName": "Gironde", "CityName": "Talence", "Population": 41517 }, "geometry": { "type": "Point", "coordinates": [ -0.588054, 44.802614 ] } },
{ "type": "Feature", "properties": { "RegionName": "Aquitaine", "DeptName": "Gironde", "CityName": "Villenave-d'Ornon", "Population": 30663 }, "geometry": { "type": "Point", "coordinates": [ -0.5672574, 44.7799813 ] } }
]
}
