{
"type": "FeatureCollection",
"crs": { "type": "name", "properties": { "name": "urn:ogc:def:crs:OGC:1.3:CRS84" } },
                                                                                
"features": [
{ "type": "Feature", "properties": { "RegionName": "Aquitaine", "DeptName": "Pyrénées-Atlantiques", "CityName": "Anglet", "Population": 39184 }, "geometry": { "type": "Point", "coordinates": [ -1.514699, 43.481402 ] } },
{ "type": "Feature", "properties": { "RegionName": "Aquitaine", "DeptName": "Pyrénées-Atlantiques", "CityName": "Bayonne", "Population": 47492 }, "geometry": { "type": "Point", "coordinates": [ -1.474841, 43.492949 ] } },
{ "type": "Feature", "properties": { "RegionName": "Aquitaine", "DeptName": "Pyrénées-Atlantiques", "CityName": "Biarritz", "Population": 24993 }, "geometry": { "type": "Point", "coordinates": [ -1.558626, 43.4831519 ] } },
{ "type": "Feature", "properties": { "RegionName": "Aquitaine", "DeptName": "Pyrénées-Atlantiques", "CityName": "Billère", "Population": 13479 }, "geometry": { "type": "Point", "coordinates": [ -0.39742, 43.302207 ] } },
{ "type": "Feature", "properties": { "RegionName": "Aquitaine", "DeptName": "Pyrénées-Atlantiques", "CityName": "Hendaye", "Population": 16887 }, "geometry": { "type": "Point", "coordinates": [ -1.766148, 43.359399 ] } },
{ "type": "Feature", "properties": { "RegionName": "Aquitaine", "DeptName": "Pyrénées-Atlantiques", "CityName": "Lescar", "Population": 9993 }, "geometry": { "type": "Point", "coordinates": [ -0.434402, 43.333177 ] } },
{ "type": "Feature", "properties": { "RegionName": "Aquitaine", "DeptName": "Pyrénées-Atlantiques", "CityName": "Lons", "Population": 12106 }, "geometry": { "type": "Point", "coordinates": [ -0.411051, 43.315739 ] } },
{ "type": "Feature", "properties": { "RegionName": "Aquitaine", "DeptName": "Pyrénées-Atlantiques", "CityName": "Oloron-Sainte-Marie", "Population": 10794 }, "geometry": { "type": "Point", "coordinates": [ -0.605292, 43.194413 ] } },
{ "type": "Feature", "properties": { "RegionName": "Aquitaine", "DeptName": "Pyrénées-Atlantiques", "CityName": "Orthez", "Population": 10569 }, "geometry": { "type": "Point", "coordinates": [ -0.7739279, 43.48756 ] } },
{ "type": "Feature", "properties": { "RegionName": "Aquitaine", "DeptName": "Pyrénées-Atlantiques", "CityName": "Pau", "Population": 77575 }, "geometry": { "type": "Point", "coordinates": [ -0.370797, 43.2951 ] } },
{ "type": "Feature", "properties": { "RegionName": "Aquitaine", "DeptName": "Pyrénées-Atlantiques", "CityName": "Saint-Jean-de-Luz", "Population": 12967 }, "geometry": { "type": "Point", "coordinates": [ -1.663055, 43.388051 ] } }
]
}
