{
"type": "FeatureCollection",
"crs": { "type": "name", "properties": { "name": "urn:ogc:def:crs:OGC:1.3:CRS84" } },
                                                                                
"features": [
{ "type": "Feature", "properties": { "RegionName": "Auvergne", "DeptName": "Allier", "CityName": "Châtillon", "Population": 35964 }, "geometry": { "type": "Point", "coordinates": [ 3.131439, 46.471854 ] } },
{ "type": "Feature", "properties": { "RegionName": "Auvergne", "DeptName": "Allier", "CityName": "Cusset", "Population": 13545 }, "geometry": { "type": "Point", "coordinates": [ 3.4565, 46.131962 ] } },
{ "type": "Feature", "properties": { "RegionName": "Auvergne", "DeptName": "Allier", "CityName": "Montluçon", "Population": 37839 }, "geometry": { "type": "Point", "coordinates": [ 2.6019912, 46.3415466 ] } },
{ "type": "Feature", "properties": { "RegionName": "Auvergne", "DeptName": "Allier", "CityName": "Moulins", "Population": 19474 }, "geometry": { "type": "Point", "coordinates": [ 3.334417, 46.568059 ] } },
{ "type": "Feature", "properties": { "RegionName": "Auvergne", "DeptName": "Allier", "CityName": "Vichy", "Population": 25325 }, "geometry": { "type": "Point", "coordinates": [ 3.425488, 46.131859 ] } },
{ "type": "Feature", "properties": { "RegionName": "Auvergne", "DeptName": "Allier", "CityName": "Yzeure", "Population": 12905 }, "geometry": { "type": "Point", "coordinates": [ 3.354775, 46.566314 ] } }
]
}
