{
"type": "FeatureCollection",
"crs": { "type": "name", "properties": { "name": "urn:ogc:def:crs:OGC:1.3:CRS84" } },
                                                                                
"features": [
{ "type": "Feature", "properties": { "RegionName": "Champagne-Ardenne", "DeptName": "Marne", "CityName": "Châlons-en-Champagne", "Population": 44899 }, "geometry": { "type": "Point", "coordinates": [ 4.363073, 48.956682 ] } },
{ "type": "Feature", "properties": { "RegionName": "Champagne-Ardenne", "DeptName": "Marne", "CityName": "Reims", "Population": 182592 }, "geometry": { "type": "Point", "coordinates": [ 4.031696, 49.258329 ] } },
{ "type": "Feature", "properties": { "RegionName": "Champagne-Ardenne", "DeptName": "Marne", "CityName": "Tinqueux", "Population": 10023 }, "geometry": { "type": "Point", "coordinates": [ 3.999442, 49.247224 ] } },
{ "type": "Feature", "properties": { "RegionName": "Champagne-Ardenne", "DeptName": "Marne", "CityName": "Vitry-le-François", "Population": 13174 }, "geometry": { "type": "Point", "coordinates": [ 4.585745, 48.726087 ] } },
{ "type": "Feature", "properties": { "RegionName": "Champagne-Ardenne", "DeptName": "Marne", "CityName": "Épernay", "Population": 23413 }, "geometry": { "type": "Point", "coordinates": [ 3.956242, 49.043411 ] } }
]
}
