{
"type": "FeatureCollection",
"crs": { "type": "name", "properties": { "name": "urn:ogc:def:crs:OGC:1.3:CRS84" } },
                                                                                
"features": [
{ "type": "Feature", "properties": { "RegionName": "Île-de-France", "DeptName": "Hauts-de-Seine", "CityName": "Antony", "Population": 61727 }, "geometry": { "type": "Point", "coordinates": [ 2.302553, 48.759255 ] } },
{ "type": "Feature", "properties": { "RegionName": "Île-de-France", "DeptName": "Hauts-de-Seine", "CityName": "Asnières-sur-Seine", "Population": 86020 }, "geometry": { "type": "Point", "coordinates": [ 2.285369, 48.914155 ] } },
{ "type": "Feature", "properties": { "RegionName": "Île-de-France", "DeptName": "Hauts-de-Seine", "CityName": "Bagneux", "Population": 38520 }, "geometry": { "type": "Point", "coordinates": [ 2.31002, 48.796696 ] } },
{ "type": "Feature", "properties": { "RegionName": "Île-de-France", "DeptName": "Hauts-de-Seine", "CityName": "Bois-Colombes", "Population": 28561 }, "geometry": { "type": "Point", "coordinates": [ 2.269675, 48.917402 ] } },
{ "type": "Feature", "properties": { "RegionName": "Île-de-France", "DeptName": "Hauts-de-Seine", "CityName": "Boulogne-Billancourt", "Population": 116794 }, "geometry": { "type": "Point", "coordinates": [ 2.2399123, 48.8396952 ] } },
{ "type": "Feature", "properties": { "RegionName": "Île-de-France", "DeptName": "Hauts-de-Seine", "CityName": "Bourg-la-Reine", "Population": 19712 }, "geometry": { "type": "Point", "coordinates": [ 2.316374, 48.780454 ] } },
{ "type": "Feature", "properties": { "RegionName": "Île-de-France", "DeptName": "Hauts-de-Seine", "CityName": "Chaville", "Population": 19717 }, "geometry": { "type": "Point", "coordinates": [ 2.192418, 48.808026 ] } },
{ "type": "Feature", "properties": { "RegionName": "Île-de-France", "DeptName": "Hauts-de-Seine", "CityName": "Châtenay-Malabry", "Population": 32623 }, "geometry": { "type": "Point", "coordinates": [ 2.270748, 48.771896 ] } },
{ "type": "Feature", "properties": { "RegionName": "Île-de-France", "DeptName": "Hauts-de-Seine", "CityName": "Clamart", "Population": 52203 }, "geometry": { "type": "Point", "coordinates": [ 2.257289, 48.799815 ] } },
{ "type": "Feature", "properties": { "RegionName": "Île-de-France", "DeptName": "Hauts-de-Seine", "CityName": "Clichy", "Population": 59255 }, "geometry": { "type": "Point", "coordinates": [ 2.304768, 48.904526 ] } },
{ "type": "Feature", "properties": { "RegionName": "Île-de-France", "DeptName": "Hauts-de-Seine", "CityName": "Colombes", "Population": 84577 }, "geometry": { "type": "Point", "coordinates": [ 2.2533313, 48.9220615 ] } },
{ "type": "Feature", "properties": { "RegionName": "Île-de-France", "DeptName": "Hauts-de-Seine", "CityName": "Courbevoie", "Population": 85523 }, "geometry": { "type": "Point", "coordinates": [ 2.25929, 48.900552 ] } },
{ "type": "Feature", "properties": { "RegionName": "Île-de-France", "DeptName": "Hauts-de-Seine", "CityName": "Fontenay-aux-Roses", "Population": 22378 }, "geometry": { "type": "Point", "coordinates": [ 2.287181, 48.789776 ] } },
{ "type": "Feature", "properties": { "RegionName": "Île-de-France", "DeptName": "Hauts-de-Seine", "CityName": "Garches", "Population": 17769 }, "geometry": { "type": "Point", "coordinates": [ 2.188703, 48.846066 ] } },
{ "type": "Feature", "properties": { "RegionName": "Île-de-France", "DeptName": "Hauts-de-Seine", "CityName": "Gennevilliers", "Population": 43219 }, "geometry": { "type": "Point", "coordinates": [ 2.293275, 48.925525 ] } },
{ "type": "Feature", "properties": { "RegionName": "Île-de-France", "DeptName": "Hauts-de-Seine", "CityName": "Issy-les-Moulineaux", "Population": 65662 }, "geometry": { "type": "Point", "coordinates": [ 2.2743419, 48.8245306 ] } },
{ "type": "Feature", "properties": { "RegionName": "Île-de-France", "DeptName": "Hauts-de-Seine", "CityName": "La Garenne-Colombes", "Population": 28498 }, "geometry": { "type": "Point", "coordinates": [ 2.244085, 48.906535 ] } },
{ "type": "Feature", "properties": { "RegionName": "Île-de-France", "DeptName": "Hauts-de-Seine", "CityName": "Le Plessis-Robinson", "Population": 28500 }, "geometry": { "type": "Point", "coordinates": [ 2.266257, 48.780426 ] } },
{ "type": "Feature", "properties": { "RegionName": "Île-de-France", "DeptName": "Hauts-de-Seine", "CityName": "Levallois-Perret", "Population": 65264 }, "geometry": { "type": "Point", "coordinates": [ 2.287864, 48.893217 ] } },
{ "type": "Feature", "properties": { "RegionName": "Île-de-France", "DeptName": "Hauts-de-Seine", "CityName": "Malakoff", "Population": 30304 }, "geometry": { "type": "Point", "coordinates": [ 2.2977599, 48.817275 ] } },
{ "type": "Feature", "properties": { "RegionName": "Île-de-France", "DeptName": "Hauts-de-Seine", "CityName": "Meudon", "Population": 45043 }, "geometry": { "type": "Point", "coordinates": [ 2.23847, 48.812995 ] } },
{ "type": "Feature", "properties": { "RegionName": "Île-de-France", "DeptName": "Hauts-de-Seine", "CityName": "Montrouge", "Population": 49656 }, "geometry": { "type": "Point", "coordinates": [ 2.317384, 48.816363 ] } },
{ "type": "Feature", "properties": { "RegionName": "Île-de-France", "DeptName": "Hauts-de-Seine", "CityName": "Nanterre", "Population": 92227 }, "geometry": { "type": "Point", "coordinates": [ 2.215331, 48.892423 ] } },
{ "type": "Feature", "properties": { "RegionName": "Île-de-France", "DeptName": "Hauts-de-Seine", "CityName": "Neuilly-sur-Seine", "Population": 62346 }, "geometry": { "type": "Point", "coordinates": [ 2.26851, 48.884831 ] } },
{ "type": "Feature", "properties": { "RegionName": "Île-de-France", "DeptName": "Hauts-de-Seine", "CityName": "Puteaux", "Population": 43891 }, "geometry": { "type": "Point", "coordinates": [ 2.23964, 48.884748 ] } },
{ "type": "Feature", "properties": { "RegionName": "Île-de-France", "DeptName": "Hauts-de-Seine", "CityName": "Rueil-Malmaison", "Population": 79762 }, "geometry": { "type": "Point", "coordinates": [ 2.17693, 48.882767 ] } },
{ "type": "Feature", "properties": { "RegionName": "Île-de-France", "DeptName": "Hauts-de-Seine", "CityName": "Saint-Cloud", "Population": 29109 }, "geometry": { "type": "Point", "coordinates": [ 2.208115, 48.847647 ] } },
{ "type": "Feature", "properties": { "RegionName": "Île-de-France", "DeptName": "Hauts-de-Seine", "CityName": "Sceaux", "Population": 19718 }, "geometry": { "type": "Point", "coordinates": [ 2.295092, 48.778016 ] } },
{ "type": "Feature", "properties": { "RegionName": "Île-de-France", "DeptName": "Hauts-de-Seine", "CityName": "Suresnes", "Population": 48066 }, "geometry": { "type": "Point", "coordinates": [ 2.219033, 48.869798 ] } },
{ "type": "Feature", "properties": { "RegionName": "Île-de-France", "DeptName": "Hauts-de-Seine", "CityName": "Sèvres", "Population": 23404 }, "geometry": { "type": "Point", "coordinates": [ 2.2109771, 48.8212407 ] } },
{ "type": "Feature", "properties": { "RegionName": "Île-de-France", "DeptName": "Hauts-de-Seine", "CityName": "Vanves", "Population": 28170 }, "geometry": { "type": "Point", "coordinates": [ 2.288405, 48.822484 ] } },
{ "type": "Feature", "properties": { "RegionName": "Île-de-France", "DeptName": "Hauts-de-Seine", "CityName": "Ville-d'Avray", "Population": 11266 }, "geometry": { "type": "Point", "coordinates": [ 2.1886944, 48.8270042 ] } },
{ "type": "Feature", "properties": { "RegionName": "Île-de-France", "DeptName": "Hauts-de-Seine", "CityName": "Villeneuve-la-Garenne", "Population": 25466 }, "geometry": { "type": "Point", "coordinates": [ 2.324789, 48.936616 ] } }
]
}
