{
"type": "FeatureCollection",
"crs": { "type": "name", "properties": { "name": "urn:ogc:def:crs:OGC:1.3:CRS84" } },
                                                                                
"features": [
{ "type": "Feature", "properties": { "RegionName": "Île-de-France", "DeptName": "Seine-et-Marne", "CityName": "Avon", "Population": 13761 }, "geometry": { "type": "Point", "coordinates": [ 2.720733, 48.404839 ] } },
{ "type": "Feature", "properties": { "RegionName": "Île-de-France", "DeptName": "Seine-et-Marne", "CityName": "Brie-Comte-Robert", "Population": 16529 }, "geometry": { "type": "Point", "coordinates": [ 2.6103697, 48.6912267 ] } },
{ "type": "Feature", "properties": { "RegionName": "Île-de-France", "DeptName": "Seine-et-Marne", "CityName": "Bussy-Saint-Georges", "Population": 25419 }, "geometry": { "type": "Point", "coordinates": [ 2.69802, 48.842205 ] } },
{ "type": "Feature", "properties": { "RegionName": "Île-de-France", "DeptName": "Seine-et-Marne", "CityName": "Champs-sur-Marne", "Population": 24913 }, "geometry": { "type": "Point", "coordinates": [ 2.602651, 48.852775 ] } },
{ "type": "Feature", "properties": { "RegionName": "Île-de-France", "DeptName": "Seine-et-Marne", "CityName": "Chelles", "Population": 53569 }, "geometry": { "type": "Point", "coordinates": [ 2.59016, 48.877535 ] } },
{ "type": "Feature", "properties": { "RegionName": "Île-de-France", "DeptName": "Seine-et-Marne", "CityName": "Claye-Souilly", "Population": 11599 }, "geometry": { "type": "Point", "coordinates": [ 2.68836, 48.945849 ] } },
{ "type": "Feature", "properties": { "RegionName": "Île-de-France", "DeptName": "Seine-et-Marne", "CityName": "Combs-la-Ville", "Population": 22086 }, "geometry": { "type": "Point", "coordinates": [ 2.55769, 48.66602 ] } },
{ "type": "Feature", "properties": { "RegionName": "Île-de-France", "DeptName": "Seine-et-Marne", "CityName": "Coulommiers", "Population": 14725 }, "geometry": { "type": "Point", "coordinates": [ 3.083497, 48.813071 ] } },
{ "type": "Feature", "properties": { "RegionName": "Île-de-France", "DeptName": "Seine-et-Marne", "CityName": "Dammarie-les-Lys", "Population": 21094 }, "geometry": { "type": "Point", "coordinates": [ 2.634831, 48.515451 ] } },
{ "type": "Feature", "properties": { "RegionName": "Île-de-France", "DeptName": "Seine-et-Marne", "CityName": "Fontainebleau", "Population": 14839 }, "geometry": { "type": "Point", "coordinates": [ 2.70162, 48.404676 ] } },
{ "type": "Feature", "properties": { "RegionName": "Île-de-France", "DeptName": "Seine-et-Marne", "CityName": "Lagny-sur-Marne", "Population": 20718 }, "geometry": { "type": "Point", "coordinates": [ 2.713016, 48.87296 ] } },
{ "type": "Feature", "properties": { "RegionName": "Île-de-France", "DeptName": "Seine-et-Marne", "CityName": "Le Mée-sur-Seine", "Population": 20713 }, "geometry": { "type": "Point", "coordinates": [ 2.632122, 48.534031 ] } },
{ "type": "Feature", "properties": { "RegionName": "Île-de-France", "DeptName": "Seine-et-Marne", "CityName": "Lieusaint", "Population": 11033 }, "geometry": { "type": "Point", "coordinates": [ 2.551107, 48.631195 ] } },
{ "type": "Feature", "properties": { "RegionName": "Île-de-France", "DeptName": "Seine-et-Marne", "CityName": "Lognes", "Population": 14021 }, "geometry": { "type": "Point", "coordinates": [ 2.6327379, 48.836571 ] } },
{ "type": "Feature", "properties": { "RegionName": "Île-de-France", "DeptName": "Seine-et-Marne", "CityName": "Meaux", "Population": 53766 }, "geometry": { "type": "Point", "coordinates": [ 2.8884657, 48.9562018 ] } },
{ "type": "Feature", "properties": { "RegionName": "Île-de-France", "DeptName": "Seine-et-Marne", "CityName": "Melun", "Population": 40066 }, "geometry": { "type": "Point", "coordinates": [ 2.6554, 48.542105 ] } },
{ "type": "Feature", "properties": { "RegionName": "Île-de-France", "DeptName": "Seine-et-Marne", "CityName": "Mitry-Mory", "Population": 19267 }, "geometry": { "type": "Point", "coordinates": [ 2.619156, 48.98543 ] } },
{ "type": "Feature", "properties": { "RegionName": "Île-de-France", "DeptName": "Seine-et-Marne", "CityName": "Moissy-Cramayel", "Population": 17500 }, "geometry": { "type": "Point", "coordinates": [ 2.593706, 48.627158 ] } },
{ "type": "Feature", "properties": { "RegionName": "Île-de-France", "DeptName": "Seine-et-Marne", "CityName": "Montereau-Fault-Yonne", "Population": 17173 }, "geometry": { "type": "Point", "coordinates": [ 2.956193, 48.384734 ] } },
{ "type": "Feature", "properties": { "RegionName": "Île-de-France", "DeptName": "Seine-et-Marne", "CityName": "Nemours", "Population": 12824 }, "geometry": { "type": "Point", "coordinates": [ 2.692611, 48.267043 ] } },
{ "type": "Feature", "properties": { "RegionName": "Île-de-France", "DeptName": "Seine-et-Marne", "CityName": "Noisiel", "Population": 15638 }, "geometry": { "type": "Point", "coordinates": [ 2.628701, 48.85478 ] } },
{ "type": "Feature", "properties": { "RegionName": "Île-de-France", "DeptName": "Seine-et-Marne", "CityName": "Ozoir-la-Ferrière", "Population": 19917 }, "geometry": { "type": "Point", "coordinates": [ 2.671739, 48.763827 ] } },
{ "type": "Feature", "properties": { "RegionName": "Île-de-France", "DeptName": "Seine-et-Marne", "CityName": "Pontault-Combault", "Population": 37847 }, "geometry": { "type": "Point", "coordinates": [ 2.607598, 48.801255 ] } },
{ "type": "Feature", "properties": { "RegionName": "Île-de-France", "DeptName": "Seine-et-Marne", "CityName": "Provins", "Population": 11940 }, "geometry": { "type": "Point", "coordinates": [ 3.299203, 48.560149 ] } },
{ "type": "Feature", "properties": { "RegionName": "Île-de-France", "DeptName": "Seine-et-Marne", "CityName": "Roissy-en-Brie", "Population": 22559 }, "geometry": { "type": "Point", "coordinates": [ 2.656802, 48.7904005 ] } },
{ "type": "Feature", "properties": { "RegionName": "Île-de-France", "DeptName": "Seine-et-Marne", "CityName": "Saint-Fargeau-Ponthierry", "Population": 13497 }, "geometry": { "type": "Point", "coordinates": [ 2.5242532, 48.5361561 ] } },
{ "type": "Feature", "properties": { "RegionName": "Île-de-France", "DeptName": "Seine-et-Marne", "CityName": "Savigny-le-Temple", "Population": 30068 }, "geometry": { "type": "Point", "coordinates": [ 2.580987, 48.59586 ] } },
{ "type": "Feature", "properties": { "RegionName": "Île-de-France", "DeptName": "Seine-et-Marne", "CityName": "Torcy", "Population": 23669 }, "geometry": { "type": "Point", "coordinates": [ 2.654472, 48.850572 ] } },
{ "type": "Feature", "properties": { "RegionName": "Île-de-France", "DeptName": "Seine-et-Marne", "CityName": "Vaires-sur-Marne", "Population": 13200 }, "geometry": { "type": "Point", "coordinates": [ 2.639543, 48.873609 ] } },
{ "type": "Feature", "properties": { "RegionName": "Île-de-France", "DeptName": "Seine-et-Marne", "CityName": "Vaux-le-Pénil", "Population": 10764 }, "geometry": { "type": "Point", "coordinates": [ 2.68411, 48.525439 ] } },
{ "type": "Feature", "properties": { "RegionName": "Île-de-France", "DeptName": "Seine-et-Marne", "CityName": "Villeparisis", "Population": 25889 }, "geometry": { "type": "Point", "coordinates": [ 2.614385, 48.938315 ] } }
]
}
