{
"type": "FeatureCollection",
"crs": { "type": "name", "properties": { "name": "urn:ogc:def:crs:OGC:1.3:CRS84" } },
                                                                                
"features": [
{ "type": "Feature", "properties": { "RegionName": "Provence-Alpes-Côte d'Azur", "DeptName": "Alpes-Maritimes", "CityName": "Antibes", "Population": 75456 }, "geometry": { "type": "Point", "coordinates": [ 7.125102, 43.580418 ] } },
{ "type": "Feature", "properties": { "RegionName": "Provence-Alpes-Côte d'Azur", "DeptName": "Alpes-Maritimes", "CityName": "Beausoleil", "Population": 13279 }, "geometry": { "type": "Point", "coordinates": [ 7.423019, 43.741767 ] } },
{ "type": "Feature", "properties": { "RegionName": "Provence-Alpes-Côte d'Azur", "DeptName": "Alpes-Maritimes", "CityName": "Biot", "Population": 10015 }, "geometry": { "type": "Point", "coordinates": [ 7.09808, 43.626851 ] } },
{ "type": "Feature", "properties": { "RegionName": "Provence-Alpes-Côte d'Azur", "DeptName": "Alpes-Maritimes", "CityName": "Cagnes-sur-Mer", "Population": 46940 }, "geometry": { "type": "Point", "coordinates": [ 7.14882, 43.663739 ] } },
{ "type": "Feature", "properties": { "RegionName": "Provence-Alpes-Côte d'Azur", "DeptName": "Alpes-Maritimes", "CityName": "Cannes", "Population": 73325 }, "geometry": { "type": "Point", "coordinates": [ 7.017369, 43.552847 ] } },
{ "type": "Feature", "properties": { "RegionName": "Provence-Alpes-Côte d'Azur", "DeptName": "Alpes-Maritimes", "CityName": "Carros", "Population": 11756 }, "geometry": { "type": "Point", "coordinates": [ 7.18712, 43.792389 ] } },
{ "type": "Feature", "properties": { "RegionName": "Provence-Alpes-Côte d'Azur", "DeptName": "Alpes-Maritimes", "CityName": "Grasse", "Population": 50916 }, "geometry": { "type": "Point", "coordinates": [ 6.926492, 43.660153 ] } },
{ "type": "Feature", "properties": { "RegionName": "Provence-Alpes-Côte d'Azur", "DeptName": "Alpes-Maritimes", "CityName": "La Trinité", "Population": 10232 }, "geometry": { "type": "Point", "coordinates": [ 7.313963, 43.742043 ] } },
{ "type": "Feature", "properties": { "RegionName": "Provence-Alpes-Côte d'Azur", "DeptName": "Alpes-Maritimes", "CityName": "Le Cannet", "Population": 43187 }, "geometry": { "type": "Point", "coordinates": [ 7.01902, 43.576551 ] } },
{ "type": "Feature", "properties": { "RegionName": "Provence-Alpes-Côte d'Azur", "DeptName": "Alpes-Maritimes", "CityName": "Mandelieu-la-Napoule", "Population": 22864 }, "geometry": { "type": "Point", "coordinates": [ 6.938309, 43.546232 ] } },
{ "type": "Feature", "properties": { "RegionName": "Provence-Alpes-Côte d'Azur", "DeptName": "Alpes-Maritimes", "CityName": "Menton", "Population": 28100 }, "geometry": { "type": "Point", "coordinates": [ 7.49754, 43.774481 ] } },
{ "type": "Feature", "properties": { "RegionName": "Provence-Alpes-Côte d'Azur", "DeptName": "Alpes-Maritimes", "CityName": "Mougins", "Population": 18302 }, "geometry": { "type": "Point", "coordinates": [ 7.006491, 43.6023319 ] } },
{ "type": "Feature", "properties": { "RegionName": "Provence-Alpes-Côte d'Azur", "DeptName": "Alpes-Maritimes", "CityName": "Nice", "Population": 342295 }, "geometry": { "type": "Point", "coordinates": [ 7.2619532, 43.7101728 ] } },
{ "type": "Feature", "properties": { "RegionName": "Provence-Alpes-Côte d'Azur", "DeptName": "Alpes-Maritimes", "CityName": "Roquebrune-Cap-Martin", "Population": 12646 }, "geometry": { "type": "Point", "coordinates": [ 7.473754, 43.757808 ] } },
{ "type": "Feature", "properties": { "RegionName": "Provence-Alpes-Côte d'Azur", "DeptName": "Alpes-Maritimes", "CityName": "Saint-Laurent-du-Var", "Population": 28891 }, "geometry": { "type": "Point", "coordinates": [ 7.189811, 43.673417 ] } },
{ "type": "Feature", "properties": { "RegionName": "Provence-Alpes-Côte d'Azur", "DeptName": "Alpes-Maritimes", "CityName": "Valbonne", "Population": 13092 }, "geometry": { "type": "Point", "coordinates": [ 7.009186, 43.64152 ] } },
{ "type": "Feature", "properties": { "RegionName": "Provence-Alpes-Côte d'Azur", "DeptName": "Alpes-Maritimes", "CityName": "Vallauris", "Population": 26465 }, "geometry": { "type": "Point", "coordinates": [ 7.055041, 43.577244 ] } },
{ "type": "Feature", "properties": { "RegionName": "Provence-Alpes-Côte d'Azur", "DeptName": "Alpes-Maritimes", "CityName": "Vence", "Population": 19052 }, "geometry": { "type": "Point", "coordinates": [ 7.1117033, 43.7223216 ] } },
{ "type": "Feature", "properties": { "RegionName": "Provence-Alpes-Côte d'Azur", "DeptName": "Alpes-Maritimes", "CityName": "Villeneuve-Loubet", "Population": 14346 }, "geometry": { "type": "Point", "coordinates": [ 7.122337, 43.6578919 ] } }
]
}
