{
   "type": "FeatureCollection",
   "features": [
  {
    "type": "Feature",
    "geometry": {
       "type": "Point",
       "coordinates":  [ -5.6898468,40.2540625 ]
    },
    "properties": {
    "RegionName":"Extremadura",
    "DeptName":"Cáceres",
    "Admin3Name":"Valle del Jerte",
    "CityName":"Tornavacas",
    "Population":1144
    }
  },
  {
    "type": "Feature",
    "geometry": {
       "type": "Point",
       "coordinates":  [ -5.7444638,39.5681426 ]
    },
    "properties": {
    "RegionName":"Extremadura",
    "DeptName":"Cáceres",
    "Admin3Name":"Tierra de Trujillo",
    "CityName":"Torrecillas de la Tiesa",
    "Population":1134
    }
  },
  {
    "type": "Feature",
    "geometry": {
       "type": "Point",
       "coordinates":  [ -6.470117,39.8984744 ]
    },
    "properties": {
    "RegionName":"Extremadura",
    "DeptName":"Cáceres",
    "Admin3Name":"Vegas del Alagón",
    "CityName":"Torrejoncillo",
    "Population":3184
    }
  },
  {
    "type": "Feature",
    "geometry": {
       "type": "Point",
       "coordinates":  [ -6.2495425,39.3822211 ]
    },
    "properties": {
    "RegionName":"Extremadura",
    "DeptName":"Cáceres",
    "Admin3Name":"Montánchez",
    "CityName":"Torreorgaz",
    "Population":1695
    }
  },
  {
    "type": "Feature",
    "geometry": {
       "type": "Point",
       "coordinates":  [ -5.880235700000001,39.45953799999999 ]
    },
    "properties": {
    "RegionName":"Extremadura",
    "DeptName":"Cáceres",
    "Admin3Name":"Tierra de Trujillo",
    "CityName":"Trujillo",
    "Population":9510
    }
  },
  {
    "type": "Feature",
    "geometry": {
       "type": "Point",
       "coordinates":  [ -6.1248675,39.2751401 ]
    },
    "properties": {
    "RegionName":"Extremadura",
    "DeptName":"Cáceres",
    "Admin3Name":"Montánchez",
    "CityName":"Valdefuentes",
    "Population":1293
    }
  },
  {
    "type": "Feature",
    "geometry": {
       "type": "Point",
       "coordinates":  [ -7.242901400000001,39.41250429999999 ]
    },
    "properties": {
    "RegionName":"Extremadura",
    "DeptName":"Cáceres",
    "Admin3Name":"Sierra de San Pedro",
    "CityName":"Valencia de Alcántara",
    "Population":5699
    }
  },
  {
    "type": "Feature",
    "geometry": {
       "type": "Point",
       "coordinates":  [ -6.8793335,40.2206497 ]
    },
    "properties": {
    "RegionName":"Extremadura",
    "DeptName":"Cáceres",
    "Admin3Name":"Sierra de Gata",
    "CityName":"Valverde del Fresno",
    "Population":2422
    }
  },
  {
    "type": "Feature",
    "geometry": {
       "type": "Point",
       "coordinates":  [ -5.4627097,40.1298542 ]
    },
    "properties": {
    "RegionName":"Extremadura",
    "DeptName":"Cáceres",
    "Admin3Name":"La Vera",
    "CityName":"Villanueva de la Vera",
    "Population":2122
    }
  },
  {
    "type": "Feature",
    "geometry": {
       "type": "Point",
       "coordinates":  [ -6.0475102,40.2369411 ]
    },
    "properties": {
    "RegionName":"Extremadura",
    "DeptName":"Cáceres",
    "Admin3Name":"Tierras de Granadilla",
    "CityName":"Zarza de Granadilla",
    "Population":1843
    }
  },
  {
    "type": "Feature",
    "geometry": {
       "type": "Point",
       "coordinates":  [ -6.863245099999999,39.8771013 ]
    },
    "properties": {
    "RegionName":"Extremadura",
    "DeptName":"Cáceres",
    "Admin3Name":"Vegas del Alagón",
    "CityName":"Zarza la Mayor",
    "Population":1359
    }
  },
  {
    "type": "Feature",
    "geometry": {
       "type": "Point",
       "coordinates":  [ -5.6997136,39.28636849999999 ]
    },
    "properties": {
    "RegionName":"Extremadura",
    "DeptName":"Cáceres",
    "Admin3Name":"Miajadas",
    "CityName":"Zorita",
    "Population":1502
    }
  },
  {
    "type": "Feature",
    "geometry": {
       "type": "Point",
       "coordinates":  [ -5.4581235,39.99525879999999 ]
    },
    "properties": {
    "RegionName":"Extremadura",
    "DeptName":"Cáceres",
    "Admin3Name":"Aranuelo",
    "CityName":"Rosalejo",
    "Population":1495
    }
  },
  {
    "type": "Feature",
    "geometry": {
       "type": "Point",
       "coordinates":  [ -5.7245344,36.4617479 ]
    },
    "properties": {
    "RegionName":"Andalucía",
    "DeptName":"Cádiz",
    "Admin3Name":"La Janda",
    "CityName":"Alcalá de los Gazules",
    "Population":5326
    }
  },
  {
    "type": "Feature",
    "geometry": {
       "type": "Point",
       "coordinates":  [ -5.172534499999999,36.9055622 ]
    },
    "properties": {
    "RegionName":"Andalucía",
    "DeptName":"Cádiz",
    "Admin3Name":"Sierra de Cádiz",
    "CityName":"Alcalá del Valle",
    "Population":5224
    }
  },
  {
    "type": "Feature",
    "geometry": {
       "type": "Point",
       "coordinates":  [ -5.6546388,36.6585879 ]
    },
    "properties": {
    "RegionName":"Andalucía",
    "DeptName":"Cádiz",
    "Admin3Name":"Sierra de Cádiz",
    "CityName":"Algar",
    "Population":1448
    }
  },
  {
    "type": "Feature",
    "geometry": {
       "type": "Point",
       "coordinates":  [ -5.4031177,36.8812379 ]
    },
    "properties": {
    "RegionName":"Andalucía",
    "DeptName":"Cádiz",
    "Admin3Name":"Sierra de Cádiz",
    "CityName":"Algodonales",
    "Population":5649
    }
  },
  {
    "type": "Feature",
    "geometry": {
       "type": "Point",
       "coordinates":  [ -5.7433562,36.8159238 ]
    },
    "properties": {
    "RegionName":"Andalucía",
    "DeptName":"Cádiz",
    "Admin3Name":"Sierra de Cádiz",
    "CityName":"Bornos",
    "Population":7934
    }
  },
  {
    "type": "Feature",
    "geometry": {
       "type": "Point",
       "coordinates":  [ -5.5061788,36.75800419999999 ]
    },
    "properties": {
    "RegionName":"Andalucía",
    "DeptName":"Cádiz",
    "Admin3Name":"Sierra de Cádiz",
    "CityName":"El Bosque",
    "Population":2067
    }
  },
  {
    "type": "Feature",
    "geometry": {
       "type": "Point",
       "coordinates":  [ -5.420280399999999,36.2853497 ]
    },
    "properties": {
    "RegionName":"Andalucía",
    "DeptName":"Cádiz",
    "Admin3Name":"Campo de Gibraltar",
    "CityName":"Castellar de la Frontera",
    "Population":3045
    }
  },
  {
    "type": "Feature",
    "geometry": {
       "type": "Point",
       "coordinates":  [ -5.8044027,36.872392 ]
    },
    "properties": {
    "RegionName":"Andalucía",
    "DeptName":"Cádiz",
    "Admin3Name":"Sierra de Cádiz",
    "CityName":"Espera",
    "Population":3915
    }
  },
  {
    "type": "Feature",
    "geometry": {
       "type": "Point",
       "coordinates":  [ -5.322667699999999,36.856029 ]
    },
    "properties": {
    "RegionName":"Andalucía",
    "DeptName":"Cádiz",
    "Admin3Name":"Sierra de Cádiz",
    "CityName":"El Gastor",
    "Population":1809
    }
  },
  {
    "type": "Feature",
    "geometry": {
       "type": "Point",
       "coordinates":  [ -5.3684385,36.7586748 ]
    },
    "properties": {
    "RegionName":"Andalucía",
    "DeptName":"Cádiz",
    "Admin3Name":"Sierra de Cádiz",
    "CityName":"Grazalema",
    "Population":2165
    }
  },
  {
    "type": "Feature",
    "geometry": {
       "type": "Point",
       "coordinates":  [ -5.4509174,36.431902 ]
    },
    "properties": {
    "RegionName":"Andalucía",
    "DeptName":"Cádiz",
    "Admin3Name":"Campo de Gibraltar",
    "CityName":"Jimena de la Frontera",
    "Population":9772
    }
  },
  {
    "type": "Feature",
    "geometry": {
       "type": "Point",
       "coordinates":  [ -5.259955499999999,36.9352388 ]
    },
    "properties": {
    "RegionName":"Andalucía",
    "DeptName":"Cádiz",
    "Admin3Name":"Sierra de Cádiz",
    "CityName":"Olvera",
    "Population":8289
    }
  },
  {
    "type": "Feature",
    "geometry": {
       "type": "Point",
       "coordinates":  [ -5.8657211,36.5234413 ]
    },
    "properties": {
    "RegionName":"Andalucía",
    "DeptName":"Cádiz",
    "Admin3Name":"La Janda",
    "CityName":"Paterna de Rivera",
    "Population":5585
    }
  },
  {
    "type": "Feature",
    "geometry": {
       "type": "Point",
       "coordinates":  [ -5.5577902,36.78825760000001 ]
    },
    "properties": {
    "RegionName":"Andalucía",
    "DeptName":"Cádiz",
    "Admin3Name":"Sierra de Cádiz",
    "CityName":"Prado del Rey",
    "Population":5819
    }
  },
  {
    "type": "Feature",
    "geometry": {
       "type": "Point",
       "coordinates":  [ -5.5420421,36.9230994 ]
    },
    "properties": {
    "RegionName":"Andalucía",
    "DeptName":"Cádiz",
    "Admin3Name":"Sierra de Cádiz",
    "CityName":"Puerto Serrano",
    "Population":7145
    }
  },
  {
    "type": "Feature",
    "geometry": {
       "type": "Point",
       "coordinates":  [ -5.1764469,36.8624263 ]
    },
    "properties": {
    "RegionName":"Andalucía",
    "DeptName":"Cádiz",
    "Admin3Name":"Sierra de Cádiz",
    "CityName":"Setenil de las Bodegas",
    "Population":2845
    }
  },
  {
    "type": "Feature",
    "geometry": {
       "type": "Point",
       "coordinates":  [ -6.175237699999999,36.8704663 ]
    },
    "properties": {
    "RegionName":"Andalucía",
    "DeptName":"Cádiz",
    "Admin3Name":"Costa Noroeste",
    "CityName":"Trebujena",
    "Population":7072
    }
  },
  {
    "type": "Feature",
    "geometry": {
       "type": "Point",
       "coordinates":  [ -5.3919919,36.8394942 ]
    },
    "properties": {
    "RegionName":"Andalucía",
    "DeptName":"Cádiz",
    "Admin3Name":"Sierra de Cádiz",
    "CityName":"Zahara",
    "Population":1436
    }
  },
  {
    "type": "Feature",
    "geometry": {
       "type": "Point",
       "coordinates":  [ -5.8166423,36.3431854 ]
    },
    "properties": {
    "RegionName":"Andalucía",
    "DeptName":"Cádiz",
    "Admin3Name":"La Janda",
    "CityName":"Benalup-Casas Viejas",
    "Population":7000
    }
  },
  {
    "type": "Feature",
    "geometry": {
       "type": "Point",
       "coordinates":  [ -5.801025399999999,36.6060308 ]
    },
    "properties": {
    "RegionName":"Andalucía",
    "DeptName":"Cádiz",
    "Admin3Name":"Campiña de Jerez",
    "CityName":"San José del Valle",
    "Population":4427
    }
  },
  {
    "type": "Feature",
    "geometry": {
       "type": "Point",
       "coordinates":  [ -0.1708686,40.2163493 ]
    },
    "properties": {
    "RegionName":"Comunidad Valenciana",
    "DeptName":"Castellón",
    "Admin3Name":"Alcalatén",
    "CityName":"Atzeneta del Maestrat",
    "Population":1307
    }
  },
  {
    "type": "Feature",
    "geometry": {
       "type": "Point",
       "coordinates":  [ 0.0250705,40.356701 ]
    },
    "properties": {
    "RegionName":"Comunidad Valenciana",
    "DeptName":"Castellón",
    "Admin3Name":"Alt Maestrat",
    "CityName":"Albocàsser",
    "Population":1334
    }
  },
  {
    "type": "Feature",
    "geometry": {
       "type": "Point",
       "coordinates":  [ 0.2265823,40.3059644 ]
    },
    "properties": {
    "RegionName":"Comunidad Valenciana",
    "DeptName":"Castellón",
    "Admin3Name":"Baix Maestrat",
    "CityName":"Alcalà de Xivert",
    "Population":7255
    }
  },
  {
    "type": "Feature",
    "geometry": {
       "type": "Point",
       "coordinates":  [ -0.2232937,39.753449 ]
    },
    "properties": {
    "RegionName":"Comunidad Valenciana",
    "DeptName":"Castellón",
    "Admin3Name":"Plana Baixa",
    "CityName":"Almenara",
    "Population":6031
    }
  },
  {
    "type": "Feature",
    "geometry": {
       "type": "Point",
       "coordinates":  [ -0.5129437,39.8507919 ]
    },
    "properties": {
    "RegionName":"Comunidad Valenciana",
    "DeptName":"Castellón",
    "Admin3Name":"Alto Palancia",
    "CityName":"Altura",
    "Population":3647
    }
  },
  {
    "type": "Feature",
    "geometry": {
       "type": "Point",
       "coordinates":  [ -0.2567233,39.8904109 ]
    },
    "properties": {
    "RegionName":"Comunidad Valenciana",
    "DeptName":"Castellón",
    "Admin3Name":"Plana Baixa",
    "CityName":"Artana",
    "Population":1992
    }
  },
  {
    "type": "Feature",
    "geometry": {
       "type": "Point",
       "coordinates":  [ -0.1986798,39.9271423 ]
    },
    "properties": {
    "RegionName":"Comunidad Valenciana",
    "DeptName":"Castellón",
    "Admin3Name":"Plana Baixa",
    "CityName":"Betxí",
    "Population":5763
    }
  },
  {
    "type": "Feature",
    "geometry": {
       "type": "Point",
       "coordinates":  [ -0.141951,40.3797068 ]
    },
    "properties": {
    "RegionName":"Comunidad Valenciana",
    "DeptName":"Castellón",
    "Admin3Name":"Alt Maestrat",
    "CityName":"Benasal",
    "Population":1150
    }
  },
  {
    "type": "Feature",
    "geometry": {
       "type": "Point",
       "coordinates":  [ 0.0268202,40.2105043 ]
    },
    "properties": {
    "RegionName":"Comunidad Valenciana",
    "DeptName":"Castellón",
    "Admin3Name":"Plana Alta",
    "CityName":"Benlloch",
    "Population":1119
    }
  },
  {
    "type": "Feature",
    "geometry": {
       "type": "Point",
       "coordinates":  [ -0.071173,40.0414979 ]
    },
    "properties": {
    "RegionName":"Comunidad Valenciana",
    "DeptName":"Castellón",
    "Admin3Name":"Plana Alta",
    "CityName":"Borriol",
    "Population":5176
    }
  },
  {
    "type": "Feature",
    "geometry": {
       "type": "Point",
       "coordinates":  [ 0.0444625,40.1552893 ]
    },
    "properties": {
    "RegionName":"Comunidad Valenciana",
    "DeptName":"Castellón",
    "Admin3Name":"Plana Alta",
    "CityName":"Cabanes",
    "Population":2939
    }
  },
  {
    "type": "Feature",
    "geometry": {
       "type": "Point",
       "coordinates":  [ 0.3550837,40.46184909999999 ]
    },
    "properties": {
    "RegionName":"Comunidad Valenciana",
    "DeptName":"Castellón",
    "Admin3Name":"Baix Maestrat",
    "CityName":"Càlig",
    "Population":2049
    }
  },
  {
    "type": "Feature",
    "geometry": {
       "type": "Point",
       "coordinates":  [ -0.4579028,39.8615122 ]
    },
    "properties": {
    "RegionName":"Comunidad Valenciana",
    "DeptName":"Castellón",
    "Admin3Name":"Alto Palancia",
    "CityName":"Castellnovo",
    "Population":1003
    }
  },
  {
    "type": "Feature",
    "geometry": {
       "type": "Point",
       "coordinates":  [ 0.1202541,40.3100766 ]
    },
    "properties": {
    "RegionName":"Comunidad Valenciana",
    "DeptName":"Castellón",
    "Admin3Name":"Plana Alta",
    "CityName":"Les Coves de Vinromà",
    "Population":1870
    }
  },
  {
    "type": "Feature",
    "geometry": {
       "type": "Point",
       "coordinates":  [ -0.187548,39.7821299 ]
    },
    "properties": {
    "RegionName":"Comunidad Valenciana",
    "DeptName":"Castellón",
    "Admin3Name":"Plana Baixa",
    "CityName":"Chilches",
    "Population":2752
    }
  },
  {
    "type": "Feature",
    "geometry": {
       "type": "Point",
       "coordinates":  [ -0.5718884,39.9117766 ]
    },
    "properties": {
    "RegionName":"Comunidad Valenciana",
    "DeptName":"Castellón",
    "Admin3Name":"Alto Palancia",
    "CityName":"Jérica",
    "Population":1599
    }
  },
  {
    "type": "Feature",
    "geometry": {
       "type": "Point",
       "coordinates":  [ -0.281068,40.13688459999999 ]
    },
    "properties": {
    "RegionName":"Comunidad Valenciana",
    "DeptName":"Castellón",
    "Admin3Name":"Alcalatén",
    "CityName":"Lucena del Cid",
    "Population":1385
    }
  },
  {
    "type": "Feature",
    "geometry": {
       "type": "Point",
       "coordinates":  [ -0.1470569,39.8088264 ]
    },
    "properties": {
    "RegionName":"Comunidad Valenciana",
    "DeptName":"Castellón",
    "Admin3Name":"Plana Baixa",
    "CityName":"Moncofa",
    "Population":6256
    }
  },
  {
    "type": "Feature",
    "geometry": {
       "type": "Point",
       "coordinates":  [ -0.1015492,40.6181387 ]
    },
    "properties": {
    "RegionName":"Comunidad Valenciana",
    "DeptName":"Castellón",
    "Admin3Name":"Ports",
    "CityName":"Morella",
    "Population":2575
    }
  },
  {
    "type": "Feature",
    "geometry": {
       "type": "Point",
       "coordinates":  [ 0.1424781,40.0914103 ]
    },
    "properties": {
    "RegionName":"Comunidad Valenciana",
    "DeptName":"Castellón",
    "Admin3Name":"Plana Alta",
    "CityName":"Oropesa del Mar",
    "Population":9493
    }
  },
  {
    "type": "Feature",
    "geometry": {
       "type": "Point",
       "coordinates":  [ 0.3913172,40.3668829 ]
    },
    "properties": {
    "RegionName":"Comunidad Valenciana",
    "DeptName":"Castellón",
    "Admin3Name":"Baix Maestrat",
    "CityName":"Peníscola",
    "Population":7444
    }
  },
  {
    "type": "Feature",
    "geometry": {
       "type": "Point",
       "coordinates":  [ -0.0005828,40.10238469999999 ]
    },
    "properties": {
    "RegionName":"Comunidad Valenciana",
    "DeptName":"Castellón",
    "Admin3Name":"Plana Alta",
    "CityName":"La Pobla Tornesa",
    "Population":1191
    }
  },
  {
    "type": "Feature",
    "geometry": {
       "type": "Point",
       "coordinates":  [ -0.2778515,40.0238782 ]
    },
    "properties": {
    "RegionName":"Comunidad Valenciana",
    "DeptName":"Castellón",
    "Admin3Name":"Plana Baixa",
    "CityName":"Ribesalbes",
    "Population":1233
    }
  },
  {
    "type": "Feature",
    "geometry": {
       "type": "Point",
       "coordinates":  [ 0.2203627,40.61733900000001 ]
    },
    "properties": {
    "RegionName":"Comunidad Valenciana",
    "DeptName":"Castellón",
    "Admin3Name":"Baix Maestrat",
    "CityName":"Rossell",
    "Population":1020
    }
  },
  {
    "type": "Feature",
    "geometry": {
       "type": "Point",
       "coordinates":  [ 0.3321829,40.5095107 ]
    },
    "properties": {
    "RegionName":"Comunidad Valenciana",
    "DeptName":"Castellón",
    "Admin3Name":"Baix Maestrat",
    "CityName":"Sant Jordi",
    "Population":1020
    }
  },
  {
    "type": "Feature",
    "geometry": {
       "type": "Point",
       "coordinates":  [ 0.1787657,40.4654987 ]
    },
    "properties": {
    "RegionName":"Comunidad Valenciana",
    "DeptName":"Castellón",
    "Admin3Name":"Baix Maestrat",
    "CityName":"Sant Mateu",
    "Population":1995
    }
  },
  {
    "type": "Feature",
    "geometry": {
       "type": "Point",
       "coordinates":  [ -0.4903524,39.8491635 ]
    },
    "properties": {
    "RegionName":"Comunidad Valenciana",
    "DeptName":"Castellón",
    "Admin3Name":"Alto Palancia",
    "CityName":"Segorbe",
    "Population":9073
    }
  },
  {
    "type": "Feature",
    "geometry": {
       "type": "Point",
       "coordinates":  [ -0.0191338,40.2694151 ]
    },
    "properties": {
    "RegionName":"Comunidad Valenciana",
    "DeptName":"Castellón",
    "Admin3Name":"Plana Alta",
    "CityName":"Sierra Engarcerán",
    "Population":1018
    }
  },
  {
    "type": "Feature",
    "geometry": {
       "type": "Point",
       "coordinates":  [ -0.4301942,39.8172408 ]
    },
    "properties": {
    "RegionName":"Comunidad Valenciana",
    "DeptName":"Castellón",
    "Admin3Name":"Alto Palancia",
    "CityName":"Soneja",
    "Population":1476
    }
  },
  {
    "type": "Feature",
    "geometry": {
       "type": "Point",
       "coordinates":  [ 0.1951319,40.2201804 ]
    },
    "properties": {
    "RegionName":"Comunidad Valenciana",
    "DeptName":"Castellón",
    "Admin3Name":"Plana Alta",
    "CityName":"Torreblanca",
    "Population":5413
    }
  },
  {
    "type": "Feature",
    "geometry": {
       "type": "Point",
       "coordinates":  [ 0.2895943,40.5244341 ]
    },
    "properties": {
    "RegionName":"Comunidad Valenciana",
    "DeptName":"Castellón",
    "Admin3Name":"Baix Maestrat",
    "CityName":"Traiguera",
    "Population":1534
    }
  },
  {
    "type": "Feature",
    "geometry": {
       "type": "Point",
       "coordinates":  [ -0.1676417,40.1585889 ]
    },
    "properties": {
    "RegionName":"Comunidad Valenciana",
    "DeptName":"Castellón",
    "Admin3Name":"Alcalatén",
    "CityName":"Useras",
    "Population":1014
    }
  },
  {
    "type": "Feature",
    "geometry": {
       "type": "Point",
       "coordinates":  [ -0.0361533,40.1746959 ]
    },
    "properties": {
    "RegionName":"Comunidad Valenciana",
    "DeptName":"Castellón",
    "Admin3Name":"Plana Alta",
    "CityName":"Vall d'Alba",
    "Population":2844
    }
  },
  {
    "type": "Feature",
    "geometry": {
       "type": "Point",
       "coordinates":  [ -0.05190819999999999,40.1138985 ]
    },
    "properties": {
    "RegionName":"Comunidad Valenciana",
    "DeptName":"Castellón",
    "Admin3Name":"Plana Alta",
    "CityName":"Vilafamés",
    "Population":1867
    }
  },
  {
    "type": "Feature",
    "geometry": {
       "type": "Point",
       "coordinates":  [ -0.2576419,40.4297868 ]
    },
    "properties": {
    "RegionName":"Comunidad Valenciana",
    "DeptName":"Castellón",
    "Admin3Name":"Alt Maestrat",
    "CityName":"Villafranca del Cid",
    "Population":2295
    }
  },
  {
    "type": "Feature",
    "geometry": {
       "type": "Point",
       "coordinates":  [ -0.1844892,39.8588423 ]
    },
    "properties": {
    "RegionName":"Comunidad Valenciana",
    "DeptName":"Castellón",
    "Admin3Name":"Plana Baixa",
    "CityName":"la Vilavella",
    "Population":3253
    }
  },
  {
    "type": "Feature",
    "geometry": {
       "type": "Point",
       "coordinates":  [ 2.5408414,41.6093683 ]
    },
    "properties": {
    "RegionName":"Catalunya",
    "DeptName":"Barcelona",
    "Admin3Name":"Maresme",
    "CityName":"Arenys de Munt",
    "Population":8736
    }
  },
  {
    "type": "Feature",
    "geometry": {
       "type": "Point",
       "coordinates":  [ 1.9514657,41.796354 ]
    },
    "properties": {
    "RegionName":"Catalunya",
    "DeptName":"Barcelona",
    "Admin3Name":"El Bages",
    "CityName":"Artés",
    "Population":5665
    }
  },
  {
    "type": "Feature",
    "geometry": {
       "type": "Point",
       "coordinates":  [ 1.8202649,42.07821010000001 ]
    },
    "properties": {
    "RegionName":"Catalunya",
    "DeptName":"Barcelona",
    "Admin3Name":"El Berguedà",
    "CityName":"Avià",
    "Population":2225
    }
  },
  {
    "type": "Feature",
    "geometry": {
       "type": "Point",
       "coordinates":  [ 1.9724179,41.8641878 ]
    },
    "properties": {
    "RegionName":"Catalunya",
    "DeptName":"Barcelona",
    "Admin3Name":"El Bages",
    "CityName":"Avinyó",
    "Population":2248
    }
  },
  {
    "type": "Feature",
    "geometry": {
       "type": "Point",
       "coordinates":  [ 1.7858092,41.3547538 ]
    },
    "properties": {
    "RegionName":"Catalunya",
    "DeptName":"Barcelona",
    "Admin3Name":"L'Alt Penedès",
    "CityName":"Avinyonet del Penedès",
    "Population":1652
    }
  },
  {
    "type": "Feature",
    "geometry": {
       "type": "Point",
       "coordinates":  [ 2.2513784,41.7683897 ]
    },
    "properties": {
    "RegionName":"Catalunya",
    "DeptName":"Barcelona",
    "Admin3Name":"El Vallès Oriental",
    "CityName":"Aiguafreda",
    "Population":2465
    }
  },
  {
    "type": "Feature",
    "geometry": {
       "type": "Point",
       "coordinates":  [ 1.861711,42.25262 ]
    },
    "properties": {
    "RegionName":"Catalunya",
    "DeptName":"Barcelona",
    "Admin3Name":"El Berguedà",
    "CityName":"Bagà",
    "Population":2188
    }
  },
  {
    "type": "Feature",
    "geometry": {
       "type": "Point",
       "coordinates":  [ 2.249975,41.844654 ]
    },
    "properties": {
    "RegionName":"Catalunya",
    "DeptName":"Barcelona",
    "Admin3Name":"Osona",
    "CityName":"Balenyà",
    "Population":3711
    }
  },
  {
    "type": "Feature",
    "geometry": {
       "type": "Point",
       "coordinates":  [ 1.8745219,41.86345619999999 ]
    },
    "properties": {
    "RegionName":"Catalunya",
    "DeptName":"Barcelona",
    "Admin3Name":"El Bages",
    "CityName":"Balsareny",
    "Population":3324
    }
  },
  {
    "type": "Feature",
    "geometry": {
       "type": "Point",
       "coordinates":  [ 1.9226434,41.33097480000001 ]
    },
    "properties": {
    "RegionName":"Catalunya",
    "DeptName":"Barcelona",
    "Admin3Name":"El Baix Llobregat",
    "CityName":"Begues",
    "Population":6670
    }
  },
  {
    "type": "Feature",
    "geometry": {
       "type": "Point",
       "coordinates":  [ 2.2259661,41.6769259 ]
    },
    "properties": {
    "RegionName":"Catalunya",
    "DeptName":"Barcelona",
    "Admin3Name":"El Vallès Oriental",
    "CityName":"Bigues i Riells",
    "Population":8858
    }
  },
  {
    "type": "Feature",
    "geometry": {
       "type": "Point",
       "coordinates":  [ 1.7799034,41.5805938 ]
    },
    "properties": {
    "RegionName":"Catalunya",
    "DeptName":"Barcelona",
    "Admin3Name":"L'Anoia",
    "CityName":"El Bruc",
    "Population":2032
    }
  },
  {
    "type": "Feature",
    "geometry": {
       "type": "Point",
       "coordinates":  [ 1.710095,41.4936117 ]
    },
    "properties": {
    "RegionName":"Catalunya",
    "DeptName":"Barcelona",
    "Admin3Name":"L'Anoia",
    "CityName":"Cabrera d'Anoia",
    "Population":1348
    }
  },
  {
    "type": "Feature",
    "geometry": {
       "type": "Point",
       "coordinates":  [ 2.3929959,41.5280545 ]
    },
    "properties": {
    "RegionName":"Catalunya",
    "DeptName":"Barcelona",
    "Admin3Name":"Maresme",
    "CityName":"Cabrera de Mar",
    "Population":4522
    }
  },
  {
    "type": "Feature",
    "geometry": {
       "type": "Point",
       "coordinates":  [ 2.3671032,41.5247306 ]
    },
    "properties": {
    "RegionName":"Catalunya",
    "DeptName":"Barcelona",
    "Admin3Name":"Maresme",
    "CityName":"Cabrils",
    "Population":7250
    }
  },
  {
    "type": "Feature",
    "geometry": {
       "type": "Point",
       "coordinates":  [ 1.5135421,41.7325486 ]
    },
    "properties": {
    "RegionName":"Catalunya",
    "DeptName":"Barcelona",
    "Admin3Name":"L'Anoia",
    "CityName":"Calaf",
    "Population":3426
    }
  },
  {
    "type": "Feature",
    "geometry": {
       "type": "Point",
       "coordinates":  [ 2.5236717,41.5716858 ]
    },
    "properties": {
    "RegionName":"Catalunya",
    "DeptName":"Barcelona",
    "Admin3Name":"Maresme",
    "CityName":"Caldes d'Estrac",
    "Population":2717
    }
  },
  {
    "type": "Feature",
    "geometry": {
       "type": "Point",
       "coordinates":  [ 2.2840953,41.9250982 ]
    },
    "properties": {
    "RegionName":"Catalunya",
    "DeptName":"Barcelona",
    "Admin3Name":"Osona",
    "CityName":"Calldetenes",
    "Population":2427
    }
  },
  {
    "type": "Feature",
    "geometry": {
       "type": "Point",
       "coordinates":  [ 1.7837062,41.7822924 ]
    },
    "properties": {
    "RegionName":"Catalunya",
    "DeptName":"Barcelona",
    "Admin3Name":"El Bages",
    "CityName":"Callús",
    "Population":2024
    }
  },
  {
    "type": "Feature",
    "geometry": {
       "type": "Point",
       "coordinates":  [ 2.349269,41.69377799999999 ]
    },
    "properties": {
    "RegionName":"Catalunya",
    "DeptName":"Barcelona",
    "Admin3Name":"El Vallès Oriental",
    "CityName":"Cànoves i Samalús",
    "Population":2897
    }
  },
  {
    "type": "Feature",
    "geometry": {
       "type": "Point",
       "coordinates":  [ 1.7230553,41.2829335 ]
    },
    "properties": {
    "RegionName":"Catalunya",
    "DeptName":"Barcelona",
    "Admin3Name":"El Garraf",
    "CityName":"Canyelles",
    "Population":4375
    }
  },
  {
    "type": "Feature",
    "geometry": {
       "type": "Point",
       "coordinates":  [ 1.685923,41.5309648 ]
    },
    "properties": {
    "RegionName":"Catalunya",
    "DeptName":"Barcelona",
    "Admin3Name":"L'Anoia",
    "CityName":"Capellades",
    "Population":5268
    }
  },
  {
    "type": "Feature",
    "geometry": {
       "type": "Point",
       "coordinates":  [ 1.6797134,41.913607 ]
    },
    "properties": {
    "RegionName":"Catalunya",
    "DeptName":"Barcelona",
    "Admin3Name":"El Bages",
    "CityName":"Cardona",
    "Population":4898
    }
  },
  {
    "type": "Feature",
    "geometry": {
       "type": "Point",
       "coordinates":  [ 1.8434162,42.0120819 ]
    },
    "properties": {
    "RegionName":"Catalunya",
    "DeptName":"Barcelona",
    "Admin3Name":"El Berguedà",
    "CityName":"Casserres",
    "Population":1541
    }
  },
  {
    "type": "Feature",
    "geometry": {
       "type": "Point",
       "coordinates":  [ 1.8641519,41.6291032 ]
    },
    "properties": {
    "RegionName":"Catalunya",
    "DeptName":"Barcelona",
    "Admin3Name":"El Bages",
    "CityName":"Castellbell i el Vilar",
    "Population":3566
    }
  },
  {
    "type": "Feature",
    "geometry": {
       "type": "Point",
       "coordinates":  [ 1.5925029,41.2535361 ]
    },
    "properties": {
    "RegionName":"Catalunya",
    "DeptName":"Barcelona",
    "Admin3Name":"L'Alt Penedès",
    "CityName":"Castellet i la Gornal",
    "Population":2212
    }
  },
  {
    "type": "Feature",
    "geometry": {
       "type": "Point",
       "coordinates":  [ 1.8435319,41.6747239 ]
    },
    "properties": {
    "RegionName":"Catalunya",
    "DeptName":"Barcelona",
    "Admin3Name":"El Bages",
    "CityName":"Castellgalí",
    "Population":1996
    }
  },
  {
    "type": "Feature",
    "geometry": {
       "type": "Point",
       "coordinates":  [ 1.8367862,41.8343436 ]
    },
    "properties": {
    "RegionName":"Catalunya",
    "DeptName":"Barcelona",
    "Admin3Name":"El Bages",
    "CityName":"Castellnou de Bages",
    "Population":1266
    }
  },
  {
    "type": "Feature",
    "geometry": {
       "type": "Point",
       "coordinates":  [ 2.1199,41.7503185 ]
    },
    "properties": {
    "RegionName":"Catalunya",
    "DeptName":"Barcelona",
    "Admin3Name":"El Vallès Oriental",
    "CityName":"Castellterçol",
    "Population":2368
    }
  },
  {
    "type": "Feature",
    "geometry": {
       "type": "Point",
       "coordinates":  [ 1.593586,41.3324833 ]
    },
    "properties": {
    "RegionName":"Catalunya",
    "DeptName":"Barcelona",
    "Admin3Name":"L'Alt Penedès",
    "CityName":"Castellví de la Marca",
    "Population":1540
    }
  },
  {
    "type": "Feature",
    "geometry": {
       "type": "Point",
       "coordinates":  [ 1.8995445,41.4500186 ]
    },
    "properties": {
    "RegionName":"Catalunya",
    "DeptName":"Barcelona",
    "Admin3Name":"El Baix Llobregat",
    "CityName":"Castellví de Rosanes",
    "Population":1771
    }
  },
  {
    "type": "Feature",
    "geometry": {
       "type": "Point",
       "coordinates":  [ 2.2222269,41.7973754 ]
    },
    "properties": {
    "RegionName":"Catalunya",
    "DeptName":"Barcelona",
    "Admin3Name":"Osona",
    "CityName":"Centelles",
    "Population":7372
    }
  },
  {
    "type": "Feature",
    "geometry": {
       "type": "Point",
       "coordinates":  [ 1.9589428,41.396311 ]
    },
    "properties": {
    "RegionName":"Catalunya",
    "DeptName":"Barcelona",
    "Admin3Name":"El Baix Llobregat",
    "CityName":"Cervelló",
    "Population":8851
    }
  },
  {
    "type": "Feature",
    "geometry": {
       "type": "Point",
       "coordinates":  [ 1.8147696,41.56444949999999 ]
    },
    "properties": {
    "RegionName":"Catalunya",
    "DeptName":"Barcelona",
    "Admin3Name":"El Baix Llobregat",
    "CityName":"Collbató",
    "Population":4389
    }
  },
  {
    "type": "Feature",
    "geometry": {
       "type": "Point",
       "coordinates":  [ 2.4066687,41.5941663 ]
    },
    "properties": {
    "RegionName":"Catalunya",
    "DeptName":"Barcelona",
    "Admin3Name":"Maresme",
    "CityName":"Dosrius",
    "Population":5215
    }
  },
  {
    "type": "Feature",
    "geometry": {
       "type": "Point",
       "coordinates":  [ 2.6786163,41.7273226 ]
    },
    "properties": {
    "RegionName":"Catalunya",
    "DeptName":"Barcelona",
    "Admin3Name":"Selva",
    "CityName":"Fogars de la Selva",
    "Population":1470
    }
  },
  {
    "type": "Feature",
    "geometry": {
       "type": "Point",
       "coordinates":  [ 2.3162571,41.940098 ]
    },
    "properties": {
    "RegionName":"Catalunya",
    "DeptName":"Barcelona",
    "Admin3Name":"Osona",
    "CityName":"Folgueroles",
    "Population":2285
    }
  },
  {
    "type": "Feature",
    "geometry": {
       "type": "Point",
       "coordinates":  [ 1.6669595,41.7616585 ]
    },
    "properties": {
    "RegionName":"Catalunya",
    "DeptName":"Barcelona",
    "Admin3Name":"El Bages",
    "CityName":"Fonollosa",
    "Population":1393
    }
  },
  {
    "type": "Feature",
    "geometry": {
       "type": "Point",
       "coordinates":  [ 1.5910701,41.4347024 ]
    },
    "properties": {
    "RegionName":"Catalunya",
    "DeptName":"Barcelona",
    "Admin3Name":"L'Alt Penedès",
    "CityName":"Font-rubí",
    "Population":1348
    }
  },
  {
    "type": "Feature",
    "geometry": {
       "type": "Point",
       "coordinates":  [ 1.8672009,41.43991490000001 ]
    },
    "properties": {
    "RegionName":"Catalunya",
    "DeptName":"Barcelona",
    "Admin3Name":"L'Alt Penedès",
    "CityName":"Gelida",
    "Population":7253
    }
  },
  {
    "type": "Feature",
    "geometry": {
       "type": "Point",
       "coordinates":  [ 1.8818441,42.0343553 ]
    },
    "properties": {
    "RegionName":"Catalunya",
    "DeptName":"Barcelona",
    "Admin3Name":"El Berguedà",
    "CityName":"Gironella",
    "Population":4925
    }
  },
  {
    "type": "Feature",
    "geometry": {
       "type": "Point",
       "coordinates":  [ 1.72088,41.3752526 ]
    },
    "properties": {
    "RegionName":"Catalunya",
    "DeptName":"Barcelona",
    "Admin3Name":"L'Alt Penedès",
    "CityName":"La Granada",
    "Population":2085
    }
  },
  {
    "type": "Feature",
    "geometry": {
       "type": "Point",
       "coordinates":  [ 2.5022418,41.7318992 ]
    },
    "properties": {
    "RegionName":"Catalunya",
    "DeptName":"Barcelona",
    "Admin3Name":"El Vallès Oriental",
    "CityName":"Gualba",
    "Population":1414
    }
  },
  {
    "type": "Feature",
    "geometry": {
       "type": "Point",
       "coordinates":  [ 1.7657482,41.6796024 ]
    },
    "properties": {
    "RegionName":"Catalunya",
    "DeptName":"Barcelona",
    "Admin3Name":"El Bages",
    "CityName":"Sant Salvador de Guardiola",
    "Population":3126
    }
  },
  {
    "type": "Feature",
    "geometry": {
       "type": "Point",
       "coordinates":  [ 2.2393486,41.9458819 ]
    },
    "properties": {
    "RegionName":"Catalunya",
    "DeptName":"Barcelona",
    "Admin3Name":"Osona",
    "CityName":"Gurb",
    "Population":2545
    }
  },
  {
    "type": "Feature",
    "geometry": {
       "type": "Point",
       "coordinates":  [ 2.4016802,41.6398992 ]
    },
    "properties": {
    "RegionName":"Catalunya",
    "DeptName":"Barcelona",
    "Admin3Name":"El Vallès Oriental",
    "CityName":"Llinars del Vallès",
    "Population":9570
    }
  },
  {
    "type": "Feature",
    "geometry": {
       "type": "Point",
       "coordinates":  [ 2.2396577,41.5831864 ]
    },
    "properties": {
    "RegionName":"Catalunya",
    "DeptName":"Barcelona",
    "Admin3Name":"El Vallès Oriental",
    "CityName":"Lliçà de Vall",
    "Population":6383
    }
  },
  {
    "type": "Feature",
    "geometry": {
       "type": "Point",
       "coordinates":  [ 2.2374965,41.5281106 ]
    },
    "properties": {
    "RegionName":"Catalunya",
    "DeptName":"Barcelona",
    "Admin3Name":"El Vallès Oriental",
    "CityName":"Martorelles",
    "Population":4756
    }
  },
  {
    "type": "Feature",
    "geometry": {
       "type": "Point",
       "coordinates":  [ 2.244446,42.0172312 ]
    },
    "properties": {
    "RegionName":"Catalunya",
    "DeptName":"Barcelona",
    "Admin3Name":"Osona",
    "CityName":"Les Masies de Voltregà",
    "Population":3165
    }
  },
  {
    "type": "Feature",
    "geometry": {
       "type": "Point",
       "coordinates":  [ 1.8141603,41.501395 ]
    },
    "properties": {
    "RegionName":"Catalunya",
    "DeptName":"Barcelona",
    "Admin3Name":"L'Anoia",
    "CityName":"Masquefa",
    "Population":8335
    }
  },
  {
    "type": "Feature",
    "geometry": {
       "type": "Point",
       "coordinates":  [ 2.0110604,41.614417 ]
    },
    "properties": {
    "RegionName":"Catalunya",
    "DeptName":"Barcelona",
    "Admin3Name":"El Vallès Occidental",
    "CityName":"Matadepera",
    "Population":8900
    }
  },
  {
    "type": "Feature",
    "geometry": {
       "type": "Point",
       "coordinates":  [ 1.627507,41.4798069 ]
    },
    "properties": {
    "RegionName":"Catalunya",
    "DeptName":"Barcelona",
    "Admin3Name":"L'Alt Penedès",
    "CityName":"Mediona",
    "Population":2273
    }
  },
  {
    "type": "Feature",
    "geometry": {
       "type": "Point",
       "coordinates":  [ 1.8434162,41.6107783 ]
    },
    "properties": {
    "RegionName":"Catalunya",
    "DeptName":"Barcelona",
    "Admin3Name":"El Bages",
    "CityName":"Monistrol de Montserrat",
    "Population":2901
    }
  },
  {
    "type": "Feature",
    "geometry": {
       "type": "Point",
       "coordinates":  [ 2.2736559,41.7208204 ]
    },
    "properties": {
    "RegionName":"Catalunya",
    "DeptName":"Barcelona",
    "Admin3Name":"El Vallès Oriental",
    "CityName":"Figaró-Montmany",
    "Population":1094
    }
  },
  {
    "type": "Feature",
    "geometry": {
       "type": "Point",
       "coordinates":  [ 2.2477539,41.5523468 ]
    },
    "properties": {
    "RegionName":"Catalunya",
    "DeptName":"Barcelona",
    "Admin3Name":"El Vallès Oriental",
    "CityName":"Montmeló",
    "Population":8835
    }
  },
  {
    "type": "Feature",
    "geometry": {
       "type": "Point",
       "coordinates":  [ 2.0971693,41.8099481 ]
    },
    "properties": {
    "RegionName":"Catalunya",
    "DeptName":"Barcelona",
    "Admin3Name":"El Bages",
    "CityName":"Moià",
    "Population":5865
    }
  },
  {
    "type": "Feature",
    "geometry": {
       "type": "Point",
       "coordinates":  [ 1.9062603,41.7535973 ]
    },
    "properties": {
    "RegionName":"Catalunya",
    "DeptName":"Barcelona",
    "Admin3Name":"El Bages",
    "CityName":"Navarcles",
    "Population":6012
    }
  },
  {
    "type": "Feature",
    "geometry": {
       "type": "Point",
       "coordinates":  [ 1.8781829,41.9018611 ]
    },
    "properties": {
    "RegionName":"Catalunya",
    "DeptName":"Barcelona",
    "Admin3Name":"El Bages",
    "CityName":"Navàs",
    "Population":6103
    }
  },
  {
    "type": "Feature",
    "geometry": {
       "type": "Point",
       "coordinates":  [ 1.6418166,41.6061213 ]
    },
    "properties": {
    "RegionName":"Catalunya",
    "DeptName":"Barcelona",
    "Admin3Name":"L'Anoia",
    "CityName":"Òdena",
    "Population":3623
    }
  },
  {
    "type": "Feature",
    "geometry": {
       "type": "Point",
       "coordinates":  [ 1.7246856,41.3181561 ]
    },
    "properties": {
    "RegionName":"Catalunya",
    "DeptName":"Barcelona",
    "Admin3Name":"L'Alt Penedès",
    "CityName":"Olèrdola",
    "Population":3518
    }
  },
  {
    "type": "Feature",
    "geometry": {
       "type": "Point",
       "coordinates":  [ 1.8489571,41.3502414 ]
    },
    "properties": {
    "RegionName":"Catalunya",
    "DeptName":"Barcelona",
    "Admin3Name":"L'Alt Penedès",
    "CityName":"Olesa de Bonesvalls",
    "Population":1715
    }
  },
  {
    "type": "Feature",
    "geometry": {
       "type": "Point",
       "coordinates":  [ 1.8114185,41.3102463 ]
    },
    "properties": {
    "RegionName":"Catalunya",
    "DeptName":"Barcelona",
    "Admin3Name":"El Garraf",
    "CityName":"Olivella",
    "Population":3569
    }
  },
  {
    "type": "Feature",
    "geometry": {
       "type": "Point",
       "coordinates":  [ -8.0073191,42.4996263 ]
    },
    "properties": {
    "RegionName":"Galicia",
    "DeptName":"Ourense",
    "Admin3Name":"O Carballiño",
    "CityName":"Piñor",
    "Population":1232
    }
  },
  {
    "type": "Feature",
    "geometry": {
       "type": "Point",
       "coordinates":  [ -7.253809699999999,42.3393468 ]
    },
    "properties": {
    "RegionName":"Galicia",
    "DeptName":"Ourense",
    "Admin3Name":"Terra de Trives",
    "CityName":"A Pobra de Trives",
    "Population":2245
    }
  },
  {
    "type": "Feature",
    "geometry": {
       "type": "Point",
       "coordinates":  [ -7.832380499999999,42.0826804 ]
    },
    "properties": {
    "RegionName":"Galicia",
    "DeptName":"Ourense",
    "Admin3Name":"A Limia",
    "CityName":"Rairiz de Veiga",
    "Population":1430
    }
  },
  {
    "type": "Feature",
    "geometry": {
       "type": "Point",
       "coordinates":  [ -8.0192867,42.2832031 ]
    },
    "properties": {
    "RegionName":"Galicia",
    "DeptName":"Ourense",
    "Admin3Name":"O Ribeiro",
    "CityName":"Ramirás",
    "Population":1607
    }
  },
  {
    "type": "Feature",
    "geometry": {
       "type": "Point",
       "coordinates":  [ -8.1420491,42.288847 ]
    },
    "properties": {
    "RegionName":"Galicia",
    "DeptName":"Ourense",
    "Admin3Name":"O Ribeiro",
    "CityName":"Ribadavia",
    "Population":5112
    }
  },
  {
    "type": "Feature",
    "geometry": {
       "type": "Point",
       "coordinates":  [ -7.2821463,41.9739776 ]
    },
    "properties": {
    "RegionName":"Galicia",
    "DeptName":"Ourense",
    "Admin3Name":"Verín",
    "CityName":"Riós",
    "Population":1683
    }
  },
  {
    "type": "Feature",
    "geometry": {
       "type": "Point",
       "coordinates":  [ -7.1151921,42.39638410000001 ]
    },
    "properties": {
    "RegionName":"Galicia",
    "DeptName":"Ourense",
    "Admin3Name":"Valdeorras",
    "CityName":"A Rúa",
    "Population":4595
    }
  },
  {
    "type": "Feature",
    "geometry": {
       "type": "Point",
       "coordinates":  [ -6.9469907,42.4486515 ]
    },
    "properties": {
    "RegionName":"Galicia",
    "DeptName":"Ourense",
    "Admin3Name":"Valdeorras",
    "CityName":"Rubiá",
    "Population":1473
    }
  },
  {
    "type": "Feature",
    "geometry": {
       "type": "Point",
       "coordinates":  [ -8.0722034,42.3732068 ]
    },
    "properties": {
    "RegionName":"Galicia",
    "DeptName":"Ourense",
    "Admin3Name":"O Carballiño",
    "CityName":"San Amaro",
    "Population":1170
    }
  },
  {
    "type": "Feature",
    "geometry": {
       "type": "Point",
       "coordinates":  [ -7.872840300000001,42.2948445 ]
    },
    "properties": {
    "RegionName":"Galicia",
    "DeptName":"Ourense",
    "Admin3Name":"Ourense",
    "CityName":"San Cibrao das Viñas",
    "Population":5036
    }
  },
  {
    "type": "Feature",
    "geometry": {
       "type": "Point",
       "coordinates":  [ -7.948389799999999,42.5003868 ]
    },
    "properties": {
    "RegionName":"Galicia",
    "DeptName":"Ourense",
    "Admin3Name":"O Carballiño",
    "CityName":"San Cristovo de Cea",
    "Population":2346
    }
  },
  {
    "type": "Feature",
    "geometry": {
       "type": "Point",
       "coordinates":  [ -7.756446,42.1115998 ]
    },
    "properties": {
    "RegionName":"Galicia",
    "DeptName":"Ourense",
    "Admin3Name":"A Limia",
    "CityName":"Sandiás",
    "Population":1307
    }
  },
  {
    "type": "Feature",
    "geometry": {
       "type": "Point",
       "coordinates":  [ -7.604644599999999,42.0866068 ]
    },
    "properties": {
    "RegionName":"Galicia",
    "DeptName":"Ourense",
    "Admin3Name":"A Limia",
    "CityName":"Sarreaus",
    "Population":1283
    }
  },
  {
    "type": "Feature",
    "geometry": {
       "type": "Point",
       "coordinates":  [ -7.8256868,42.2410169 ]
    },
    "properties": {
    "RegionName":"Galicia",
    "DeptName":"Ourense",
    "Admin3Name":"Ourense",
    "CityName":"Taboadela",
    "Population":1514
    }
  },
  {
    "type": "Feature",
    "geometry": {
       "type": "Point",
       "coordinates":  [ -7.950610900000001,42.3138543 ]
    },
    "properties": {
    "RegionName":"Galicia",
    "DeptName":"Ourense",
    "Admin3Name":"Ourense",
    "CityName":"Toén",
    "Population":2426
    }
  },
  {
    "type": "Feature",
    "geometry": {
       "type": "Point",
       "coordinates":  [ -7.618199499999998,42.0241907 ]
    },
    "properties": {
    "RegionName":"Galicia",
    "DeptName":"Ourense",
    "Admin3Name":"A Limia",
    "CityName":"Trasmiras",
    "Population":1410
    }
  },
  {
    "type": "Feature",
    "geometry": {
       "type": "Point",
       "coordinates":  [ -7.991986000000001,42.1056929 ]
    },
    "properties": {
    "RegionName":"Galicia",
    "DeptName":"Ourense",
    "Admin3Name":"Terra de Celanova",
    "CityName":"Verea",
    "Population":1042
    }
  },
  {
    "type": "Feature",
    "geometry": {
       "type": "Point",
       "coordinates":  [ -7.113010300000001,42.180337 ]
    },
    "properties": {
    "RegionName":"Galicia",
    "DeptName":"Ourense",
    "Admin3Name":"Viana",
    "CityName":"Viana do Bolo",
    "Population":3037
    }
  },
  {
    "type": "Feature",
    "geometry": {
       "type": "Point",
       "coordinates":  [ -7.890189199999999,42.4650787 ]
    },
    "properties": {
    "RegionName":"Galicia",
    "DeptName":"Ourense",
    "Admin3Name":"Ourense",
    "CityName":"Vilamarín",
    "Population":2026
    }
  },
  {
    "type": "Feature",
    "geometry": {
       "type": "Point",
       "coordinates":  [ -7.059255299999999,42.4133937 ]
    },
    "properties": {
    "RegionName":"Galicia",
    "DeptName":"Ourense",
    "Admin3Name":"Valdeorras",
    "CityName":"Vilamartín de Valdeorras",
    "Population":1798
    }
  },
  {
    "type": "Feature",
    "geometry": {
       "type": "Point",
       "coordinates":  [ -7.6127772,42.1597916 ]
    },
    "properties": {
    "RegionName":"Galicia",
    "DeptName":"Ourense",
    "Admin3Name":"A Limia",
    "CityName":"Vilar de Barrio",
    "Population":1455
    }
  },
  {
    "type": "Feature",
    "geometry": {
       "type": "Point",
       "coordinates":  [ -7.3125592,41.907314 ]
    },
    "properties": {
    "RegionName":"Galicia",
    "DeptName":"Ourense",
    "Admin3Name":"Verín",
    "CityName":"Vilardevós",
    "Population":2170
    }
  },
  {
    "type": "Feature",
    "geometry": {
       "type": "Point",
       "coordinates":  [ -6.706591400000001,43.24883759999999 ]
    },
    "properties": {
    "RegionName":"Principado de Asturias",
    "DeptName":"Asturias",
    "Admin3Name":"Comarca Vaqueira",
    "CityName":"Allande",
    "Population":1826
    }
  },
  {
    "type": "Feature",
    "geometry": {
       "type": "Point",
       "coordinates":  [ -6.258836899999999,43.2549639 ]
    },
    "properties": {
    "RegionName":"Principado de Asturias",
    "DeptName":"Asturias",
    "Admin3Name":"Camín Real de la Mesa",
    "CityName":"Belmonte de Miranda",
    "Population":1641
    }
  },
  {
    "type": "Feature",
    "geometry": {
       "type": "Point",
       "coordinates":  [ -5.572229699999999,43.3193694 ]
    },
    "properties": {
    "RegionName":"Principado de Asturias",
    "DeptName":"Asturias",
    "Admin3Name":"Comarca de la Sidra",
    "CityName":"Bimenes",
    "Population":1768
    }
  },
  {
    "type": "Feature",
    "geometry": {
       "type": "Point",
       "coordinates":  [ -6.8196922,43.4289894 ]
    },
    "properties": {
    "RegionName":"Principado de Asturias",
    "DeptName":"Asturias",
    "Admin3Name":"Parque Histórico del Navia",
    "CityName":"Boal",
    "Population":1669
    }
  },
  {
    "type": "Feature",
    "geometry": {
       "type": "Point",
       "coordinates":  [ -4.8460518,43.316032 ]
    },
    "properties": {
    "RegionName":"Principado de Asturias",
    "DeptName":"Asturias",
    "Admin3Name":"Oriente de Asturias",
    "CityName":"Cabrales",
    "Population":2094
    }
  },
  {
    "type": "Feature",
    "geometry": {
       "type": "Point",
       "coordinates":  [ -5.4253757,43.4034085 ]
    },
    "properties": {
    "RegionName":"Principado de Asturias",
    "DeptName":"Asturias",
    "Admin3Name":"Comarca de la Sidra",
    "CityName":"Cabranes",
    "Population":1056
    }
  },
  {
    "type": "Feature",
    "geometry": {
       "type": "Point",
       "coordinates":  [ -6.058097,43.4466162 ]
    },
    "properties": {
    "RegionName":"Principado de Asturias",
    "DeptName":"Asturias",
    "Admin3Name":"Camín Real de la Mesa",
    "CityName":"Candamo",
    "Population":2055
    }
  },
  {
    "type": "Feature",
    "geometry": {
       "type": "Point",
       "coordinates":  [ -5.131013299999999,43.35062509999999 ]
    },
    "properties": {
    "RegionName":"Principado de Asturias",
    "DeptName":"Asturias",
    "Admin3Name":"Oriente de Asturias",
    "CityName":"Cangas de Onís",
    "Population":6498
    }
  },
  {
    "type": "Feature",
    "geometry": {
       "type": "Point",
       "coordinates":  [ -5.3520876,43.1658938 ]
    },
    "properties": {
    "RegionName":"Principado de Asturias",
    "DeptName":"Asturias",
    "Admin3Name":"Valle del Nalón",
    "CityName":"Caso",
    "Population":1663
    }
  },
  {
    "type": "Feature",
    "geometry": {
       "type": "Point",
       "coordinates":  [ -7.0277708,43.5247676 ]
    },
    "properties": {
    "RegionName":"Principado de Asturias",
    "DeptName":"Asturias",
    "Admin3Name":"Oscos - Eo",
    "CityName":"Castropol",
    "Population":3638
    }
  },
  {
    "type": "Feature",
    "geometry": {
       "type": "Point",
       "coordinates":  [ -6.7466776,43.51670370000001 ]
    },
    "properties": {
    "RegionName":"Principado de Asturias",
    "DeptName":"Asturias",
    "Admin3Name":"Parque Histórico del Navia",
    "CityName":"Coaña",
    "Population":3419
    }
  },
  {
    "type": "Feature",
    "geometry": {
       "type": "Point",
       "coordinates":  [ -5.2712248,43.48490959999999 ]
    },
    "properties": {
    "RegionName":"Principado de Asturias",
    "DeptName":"Asturias",
    "Admin3Name":"Comarca de la Sidra",
    "CityName":"Colunga",
    "Population":3518
    }
  },
  {
    "type": "Feature",
    "geometry": {
       "type": "Point",
       "coordinates":  [ -6.148421,43.5600016 ]
    },
    "properties": {
    "RegionName":"Principado de Asturias",
    "DeptName":"Asturias",
    "Admin3Name":"Comarca Vaqueira",
    "CityName":"Cudillero",
    "Population":5210
    }
  },
  {
    "type": "Feature",
    "geometry": {
       "type": "Point",
       "coordinates":  [ -6.5683297,42.93986109999999 ]
    },
    "properties": {
    "RegionName":"Principado de Asturias",
    "DeptName":"Asturias",
    "Admin3Name":"Fuentes del Narcea",
    "CityName":"Degaña",
    "Population":1082
    }
  },
  {
    "type": "Feature",
    "geometry": {
       "type": "Point",
       "coordinates":  [ -6.8376549,43.5065184 ]
    },
    "properties": {
    "RegionName":"Principado de Asturias",
    "DeptName":"Asturias",
    "Admin3Name":"Parque Histórico del Navia",
    "CityName":"El Franco",
    "Population":3859
    }
  },
  {
    "type": "Feature",
    "geometry": {
       "type": "Point",
       "coordinates":  [ -6.792235499999999,43.0121136 ]
    },
    "properties": {
    "RegionName":"Principado de Asturias",
    "DeptName":"Asturias",
    "Admin3Name":"Fuentes del Narcea",
    "CityName":"Ibias",
    "Population":1473
    }
  },
  {
    "type": "Feature",
    "geometry": {
       "type": "Point",
       "coordinates":  [ -5.969424999999999,43.49509399999999 ]
    },
    "properties": {
    "RegionName":"Principado de Asturias",
    "DeptName":"Asturias",
    "Admin3Name":"Comarca Avilés",
    "CityName":"Illas",
    "Population":1030
    }
  },
  {
    "type": "Feature",
    "geometry": {
       "type": "Point",
       "coordinates":  [ -5.909275399999999,43.2639231 ]
    },
    "properties": {
    "RegionName":"Principado de Asturias",
    "DeptName":"Asturias",
    "Admin3Name":"Montaña Central",
    "CityName":"Morcín",
    "Population":2746
    }
  },
  {
    "type": "Feature",
    "geometry": {
       "type": "Point",
       "coordinates":  [ -6.106264899999999,43.54361859999999 ]
    },
    "properties": {
    "RegionName":"Principado de Asturias",
    "DeptName":"Asturias",
    "Admin3Name":"Bajo Nalón",
    "CityName":"Muros de Nalón",
    "Population":1883
    }
  },
  {
    "type": "Feature",
    "geometry": {
       "type": "Point",
       "coordinates":  [ -5.5082279,43.3587644 ]
    },
    "properties": {
    "RegionName":"Principado de Asturias",
    "DeptName":"Asturias",
    "Admin3Name":"Comarca de la Sidra",
    "CityName":"Nava",
    "Population":5411
    }
  },
  {
    "type": "Feature",
    "geometry": {
       "type": "Point",
       "coordinates":  [ -6.724565200000001,43.53975210000001 ]
    },
    "properties": {
    "RegionName":"Principado de Asturias",
    "DeptName":"Asturias",
    "Admin3Name":"Comarca Vaqueira",
    "CityName":"Navia",
    "Population":8644
    }
  },
  {
    "type": "Feature",
    "geometry": {
       "type": "Point",
       "coordinates":  [ -5.7066073,43.3941514 ]
    },
    "properties": {
    "RegionName":"Principado de Asturias",
    "DeptName":"Asturias",
    "Admin3Name":"Comarca del Nora",
    "CityName":"Noreña",
    "Population":5333
    }
  },
  {
    "type": "Feature",
    "geometry": {
       "type": "Point",
       "coordinates":  [ -5.205790899999999,43.34625339999999 ]
    },
    "properties": {
    "RegionName":"Principado de Asturias",
    "DeptName":"Asturias",
    "Admin3Name":"Oriente de Asturias",
    "CityName":"Parres",
    "Population":5490
    }
  },
  {
    "type": "Feature",
    "geometry": {
       "type": "Point",
       "coordinates":  [ -4.5934,43.32429 ]
    },
    "properties": {
    "RegionName":"Principado de Asturias",
    "DeptName":"Asturias",
    "Admin3Name":"Oriente de Asturias",
    "CityName":"Peñamellera Baja",
    "Population":1291
    }
  },
  {
    "type": "Feature",
    "geometry": {
       "type": "Point",
       "coordinates":  [ -5.3520876,43.3202455 ]
    },
    "properties": {
    "RegionName":"Principado de Asturias",
    "DeptName":"Asturias",
    "Admin3Name":"Oriente de Asturias",
    "CityName":"Piloña",
    "Population":7412
    }
  },
  {
    "type": "Feature",
    "geometry": {
       "type": "Point",
       "coordinates":  [ -6.111489,43.4875717 ]
    },
    "properties": {
    "RegionName":"Principado de Asturias",
    "DeptName":"Asturias",
    "Admin3Name":"Bajo Nalón",
    "CityName":"Pravia",
    "Population":8667
    }
  },
  {
    "type": "Feature",
    "geometry": {
       "type": "Point",
       "coordinates":  [ -5.9621106,43.1550614 ]
    },
    "properties": {
    "RegionName":"Principado de Asturias",
    "DeptName":"Asturias",
    "Admin3Name":"Camín Real de la Mesa",
    "CityName":"Quirós",
    "Population":1250
    }
  },
  {
    "type": "Feature",
    "geometry": {
       "type": "Point",
       "coordinates":  [ -5.9726832,43.4145865 ]
    },
    "properties": {
    "RegionName":"Principado de Asturias",
    "DeptName":"Asturias",
    "Admin3Name":"Camín Real de la Mesa",
    "CityName":"Las Regueras",
    "Population":1934
    }
  },
  {
    "type": "Feature",
    "geometry": {
       "type": "Point",
       "coordinates":  [ -4.572759800000001,43.3636546 ]
    },
    "properties": {
    "RegionName":"Principado de Asturias",
    "DeptName":"Asturias",
    "Admin3Name":"Oriente de Asturias",
    "CityName":"Ribadedeva",
    "Population":1836
    }
  },
  {
    "type": "Feature",
    "geometry": {
       "type": "Point",
       "coordinates":  [ -5.056138,43.4630834 ]
    },
    "properties": {
    "RegionName":"Principado de Asturias",
    "DeptName":"Asturias",
    "Admin3Name":"Oriente de Asturias",
    "CityName":"Ribadesella",
    "Population":5904
    }
  },
  {
    "type": "Feature",
    "geometry": {
       "type": "Point",
       "coordinates":  [ -5.8934338,43.3080889 ]
    },
    "properties": {
    "RegionName":"Principado de Asturias",
    "DeptName":"Asturias",
    "Admin3Name":"Montaña Central",
    "CityName":"Ribera de Arriba",
    "Population":1890
    }
  },
  {
    "type": "Feature",
    "geometry": {
       "type": "Point",
       "coordinates":  [ -5.8881542,43.2071557 ]
    },
    "properties": {
    "RegionName":"Principado de Asturias",
    "DeptName":"Asturias",
    "Admin3Name":"Montaña Central",
    "CityName":"Riosa",
    "Population":2061
    }
  },
  {
    "type": "Feature",
    "geometry": {
       "type": "Point",
       "coordinates":  [ -6.262156699999999,43.4093046 ]
    },
    "properties": {
    "RegionName":"Principado de Asturias",
    "DeptName":"Asturias",
    "Admin3Name":"Comarca Vaqueira",
    "CityName":"Salas",
    "Population":5371
    }
  },
  {
    "type": "Feature",
    "geometry": {
       "type": "Point",
       "coordinates":  [ -5.556477699999999,43.4115378 ]
    },
    "properties": {
    "RegionName":"Principado de Asturias",
    "DeptName":"Asturias",
    "Admin3Name":"Comarca de la Sidra",
    "CityName":"Sariego",
    "Population":1276
    }
  },
  {
    "type": "Feature",
    "geometry": {
       "type": "Point",
       "coordinates":  [ -6.2800864,43.1187291 ]
    },
    "properties": {
    "RegionName":"Principado de Asturias",
    "DeptName":"Asturias",
    "Admin3Name":"Camín Real de la Mesa",
    "CityName":"Somiedo",
    "Population":1231
    }
  },
  {
    "type": "Feature",
    "geometry": {
       "type": "Point",
       "coordinates":  [ -6.070916,43.5341681 ]
    },
    "properties": {
    "RegionName":"Principado de Asturias",
    "DeptName":"Asturias",
    "Admin3Name":"Bajo Nalón",
    "CityName":"Soto del Barco",
    "Population":3978
    }
  },
  {
    "type": "Feature",
    "geometry": {
       "type": "Point",
       "coordinates":  [ -6.9439096,43.5702333 ]
    },
    "properties": {
    "RegionName":"Principado de Asturias",
    "DeptName":"Asturias",
    "Admin3Name":"Parque Histórico del Navia",
    "CityName":"Tapia de Casariego",
    "Population":3906
    }
  },
  {
    "type": "Feature",
    "geometry": {
       "type": "Point",
       "coordinates":  [ -6.0965651,43.161964 ]
    },
    "properties": {
    "RegionName":"Principado de Asturias",
    "DeptName":"Asturias",
    "Admin3Name":"Camín Real de la Mesa",
    "CityName":"Teverga",
    "Population":1768
    }
  },
  {
    "type": "Feature",
    "geometry": {
       "type": "Point",
       "coordinates":  [ -7.0485041,43.4646918 ]
    },
    "properties": {
    "RegionName":"Principado de Asturias",
    "DeptName":"Asturias",
    "Admin3Name":"Oscos - Eo",
    "CityName":"Vegadeo",
    "Population":3960
    }
  },
  {
    "type": "Feature",
    "geometry": {
       "type": "Point",
       "coordinates":  [ -6.7049198,43.4480757 ]
    },
    "properties": {
    "RegionName":"Principado de Asturias",
    "DeptName":"Asturias",
    "Admin3Name":"Comarca Vaqueira",
    "CityName":"Villayón",
    "Population":1366
    }
  },
  {
    "type": "Feature",
    "geometry": {
       "type": "Point",
       "coordinates":  [ -4.2622141,42.7931905 ]
    },
    "properties": {
    "RegionName":"Castilla y León",
    "DeptName":"Palencia",
    "Admin3Name":"Valdivia",
    "CityName":"Aguilar de Campoo",
    "Population":7033
    }
  },
  {
    "type": "Feature",
    "geometry": {
       "type": "Point",
       "coordinates":  [ -4.294762,42.1925578 ]
    },
    "properties": {
    "RegionName":"Castilla y León",
    "DeptName":"Palencia",
    "Admin3Name":"Cerrato",
    "CityName":"Astudillo",
    "Population":1002
    }
  },
  {
    "type": "Feature",
    "geometry": {
       "type": "Point",
       "coordinates":  [ -4.2461531,41.9380045 ]
    },
    "properties": {
    "RegionName":"Castilla y León",
    "DeptName":"Palencia",
    "Admin3Name":"Cerrato",
    "CityName":"Baltanás",
    "Population":1273
    }
  },
  {
    "type": "Feature",
    "geometry": {
       "type": "Point",
       "coordinates":  [ -4.4887385,41.9209323 ]
    },
    "properties": {
    "RegionName":"Castilla y León",
    "DeptName":"Palencia",
    "Admin3Name":"Cerrato",
    "CityName":"Venta de Baños",
    "Population":6432
    }
  },
  {
    "type": "Feature",
    "geometry": {
       "type": "Point",
       "coordinates":  [ -4.2884733,42.90657119999999 ]
    },
    "properties": {
    "RegionName":"Castilla y León",
    "DeptName":"Palencia",
    "Admin3Name":"Valdivia",
    "CityName":"Barruelo de Santullán",
    "Population":1275
    }
  },
  {
    "type": "Feature",
    "geometry": {
       "type": "Point",
       "coordinates":  [ -4.6024326,42.3373375 ]
    },
    "properties": {
    "RegionName":"Castilla y León",
    "DeptName":"Palencia",
    "Admin3Name":"Tierra de Campos",
    "CityName":"Carrión de los Condes",
    "Population":2177
    }
  },
  {
    "type": "Feature",
    "geometry": {
       "type": "Point",
       "coordinates":  [ -4.4992928,42.8668915 ]
    },
    "properties": {
    "RegionName":"Castilla y León",
    "DeptName":"Palencia",
    "Admin3Name":"Montaña Palentina",
    "CityName":"Cervera de Pisuerga",
    "Population":2442
    }
  },
  {
    "type": "Feature",
    "geometry": {
       "type": "Point",
       "coordinates":  [ -4.5439254,41.8732123 ]
    },
    "properties": {
    "RegionName":"Castilla y León",
    "DeptName":"Palencia",
    "Admin3Name":"Cerrato",
    "CityName":"Dueñas",
    "Population":2741
    }
  },
  {
    "type": "Feature",
    "geometry": {
       "type": "Point",
       "coordinates":  [ -4.5824339,42.0530505 ]
    },
    "properties": {
    "RegionName":"Castilla y León",
    "DeptName":"Palencia",
    "Admin3Name":"Tierra de Campos",
    "CityName":"Grijota",
    "Population":2114
    }
  },
  {
    "type": "Feature",
    "geometry": {
       "type": "Point",
       "coordinates":  [ -4.8474389,42.7890255 ]
    },
    "properties": {
    "RegionName":"Castilla y León",
    "DeptName":"Palencia",
    "Admin3Name":"Montaña Palentina",
    "CityName":"Guardo",
    "Population":6547
    }
  },
  {
    "type": "Feature",
    "geometry": {
       "type": "Point",
       "coordinates":  [ -4.3321114,42.5953655 ]
    },
    "properties": {
    "RegionName":"Castilla y León",
    "DeptName":"Palencia",
    "Admin3Name":"Boedo-Ojeda",
    "CityName":"Herrera de Pisuerga",
    "Population":2132
    }
  },
  {
    "type": "Feature",
    "geometry": {
       "type": "Point",
       "coordinates":  [ -4.692841,42.151599 ]
    },
    "properties": {
    "RegionName":"Castilla y León",
    "DeptName":"Palencia",
    "Admin3Name":"Tierra de Campos",
    "CityName":"Paredes de Nava",
    "Population":1981
    }
  },
  {
    "type": "Feature",
    "geometry": {
       "type": "Point",
       "coordinates":  [ -4.7419825,42.5180071 ]
    },
    "properties": {
    "RegionName":"Castilla y León",
    "DeptName":"Palencia",
    "Admin3Name":"Vega - Valdavia",
    "CityName":"Saldaña",
    "Population":3121
    }
  },
  {
    "type": "Feature",
    "geometry": {
       "type": "Point",
       "coordinates":  [ -4.7300164,42.8098635 ]
    },
    "properties": {
    "RegionName":"Castilla y León",
    "DeptName":"Palencia",
    "Admin3Name":"Montaña Palentina",
    "CityName":"Santibáñez de la Peña",
    "Population":1101
    }
  },
  {
    "type": "Feature",
    "geometry": {
       "type": "Point",
       "coordinates":  [ -4.3192729,42.035448 ]
    },
    "properties": {
    "RegionName":"Castilla y León",
    "DeptName":"Palencia",
    "Admin3Name":"Cerrato",
    "CityName":"Torquemada",
    "Population":1025
    }
  },
  {
    "type": "Feature",
    "geometry": {
       "type": "Point",
       "coordinates":  [ -4.3834962,38.02265269999999 ]
    },
    "properties": {
    "RegionName":"Andalucía",
    "DeptName":"Córdoba",
    "Admin3Name":"Alto Guadalquivir",
    "CityName":"Montoro",
    "Population":9640
    }
  },
  {
    "type": "Feature",
    "geometry": {
       "type": "Point",
       "coordinates":  [ -4.581788899999999,37.4715287 ]
    },
    "properties": {
    "RegionName":"Andalucía",
    "DeptName":"Córdoba",
    "Admin3Name":"Campiña Sur",
    "CityName":"Monturque",
    "Population":2007
    }
  },
  {
    "type": "Feature",
    "geometry": {
       "type": "Point",
       "coordinates":  [ -4.6075948,37.4359137 ]
    },
    "properties": {
    "RegionName":"Andalucía",
    "DeptName":"Córdoba",
    "Admin3Name":"Campiña Sur",
    "CityName":"Moriles",
    "Population":3848
    }
  },
  {
    "type": "Feature",
    "geometry": {
       "type": "Point",
       "coordinates":  [ -4.4677456,37.5856113 ]
    },
    "properties": {
    "RegionName":"Andalucía",
    "DeptName":"Córdoba",
    "Admin3Name":"Campiña de Baena",
    "CityName":"Nueva Carteya",
    "Population":5470
    }
  },
  {
    "type": "Feature",
    "geometry": {
       "type": "Point",
       "coordinates":  [ -4.799909599999999,38.1327461 ]
    },
    "properties": {
    "RegionName":"Andalucía",
    "DeptName":"Córdoba",
    "Admin3Name":"Valle del Guadiato",
    "CityName":"Obejo",
    "Population":2027
    }
  },
  {
    "type": "Feature",
    "geometry": {
       "type": "Point",
       "coordinates":  [ -4.5837239,37.248164 ]
    },
    "properties": {
    "RegionName":"Andalucía",
    "DeptName":"Córdoba",
    "Admin3Name":"Subbética",
    "CityName":"Palenciana",
    "Population":1545
    }
  },
  {
    "type": "Feature",
    "geometry": {
       "type": "Point",
       "coordinates":  [ -4.455518,37.9671051 ]
    },
    "properties": {
    "RegionName":"Andalucía",
    "DeptName":"Córdoba",
    "Admin3Name":"Alto Guadalquivir",
    "CityName":"Pedro Abad",
    "Population":2927
    }
  },
  {
    "type": "Feature",
    "geometry": {
       "type": "Point",
       "coordinates":  [ -4.7635748,38.4285684 ]
    },
    "properties": {
    "RegionName":"Andalucía",
    "DeptName":"Córdoba",
    "Admin3Name":"Los Pedroches",
    "CityName":"Pedroche",
    "Population":1624
    }
  },
  {
    "type": "Feature",
    "geometry": {
       "type": "Point",
       "coordinates":  [ -5.106908799999999,37.80453809999999 ]
    },
    "properties": {
    "RegionName":"Andalucía",
    "DeptName":"Córdoba",
    "Admin3Name":"Valle Medio del Guadalquivir",
    "CityName":"Posadas",
    "Population":7544
    }
  },
  {
    "type": "Feature",
    "geometry": {
       "type": "Point",
       "coordinates":  [ -4.739395,37.60626 ]
    },
    "properties": {
    "RegionName":"Andalucía",
    "DeptName":"Córdoba",
    "Admin3Name":"Campiña Sur",
    "CityName":"La Rambla",
    "Population":7547
    }
  },
  {
    "type": "Feature",
    "geometry": {
       "type": "Point",
       "coordinates":  [ -4.8429898,37.5622053 ]
    },
    "properties": {
    "RegionName":"Andalucía",
    "DeptName":"Córdoba",
    "Admin3Name":"Campiña Sur",
    "CityName":"Santaella",
    "Population":6062
    }
  },
  {
    "type": "Feature",
    "geometry": {
       "type": "Point",
       "coordinates":  [ -4.6773317,38.4745984 ]
    },
    "properties": {
    "RegionName":"Andalucía",
    "DeptName":"Córdoba",
    "Admin3Name":"Los Pedroches",
    "CityName":"Torrecampo",
    "Population":1177
    }
  },
  {
    "type": "Feature",
    "geometry": {
       "type": "Point",
       "coordinates":  [ -4.2198803,37.7752325 ]
    },
    "properties": {
    "RegionName":"Andalucía",
    "DeptName":"Córdoba",
    "Admin3Name":"Campiña de Baena",
    "CityName":"Valenzuela",
    "Population":1241
    }
  },
  {
    "type": "Feature",
    "geometry": {
       "type": "Point",
       "coordinates":  [ -4.8507672,37.6813893 ]
    },
    "properties": {
    "RegionName":"Andalucía",
    "DeptName":"Córdoba",
    "Admin3Name":"Campiña Sur",
    "CityName":"La Victoria",
    "Population":2375
    }
  },
  {
    "type": "Feature",
    "geometry": {
       "type": "Point",
       "coordinates":  [ -4.2932066,37.98135 ]
    },
    "properties": {
    "RegionName":"Andalucía",
    "DeptName":"Córdoba",
    "Admin3Name":"Alto Guadalquivir",
    "CityName":"Villa del Río",
    "Population":7403
    }
  },
  {
    "type": "Feature",
    "geometry": {
       "type": "Point",
       "coordinates":  [ -4.5450368,37.9617054 ]
    },
    "properties": {
    "RegionName":"Andalucía",
    "DeptName":"Córdoba",
    "Admin3Name":"Alto Guadalquivir",
    "CityName":"Villafranca de Córdoba",
    "Population":4889
    }
  },
  {
    "type": "Feature",
    "geometry": {
       "type": "Point",
       "coordinates":  [ -4.628506199999999,38.3222465 ]
    },
    "properties": {
    "RegionName":"Andalucía",
    "DeptName":"Córdoba",
    "Admin3Name":"Los Pedroches",
    "CityName":"Villanueva de Córdoba",
    "Population":9141
    }
  },
  {
    "type": "Feature",
    "geometry": {
       "type": "Point",
       "coordinates":  [ -4.998745899999999,38.3931232 ]
    },
    "properties": {
    "RegionName":"Andalucía",
    "DeptName":"Córdoba",
    "Admin3Name":"Los Pedroches",
    "CityName":"Villanueva del Duque",
    "Population":1553
    }
  },
  {
    "type": "Feature",
    "geometry": {
       "type": "Point",
       "coordinates":  [ -5.1516777,38.1978857 ]
    },
    "properties": {
    "RegionName":"Andalucía",
    "DeptName":"Córdoba",
    "Admin3Name":"Valle del Guadiato",
    "CityName":"Villanueva del Rey",
    "Population":1096
    }
  },
  {
    "type": "Feature",
    "geometry": {
       "type": "Point",
       "coordinates":  [ -4.983150699999999,38.4541427 ]
    },
    "properties": {
    "RegionName":"Andalucía",
    "DeptName":"Córdoba",
    "Admin3Name":"Los Pedroches",
    "CityName":"Villaralto",
    "Population":1238
    }
  },
  {
    "type": "Feature",
    "geometry": {
       "type": "Point",
       "coordinates":  [ -5.016945799999999,38.0765607 ]
    },
    "properties": {
    "RegionName":"Andalucía",
    "DeptName":"Córdoba",
    "Admin3Name":"Valle del Guadiato",
    "CityName":"Villaviciosa de Córdoba",
    "Population":3443
    }
  },
  {
    "type": "Feature",
    "geometry": {
       "type": "Point",
       "coordinates":  [ -4.9532721,38.4829438 ]
    },
    "properties": {
    "RegionName":"Andalucía",
    "DeptName":"Córdoba",
    "Admin3Name":"Los Pedroches",
    "CityName":"El Viso",
    "Population":2651
    }
  },
  {
    "type": "Feature",
    "geometry": {
       "type": "Point",
       "coordinates":  [ -8.2979048,43.2191196 ]
    },
    "properties": {
    "RegionName":"Galicia",
    "DeptName":"A Coruña",
    "Admin3Name":"A Coruña",
    "CityName":"Abegondo",
    "Population":5586
    }
  },
  {
    "type": "Feature",
    "geometry": {
       "type": "Point",
       "coordinates":  [ -8.0159731,43.23410130000001 ]
    },
    "properties": {
    "RegionName":"Galicia",
    "DeptName":"A Coruña",
    "Admin3Name":"Betanzos",
    "CityName":"Aranga",
    "Population":1997
    }
  },
  {
    "type": "Feature",
    "geometry": {
       "type": "Point",
       "coordinates":  [ -8.2439095,43.4278913 ]
    },
    "properties": {
    "RegionName":"Galicia",
    "DeptName":"A Coruña",
    "Admin3Name":"Ferrol",
    "CityName":"Ares",
    "Population":5743
    }
  },
  {
    "type": "Feature",
    "geometry": {
       "type": "Point",
       "coordinates":  [ -8.1607836,42.9296884 ]
    },
    "properties": {
    "RegionName":"Galicia",
    "DeptName":"A Coruña",
    "Admin3Name":"Arzúa",
    "CityName":"Arzúa",
    "Population":6219
    }
  },
  {
    "type": "Feature",
    "geometry": {
       "type": "Point",
       "coordinates":  [ -8.7584568,42.9616458 ]
    },
    "properties": {
    "RegionName":"Galicia",
    "DeptName":"A Coruña",
    "Admin3Name":"A Barcala",
    "CityName":"A Baña",
    "Population":3698
    }
  },
  {
    "type": "Feature",
    "geometry": {
       "type": "Point",
       "coordinates":  [ -8.232594299999999,43.3089681 ]
    },
    "properties": {
    "RegionName":"Galicia",
    "DeptName":"A Coruña",
    "Admin3Name":"A Coruña",
    "CityName":"Bergondo",
    "Population":6700
    }
  },
  {
    "type": "Feature",
    "geometry": {
       "type": "Point",
       "coordinates":  [ -8.1338348,43.0007954 ]
    },
    "properties": {
    "RegionName":"Galicia",
    "DeptName":"A Coruña",
    "Admin3Name":"Arzúa",
    "CityName":"Boimorto",
    "Population":2125
    }
  },
  {
    "type": "Feature",
    "geometry": {
       "type": "Point",
       "coordinates":  [ -8.414741,42.81178389999999 ]
    },
    "properties": {
    "RegionName":"Galicia",
    "DeptName":"A Coruña",
    "Admin3Name":"Santiago",
    "CityName":"Boqueixón",
    "Population":4321
    }
  },
  {
    "type": "Feature",
    "geometry": {
       "type": "Point",
       "coordinates":  [ -8.678368899999999,42.8668459 ]
    },
    "properties": {
    "RegionName":"Galicia",
    "DeptName":"A Coruña",
    "Admin3Name":"Santiago",
    "CityName":"Brión",
    "Population":7564
    }
  },
  {
    "type": "Feature",
    "geometry": {
       "type": "Point",
       "coordinates":  [ -8.8914256,43.1860734 ]
    },
    "properties": {
    "RegionName":"Galicia",
    "DeptName":"A Coruña",
    "Admin3Name":"Bergantiños",
    "CityName":"Cabana de Bergantiños",
    "Population":4552
    }
  },
  {
    "type": "Feature",
    "geometry": {
       "type": "Point",
       "coordinates":  [ -8.1682697,43.4126927 ]
    },
    "properties": {
    "RegionName":"Galicia",
    "DeptName":"A Coruña",
    "Admin3Name":"O Eume",
    "CityName":"Cabanas",
    "Population":3299
    }
  },
  {
    "type": "Feature",
    "geometry": {
       "type": "Point",
       "coordinates":  [ -9.1828065,43.1305138 ]
    },
    "properties": {
    "RegionName":"Galicia",
    "DeptName":"A Coruña",
    "Admin3Name":"Terra de Soneira",
    "CityName":"Camariñas",
    "Population":5577
    }
  },
  {
    "type": "Feature",
    "geometry": {
       "type": "Point",
       "coordinates":  [ -7.8760716,43.5093098 ]
    },
    "properties": {
    "RegionName":"Galicia",
    "DeptName":"A Coruña",
    "Admin3Name":"Ferrol",
    "CityName":"A Capela",
    "Population":1334
    }
  },
  {
    "type": "Feature",
    "geometry": {
       "type": "Point",
       "coordinates":  [ -9.088578,42.826818 ]
    },
    "properties": {
    "RegionName":"Galicia",
    "DeptName":"A Coruña",
    "Admin3Name":"Muros",
    "CityName":"Carnota",
    "Population":4284
    }
  },
  {
    "type": "Feature",
    "geometry": {
       "type": "Point",
       "coordinates":  [ -8.3556679,43.2290575 ]
    },
    "properties": {
    "RegionName":"Galicia",
    "DeptName":"A Coruña",
    "Admin3Name":"A Coruña",
    "CityName":"Carral",
    "Population":6180
    }
  },
  {
    "type": "Feature",
    "geometry": {
       "type": "Point",
       "coordinates":  [ -8.0537698,43.6607861 ]
    },
    "properties": {
    "RegionName":"Galicia",
    "DeptName":"A Coruña",
    "Admin3Name":"Ferrol",
    "CityName":"Cedeira",
    "Population":7062
    }
  },
  {
    "type": "Feature",
    "geometry": {
       "type": "Point",
       "coordinates":  [ -9.192,42.9576691 ]
    },
    "properties": {
    "RegionName":"Galicia",
    "DeptName":"A Coruña",
    "Admin3Name":"Fisterra",
    "CityName":"Cee",
    "Population":7723
    }
  },
  {
    "type": "Feature",
    "geometry": {
       "type": "Point",
       "coordinates":  [ -8.4722358,43.1896948 ]
    },
    "properties": {
    "RegionName":"Galicia",
    "DeptName":"A Coruña",
    "Admin3Name":"Ordes",
    "CityName":"Cerceda",
    "Population":5076
    }
  },
  {
    "type": "Feature",
    "geometry": {
       "type": "Point",
       "coordinates":  [ -8.0016114,43.6231881 ]
    },
    "properties": {
    "RegionName":"Galicia",
    "DeptName":"A Coruña",
    "Admin3Name":"Ortegal",
    "CityName":"Cerdido",
    "Population":1233
    }
  },
  {
    "type": "Feature",
    "geometry": {
       "type": "Point",
       "coordinates":  [ -8.1683939,43.2527041 ]
    },
    "properties": {
    "RegionName":"Galicia",
    "DeptName":"A Coruña",
    "Admin3Name":"Betanzos",
    "CityName":"Coirós",
    "Population":1757
    }
  },
  {
    "type": "Feature",
    "geometry": {
       "type": "Point",
       "coordinates":  [ -9.192255500000002,42.9425685 ]
    },
    "properties": {
    "RegionName":"Galicia",
    "DeptName":"A Coruña",
    "Admin3Name":"Fisterra",
    "CityName":"Corcubión",
    "Population":1655
    }
  },
  {
    "type": "Feature",
    "geometry": {
       "type": "Point",
       "coordinates":  [ -8.7609893,43.1904421 ]
    },
    "properties": {
    "RegionName":"Galicia",
    "DeptName":"A Coruña",
    "Admin3Name":"Bergantiños",
    "CityName":"Coristanco",
    "Population":6551
    }
  },
  {
    "type": "Feature",
    "geometry": {
       "type": "Point",
       "coordinates":  [ -8.1459999,43.1253366 ]
    },
    "properties": {
    "RegionName":"Galicia",
    "DeptName":"A Coruña",
    "Admin3Name":"Betanzos",
    "CityName":"Curtis",
    "Population":4015
    }
  },
  {
    "type": "Feature",
    "geometry": {
       "type": "Point",
       "coordinates":  [ -8.715083100000001,42.7168491 ]
    },
    "properties": {
    "RegionName":"Galicia",
    "DeptName":"A Coruña",
    "Admin3Name":"O Sar",
    "CityName":"Dodro",
    "Population":2882
    }
  },
  {
    "type": "Feature",
    "geometry": {
       "type": "Point",
       "coordinates":  [ -9.118527799999999,43.0121815 ]
    },
    "properties": {
    "RegionName":"Galicia",
    "DeptName":"A Coruña",
    "Admin3Name":"Fisterra",
    "CityName":"Dumbría",
    "Population":3077
    }
  },
  {
    "type": "Feature",
    "geometry": {
       "type": "Point",
       "coordinates":  [ -9.2650315,42.9078005 ]
    },
    "properties": {
    "RegionName":"Galicia",
    "DeptName":"A Coruña",
    "Admin3Name":"Fisterra",
    "CityName":"Fisterra",
    "Population":4775
    }
  },
  {
    "type": "Feature",
    "geometry": {
       "type": "Point",
       "coordinates":  [ -8.293899999999999,43.0501896 ]
    },
    "properties": {
    "RegionName":"Galicia",
    "DeptName":"A Coruña",
    "Admin3Name":"Ordes",
    "CityName":"Frades",
    "Population":2460
    }
  },
  {
    "type": "Feature",
    "geometry": {
       "type": "Point",
       "coordinates":  [ -8.0603832,43.2851928 ]
    },
    "properties": {
    "RegionName":"Galicia",
    "DeptName":"A Coruña",
    "Admin3Name":"Betanzos",
    "CityName":"Irixoa",
    "Population":1389
    }
  },
  {
    "type": "Feature",
    "geometry": {
       "type": "Point",
       "coordinates":  [ -9.0063506,43.2212167 ]
    },
    "properties": {
    "RegionName":"Galicia",
    "DeptName":"A Coruña",
    "Admin3Name":"Bergantiños",
    "CityName":"Laxe",
    "Population":3185
    }
  },
  {
    "type": "Feature",
    "geometry": {
       "type": "Point",
       "coordinates":  [ -8.8460632,42.77158499999999 ]
    },
    "properties": {
    "RegionName":"Galicia",
    "DeptName":"A Coruña",
    "Admin3Name":"Noia",
    "CityName":"Lousame",
    "Population":3463
    }
  },
  {
    "type": "Feature",
    "geometry": {
       "type": "Point",
       "coordinates":  [ -8.803204200000001,43.2889461 ]
    },
    "properties": {
    "RegionName":"Galicia",
    "DeptName":"A Coruña",
    "Admin3Name":"Bergantiños",
    "CityName":"Malpica de Bergantiños",
    "Population":5666
    }
  },
  {
    "type": "Feature",
    "geometry": {
       "type": "Point",
       "coordinates":  [ -7.730807,43.6537247 ]
    },
    "properties": {
    "RegionName":"Galicia",
    "DeptName":"A Coruña",
    "Admin3Name":"Ortegal",
    "CityName":"Mañón",
    "Population":1454
    }
  },
  {
    "type": "Feature",
    "geometry": {
       "type": "Point",
       "coordinates":  [ -8.9923492,42.9398891 ]
    },
    "properties": {
    "RegionName":"Galicia",
    "DeptName":"A Coruña",
    "Admin3Name":"Xallas",
    "CityName":"Mazaricos",
    "Population":4173
    }
  },
  {
    "type": "Feature",
    "geometry": {
       "type": "Point",
       "coordinates":  [ -8.0146915,42.9139507 ]
    },
    "properties": {
    "RegionName":"Galicia",
    "DeptName":"A Coruña",
    "Admin3Name":"Terra de Melide",
    "CityName":"Melide",
    "Population":7538
    }
  },
  {
    "type": "Feature",
    "geometry": {
       "type": "Point",
       "coordinates":  [ -8.2723859,43.11352890000001 ]
    },
    "properties": {
    "RegionName":"Galicia",
    "DeptName":"A Coruña",
    "Admin3Name":"Ordes",
    "CityName":"Mesía",
    "Population":2734
    }
  },
  {
    "type": "Feature",
    "geometry": {
       "type": "Point",
       "coordinates":  [ -8.2040089,43.34766459999999 ]
    },
    "properties": {
    "RegionName":"Galicia",
    "DeptName":"A Coruña",
    "Admin3Name":"Betanzos",
    "CityName":"Miño",
    "Population":5859
    }
  },
  {
    "type": "Feature",
    "geometry": {
       "type": "Point",
       "coordinates":  [ -7.9701846,43.5608713 ]
    },
    "properties": {
    "RegionName":"Galicia",
    "DeptName":"A Coruña",
    "Admin3Name":"Ferrol",
    "CityName":"Moeche",
    "Population":1246
    }
  },
  {
    "type": "Feature",
    "geometry": {
       "type": "Point",
       "coordinates":  [ -8.0558675,43.3344456 ]
    },
    "properties": {
    "RegionName":"Galicia",
    "DeptName":"A Coruña",
    "Admin3Name":"O Eume",
    "CityName":"Monfero",
    "Population":2037
    }
  },
  {
    "type": "Feature",
    "geometry": {
       "type": "Point",
       "coordinates":  [ -8.255815499999999,43.45994659999999 ]
    },
    "properties": {
    "RegionName":"Galicia",
    "DeptName":"A Coruña",
    "Admin3Name":"Ferrol",
    "CityName":"Mugardos",
    "Population":5362
    }
  },
  {
    "type": "Feature",
    "geometry": {
       "type": "Point",
       "coordinates":  [ -9.218291299999999,43.1041888 ]
    },
    "properties": {
    "RegionName":"Galicia",
    "DeptName":"A Coruña",
    "Admin3Name":"Fisterra",
    "CityName":"Muxía",
    "Population":5025
    }
  },
  {
    "type": "Feature",
    "geometry": {
       "type": "Point",
       "coordinates":  [ -9.057855199999999,42.7746007 ]
    },
    "properties": {
    "RegionName":"Galicia",
    "DeptName":"A Coruña",
    "Admin3Name":"Muros",
    "CityName":"Muros",
    "Population":8960
    }
  },
  {
    "type": "Feature",
    "geometry": {
       "type": "Point",
       "coordinates":  [ -8.1579038,43.4994218 ]
    },
    "properties": {
    "RegionName":"Galicia",
    "DeptName":"A Coruña",
    "Admin3Name":"Ferrol",
    "CityName":"Neda",
    "Population":5261
    }
  },
  {
    "type": "Feature",
    "geometry": {
       "type": "Point",
       "coordinates":  [ -8.7362547,42.9104919 ]
    },
    "properties": {
    "RegionName":"Galicia",
    "DeptName":"A Coruña",
    "Admin3Name":"A Barcala",
    "CityName":"Negreira",
    "Population":6936
    }
  },
  {
    "type": "Feature",
    "geometry": {
       "type": "Point",
       "coordinates":  [ -8.3636131,42.9948236 ]
    },
    "properties": {
    "RegionName":"Galicia",
    "DeptName":"A Coruña",
    "Admin3Name":"Ordes",
    "CityName":"Oroso",
    "Population":7413
    }
  },
  {
    "type": "Feature",
    "geometry": {
       "type": "Point",
       "coordinates":  [ -7.8521653,43.6831622 ]
    },
    "properties": {
    "RegionName":"Galicia",
    "DeptName":"A Coruña",
    "Admin3Name":"Ortegal",
    "CityName":"Ortigueira",
    "Population":6136
    }
  },
  {
    "type": "Feature",
    "geometry": {
       "type": "Point",
       "coordinates":  [ -8.9268962,42.85042809999999 ]
    },
    "properties": {
    "RegionName":"Galicia",
    "DeptName":"A Coruña",
    "Admin3Name":"Noia",
    "CityName":"Outes",
    "Population":6691
    }
  },
  {
    "type": "Feature",
    "geometry": {
       "type": "Point",
       "coordinates":  [ -8.1762576,43.2856957 ]
    },
    "properties": {
    "RegionName":"Galicia",
    "DeptName":"A Coruña",
    "Admin3Name":"Betanzos",
    "CityName":"Paderne",
    "Population":2467
    }
  },
  {
    "type": "Feature",
    "geometry": {
       "type": "Point",
       "coordinates":  [ -8.660772999999999,42.7381172 ]
    },
    "properties": {
    "RegionName":"Galicia",
    "DeptName":"A Coruña",
    "Admin3Name":"O Sar",
    "CityName":"Padrón",
    "Population":8643
    }
  },
  {
    "type": "Feature",
    "geometry": {
       "type": "Point",
       "coordinates":  [ -8.3330345,42.9359076 ]
    },
    "properties": {
    "RegionName":"Galicia",
    "DeptName":"A Coruña",
    "Admin3Name":"Arzúa",
    "CityName":"O Pino",
    "Population":4706
    }
  },
  {
    "type": "Feature",
    "geometry": {
       "type": "Point",
       "coordinates":  [ -8.938689900000002,42.6031661 ]
    },
    "properties": {
    "RegionName":"Galicia",
    "DeptName":"A Coruña",
    "Admin3Name":"A Barbanza",
    "CityName":"A Pobra do Caramiñal",
    "Population":9623
    }
  },
  {
    "type": "Feature",
    "geometry": {
       "type": "Point",
       "coordinates":  [ -8.9004494,43.2428943 ]
    },
    "properties": {
    "RegionName":"Galicia",
    "DeptName":"A Coruña",
    "Admin3Name":"Bergantiños",
    "CityName":"Ponteceso",
    "Population":5789
    }
  },
  {
    "type": "Feature",
    "geometry": {
       "type": "Point",
       "coordinates":  [ -8.1699094,43.4074479 ]
    },
    "properties": {
    "RegionName":"Galicia",
    "DeptName":"A Coruña",
    "Admin3Name":"O Eume",
    "CityName":"Pontedeume",
    "Population":8011
    }
  },
  {
    "type": "Feature",
    "geometry": {
       "type": "Point",
       "coordinates":  [ -9.0059861,42.7245572 ]
    },
    "properties": {
    "RegionName":"Galicia",
    "DeptName":"A Coruña",
    "Admin3Name":"Noia",
    "CityName":"Porto do Son",
    "Population":9436
    }
  },
  {
    "type": "Feature",
    "geometry": {
       "type": "Point",
       "coordinates":  [ -8.7073429,42.76244699999999 ]
    },
    "properties": {
    "RegionName":"Galicia",
    "DeptName":"A Coruña",
    "Admin3Name":"O Sar",
    "CityName":"Rois",
    "Population":4710
    }
  },
  {
    "type": "Feature",
    "geometry": {
       "type": "Point",
       "coordinates":  [ -2.078777,37.6496854 ]
    },
    "properties": {
    "RegionName":"Andalucía",
    "DeptName":"Almería",
    "Admin3Name":"Los Vélez",
    "CityName":"Vélez-Rubio",
    "Population":6767
    }
  },
  {
    "type": "Feature",
    "geometry": {
       "type": "Point",
       "coordinates":  [ -2.424577,36.8878108 ]
    },
    "properties": {
    "RegionName":"Andalucía",
    "DeptName":"Almería",
    "Admin3Name":"Metropolitana de Almería",
    "CityName":"Viator",
    "Population":5698
    }
  },
  {
    "type": "Feature",
    "geometry": {
       "type": "Point",
       "coordinates":  [ -2.0401779,37.3418279 ]
    },
    "properties": {
    "RegionName":"Andalucía",
    "DeptName":"Almería",
    "Admin3Name":"Valle del Almanzora",
    "CityName":"Zurgena",
    "Population":3030
    }
  },
  {
    "type": "Feature",
    "geometry": {
       "type": "Point",
       "coordinates":  [ -2.6822356,36.7531816 ]
    },
    "properties": {
    "RegionName":"Andalucía",
    "DeptName":"Almería",
    "Admin3Name":"Poniente Almeriense",
    "CityName":"La Mojonera",
    "Population":8963
    }
  },
  {
    "type": "Feature",
    "geometry": {
       "type": "Point",
       "coordinates":  [ -4.6365342,40.2995582 ]
    },
    "properties": {
    "RegionName":"Castilla y León",
    "DeptName":"Ávila",
    "Admin3Name":"Arenas de San Pedro",
    "CityName":"La Adrada",
    "Population":2640
    }
  },
  {
    "type": "Feature",
    "geometry": {
       "type": "Point",
       "coordinates":  [ -5.0514,40.1553 ]
    },
    "properties": {
    "RegionName":"Castilla y León",
    "DeptName":"Ávila",
    "Admin3Name":"Arenas de San Pedro",
    "CityName":"El Arenal",
    "Population":1011
    }
  },
  {
    "type": "Feature",
    "geometry": {
       "type": "Point",
       "coordinates":  [ -5.083295199999999,40.210266 ]
    },
    "properties": {
    "RegionName":"Castilla y León",
    "DeptName":"Ávila",
    "Admin3Name":"Arenas de San Pedro",
    "CityName":"Arenas de San Pedro",
    "Population":6671
    }
  },
  {
    "type": "Feature",
    "geometry": {
       "type": "Point",
       "coordinates":  [ -4.7187424,41.058981 ]
    },
    "properties": {
    "RegionName":"Castilla y León",
    "DeptName":"Ávila",
    "Admin3Name":"La Moraña",
    "CityName":"Arévalo",
    "Population":8172
    }
  },
  {
    "type": "Feature",
    "geometry": {
       "type": "Point",
       "coordinates":  [ -5.5236746,40.3569063 ]
    },
    "properties": {
    "RegionName":"Castilla y León",
    "DeptName":"Ávila",
    "Admin3Name":"El Barco de Ávila - Piedrahíta (Alto Tormes y Valle del Corneja)",
    "CityName":"El Barco de Ávila",
    "Population":2576
    }
  },
  {
    "type": "Feature",
    "geometry": {
       "type": "Point",
       "coordinates":  [ -4.643743499999999,40.4768722 ]
    },
    "properties": {
    "RegionName":"Castilla y León",
    "DeptName":"Ávila",
    "Admin3Name":"Burgohondo - el Tiemblo - Cebreros (Valle del Alberche y Tierra de Pinares)",
    "CityName":"El Barraco",
    "Population":1968
    }
  },
  {
    "type": "Feature",
    "geometry": {
       "type": "Point",
       "coordinates":  [ -4.7859886,40.4126337 ]
    },
    "properties": {
    "RegionName":"Castilla y León",
    "DeptName":"Ávila",
    "Admin3Name":"Burgohondo - el Tiemblo - Cebreros (Valle del Alberche y Tierra de Pinares)",
    "CityName":"Burgohondo",
    "Population":1228
    }
  },
  {
    "type": "Feature",
    "geometry": {
       "type": "Point",
       "coordinates":  [ -5.243635400000001,40.1559244 ]
    },
    "properties": {
    "RegionName":"Castilla y León",
    "DeptName":"Ávila",
    "Admin3Name":"Arenas de San Pedro",
    "CityName":"Candeleda",
    "Population":5104
    }
  },
  {
    "type": "Feature",
    "geometry": {
       "type": "Point",
       "coordinates":  [ -4.7678642,40.2835768 ]
    },
    "properties": {
    "RegionName":"Castilla y León",
    "DeptName":"Ávila",
    "Admin3Name":"Arenas de San Pedro",
    "CityName":"Casavieja",
    "Population":1507
    }
  },
  {
    "type": "Feature",
    "geometry": {
       "type": "Point",
       "coordinates":  [ -4.4642944,40.4610187 ]
    },
    "properties": {
    "RegionName":"Castilla y León",
    "DeptName":"Ávila",
    "Admin3Name":"Burgohondo - el Tiemblo - Cebreros (Valle del Alberche y Tierra de Pinares)",
    "CityName":"Cebreros",
    "Population":3232
    }
  },
  {
    "type": "Feature",
    "geometry": {
       "type": "Point",
       "coordinates":  [ -4.422067300000001,40.5007886 ]
    },
    "properties": {
    "RegionName":"Castilla y León",
    "DeptName":"Ávila",
    "Admin3Name":"Burgohondo - el Tiemblo - Cebreros (Valle del Alberche y Tierra de Pinares)",
    "CityName":"El Hoyo de Pinares",
    "Population":2308
    }
  },
  {
    "type": "Feature",
    "geometry": {
       "type": "Point",
       "coordinates":  [ -4.9980028,41.0900993 ]
    },
    "properties": {
    "RegionName":"Castilla y León",
    "DeptName":"Ávila",
    "Admin3Name":"La Moraña",
    "CityName":"Madrigal de las Altas Torres",
    "Population":1524
    }
  },
  {
    "type": "Feature",
    "geometry": {
       "type": "Point",
       "coordinates":  [ -5.016945799999999,40.2603205 ]
    },
    "properties": {
    "RegionName":"Castilla y León",
    "DeptName":"Ávila",
    "Admin3Name":"Arenas de San Pedro",
    "CityName":"Mombeltrán",
    "Population":1171
    }
  },
  {
    "type": "Feature",
    "geometry": {
       "type": "Point",
       "coordinates":  [ -4.7044758,40.4096173 ]
    },
    "properties": {
    "RegionName":"Castilla y León",
    "DeptName":"Ávila",
    "Admin3Name":"Burgohondo - el Tiemblo - Cebreros (Valle del Alberche y Tierra de Pinares)",
    "CityName":"Navaluenga",
    "Population":2017
    }
  },
  {
    "type": "Feature",
    "geometry": {
       "type": "Point",
       "coordinates":  [ -4.3333954,40.60182760000001 ]
    },
    "properties": {
    "RegionName":"Castilla y León",
    "DeptName":"Ávila",
    "Admin3Name":"Burgohondo - el Tiemblo - Cebreros (Valle del Alberche y Tierra de Pinares)",
    "CityName":"Las Navas del Marqués",
    "Population":5420
    }
  },
  {
    "type": "Feature",
    "geometry": {
       "type": "Point",
       "coordinates":  [ -5.3272431,40.46520690000001 ]
    },
    "properties": {
    "RegionName":"Castilla y León",
    "DeptName":"Ávila",
    "Admin3Name":"El Barco de Ávila - Piedrahíta (Alto Tormes y Valle del Corneja)",
    "CityName":"Piedrahíta",
    "Population":1884
    }
  },
  {
    "type": "Feature",
    "geometry": {
       "type": "Point",
       "coordinates":  [ -4.698011699999999,40.3169978 ]
    },
    "properties": {
    "RegionName":"Castilla y León",
    "DeptName":"Ávila",
    "Admin3Name":"Arenas de San Pedro",
    "CityName":"Piedralaves",
    "Population":2208
    }
  },
  {
    "type": "Feature",
    "geometry": {
       "type": "Point",
       "coordinates":  [ -4.5804989,40.2924071 ]
    },
    "properties": {
    "RegionName":"Castilla y León",
    "DeptName":"Ávila",
    "Admin3Name":"Arenas de San Pedro",
    "CityName":"Sotillo de la Adrada",
    "Population":4652
    }
  },
  {
    "type": "Feature",
    "geometry": {
       "type": "Point",
       "coordinates":  [ -4.4993148,40.4130828 ]
    },
    "properties": {
    "RegionName":"Castilla y León",
    "DeptName":"Ávila",
    "Admin3Name":"Burgohondo - el Tiemblo - Cebreros (Valle del Alberche y Tierra de Pinares)",
    "CityName":"El Tiemblo",
    "Population":4231
    }
  },
  {
    "type": "Feature",
    "geometry": {
       "type": "Point",
       "coordinates":  [ -6.4863159,38.6474924 ]
    },
    "properties": {
    "RegionName":"Extremadura",
    "DeptName":"Badajoz",
    "Admin3Name":"Tierra de Barros",
    "CityName":"Aceuchal",
    "Population":5471
    }
  },
  {
    "type": "Feature",
    "geometry": {
       "type": "Point",
       "coordinates":  [ -6.2442321,38.7858797 ]
    },
    "properties": {
    "RegionName":"Extremadura",
    "DeptName":"Badajoz",
    "Admin3Name":"Tierra de Mérida - Vegas Bajas",
    "CityName":"Alange",
    "Population":1914
    }
  },
  {
    "type": "Feature",
    "geometry": {
       "type": "Point",
       "coordinates":  [ -6.823041399999999,38.7170277 ]
    },
    "properties": {
    "RegionName":"Extremadura",
    "DeptName":"Badajoz",
    "Admin3Name":"Tierra de Badajoz",
    "CityName":"La Albuera",
    "Population":2046
    }
  },
  {
    "type": "Feature",
    "geometry": {
       "type": "Point",
       "coordinates":  [ -7.0000241,39.2192059 ]
    },
    "properties": {
    "RegionName":"Extremadura",
    "DeptName":"Badajoz",
    "Admin3Name":"Tierra de Badajoz",
    "CityName":"Alburquerque",
    "Population":5486
    }
  },
  {
    "type": "Feature",
    "geometry": {
       "type": "Point",
       "coordinates":  [ -7.0700124,38.5170106 ]
    },
    "properties": {
    "RegionName":"Extremadura",
    "DeptName":"Badajoz",
    "Admin3Name":"Llanos de Olivenza",
    "CityName":"Alconchel",
    "Population":1790
    }
  },
  {
    "type": "Feature",
    "geometry": {
       "type": "Point",
       "coordinates":  [ -6.821031899999999,38.6134369 ]
    },
    "properties": {
    "RegionName":"Extremadura",
    "DeptName":"Badajoz",
    "Admin3Name":"Llanos de Olivenza",
    "CityName":"Almendral",
    "Population":1296
    }
  },
  {
    "type": "Feature",
    "geometry": {
       "type": "Point",
       "coordinates":  [ -6.453007299999999,38.8539696 ]
    },
    "properties": {
    "RegionName":"Extremadura",
    "DeptName":"Badajoz",
    "Admin3Name":"Tierra de Mérida - Vegas Bajas",
    "CityName":"Arroyo de San Serván",
    "Population":4175
    }
  },