{
   "type": "FeatureCollection",
   "features": [
  {
    "type": "Feature",
    "geometry": {
       "type": "Point",
       "coordinates":  [ 2.005269,48.8301019 ]
    },
    "properties": {
    "RegionName":"Île-de-France",
    "DeptName":"Yvelines",
    "CityName":"Villepreux",
    "Population":9975,
    "TextPosition":"default"
    }
  },
  {
    "type": "Feature",
    "geometry": {
       "type": "Point",
       "coordinates":  [ 0.353031,46.597823 ]
    },
    "properties": {
    "RegionName":"Aquitaine Limousin Poitou-Charentes",
    "DeptName":"Vienne",
    "CityName":"Buxerolles",
    "Population":9974,
    "TextPosition":"default"
    }
  },
  {
    "type": "Feature",
    "geometry": {
       "type": "Point",
       "coordinates":  [ 6.34964,48.623019 ]
    },
    "properties": {
    "RegionName":"Lorraine",
    "DeptName":"Meurthe-et-Moselle",
    "CityName":"Dombasle-sur-Meurthe",
    "Population":9953,
    "TextPosition":"default"
    }
  },
  {
    "type": "Feature",
    "geometry": {
       "type": "Point",
       "coordinates":  [ -0.976619,44.642114 ]
    },
    "properties": {
    "RegionName":"Aquitaine Limousin Poitou-Charentes",
    "DeptName":"Gironde",
    "CityName":"Biganos",
    "Population":9950,
    "TextPosition":"default"
    }
  },
  {
    "type": "Feature",
    "geometry": {
       "type": "Point",
       "coordinates":  [ 2.506288,49.043002 ]
    },
    "properties": {
    "RegionName":"Île-de-France",
    "DeptName":"Val-d'Oise",
    "CityName":"Louvres",
    "Population":9949,
    "TextPosition":"default"
    }
  },
  {
    "type": "Feature",
    "geometry": {
       "type": "Point",
       "coordinates":  [ 2.396187,50.638757 ]
    },
    "properties": {
    "RegionName":"Nord-Pas-de-Calais Picardie",
    "DeptName":"Pas-de-Calais",
    "CityName":"Aire-sur-la-Lys",
    "Population":9947,
    "TextPosition":"default"
    }
  },
  {
    "type": "Feature",
    "geometry": {
       "type": "Point",
       "coordinates":  [ 6.972497,43.6203689 ]
    },
    "properties": {
    "RegionName":"Provence-Alpes-Côte d'Azur",
    "DeptName":"Alpes-Maritimes",
    "CityName":"Mouans-Sartoux",
    "Population":9941,
    "TextPosition":"default"
    }
  },
  {
    "type": "Feature",
    "geometry": {
       "type": "Point",
       "coordinates":  [ -0.677914,44.873167 ]
    },
    "properties": {
    "RegionName":"Aquitaine Limousin Poitou-Charentes",
    "DeptName":"Gironde",
    "CityName":"Le Haillan",
    "Population":9939,
    "TextPosition":"default"
    }
  },
  {
    "type": "Feature",
    "geometry": {
       "type": "Point",
       "coordinates":  [ 1.007075,49.357383 ]
    },
    "properties": {
    "RegionName":"Normandie",
    "DeptName":"Seine-Maritime",
    "CityName":"Grand-Couronne",
    "Population":9937,
    "TextPosition":"default"
    }
  },
  {
    "type": "Feature",
    "geometry": {
       "type": "Point",
       "coordinates":  [ 2.2948,50.73387 ]
    },
    "properties": {
    "RegionName":"Nord-Pas-de-Calais Picardie",
    "DeptName":"Pas-de-Calais",
    "CityName":"Arques",
    "Population":9936,
    "TextPosition":"default"
    }
  },
  {
    "type": "Feature",
    "geometry": {
       "type": "Point",
       "coordinates":  [ 3.022911,42.546214 ]
    },
    "properties": {
    "RegionName":"Languedoc-Roussillon",
    "DeptName":"Pyrénées-Orientales",
    "CityName":"Argelès-sur-Mer",
    "Population":9914,
    "TextPosition":"default"
    }
  },
  {
    "type": "Feature",
    "geometry": {
       "type": "Point",
       "coordinates":  [ 6.072284,43.096777 ]
    },
    "properties": {
    "RegionName":"Provence-Alpes-Côte d'Azur",
    "DeptName":"Var",
    "CityName":"Carqueiranne",
    "Population":9905,
    "TextPosition":"default"
    }
  },
  {
    "type": "Feature",
    "geometry": {
       "type": "Point",
       "coordinates":  [ 3.0996959,50.709069 ]
    },
    "properties": {
    "RegionName":"Nord-Pas-de-Calais Picardie",
    "DeptName":"Nord",
    "CityName":"Bondues",
    "Population":9904,
    "TextPosition":"default"
    }
  },
  {
    "type": "Feature",
    "geometry": {
       "type": "Point",
       "coordinates":  [ 4.100791,50.296322 ]
    },
    "properties": {
    "RegionName":"Nord-Pas-de-Calais Picardie",
    "DeptName":"Nord",
    "CityName":"Jeumont",
    "Population":9897,
    "TextPosition":"default"
    }
  },
  {
    "type": "Feature",
    "geometry": {
       "type": "Point",
       "coordinates":  [ 6.758916,47.57524 ]
    },
    "properties": {
    "RegionName":"Bourgogne Franche-Comté",
    "DeptName":"Haute-Saône",
    "CityName":"Héricourt",
    "Population":9896,
    "TextPosition":"default"
    }
  },
  {
    "type": "Feature",
    "geometry": {
       "type": "Point",
       "coordinates":  [ 3.568612,50.458671 ]
    },
    "properties": {
    "RegionName":"Nord-Pas-de-Calais",
    "DeptName":"Nord",
    "CityName":"Vieux-Condé",
    "Population":9877,
    "TextPosition":"default"
    }
  },
  {
    "type": "Feature",
    "geometry": {
       "type": "Point",
       "coordinates":  [ 3.547647,50.346445 ]
    },
    "properties": {
    "RegionName":"Nord-Pas-de-Calais Picardie",
    "DeptName":"Nord",
    "CityName":"Marly",
    "Population":9861,
    "TextPosition":"default"
    }
  },
  {
    "type": "Feature",
    "geometry": {
       "type": "Point",
       "coordinates":  [ 3.052377,50.68752 ]
    },
    "properties": {
    "RegionName":"Nord-Pas-de-Calais Picardie",
    "DeptName":"Nord",
    "CityName":"Wambrechies",
    "Population":9854,
    "TextPosition":"default"
    }
  },
  {
    "type": "Feature",
    "geometry": {
       "type": "Point",
       "coordinates":  [ 2.989793,42.773217 ]
    },
    "properties": {
    "RegionName":"Languedoc-Roussillon Midi-Pyrénées",
    "DeptName":"Pyrénées-Orientales",
    "CityName":"Saint-Laurent-de-la-Salanque",
    "Population":9851,
    "TextPosition":"default"
    }
  },
  {
    "type": "Feature",
    "geometry": {
       "type": "Point",
       "coordinates":  [ 4.2620909,45.5264318 ]
    },
    "properties": {
    "RegionName":"Auvergne Rhône-Alpes",
    "DeptName":"Loire",
    "CityName":"Andrézieux-Bouthéon",
    "Population":9844,
    "TextPosition":"default"
    }
  },
  {
    "type": "Feature",
    "geometry": {
       "type": "Point",
       "coordinates":  [ -2.055125,48.633024 ]
    },
    "properties": {
    "RegionName":"Bretagne",
    "DeptName":"Ille-et-Vilaine",
    "CityName":"Dinard",
    "Population":9839,
    "TextPosition":"default"
    }
  },
  {
    "type": "Feature",
    "geometry": {
       "type": "Point",
       "coordinates":  [ 4.9719179,45.743527 ]
    },
    "properties": {
    "RegionName":"Rhone-Alpes",
    "DeptName":"Rhône",
    "CityName":"Chassieu",
    "Population":9837,
    "TextPosition":"default"
    }
  },
  {
    "type": "Feature",
    "geometry": {
       "type": "Point",
       "coordinates":  [ 2.032871,44.608288 ]
    },
    "properties": {
    "RegionName":"Languedoc-Roussillon Midi-Pyrénées",
    "DeptName":"Lot",
    "CityName":"Figeac",
    "Population":9826,
    "TextPosition":"default"
    }
  },
  {
    "type": "Feature",
    "geometry": {
       "type": "Point",
       "coordinates":  [ 2.244301,49.165882 ]
    },
    "properties": {
    "RegionName":"Nord-Pas-de-Calais Picardie",
    "DeptName":"Oise",
    "CityName":"Chambly",
    "Population":9817,
    "TextPosition":"default"
    }
  },
  {
    "type": "Feature",
    "geometry": {
       "type": "Point",
       "coordinates":  [ 4.831343,43.788652 ]
    },
    "properties": {
    "RegionName":"Provence-Alpes-Côte d'Azur",
    "DeptName":"Bouches-du-Rhone",
    "CityName":"Saint-Rémy-de-Provence",
    "Population":9798,
    "TextPosition":"default"
    }
  },
  {
    "type": "Feature",
    "geometry": {
       "type": "Point",
       "coordinates":  [ 6.165043,48.711211 ]
    },
    "properties": {
    "RegionName":"Alsace-Champagne-Ardenne-Lorraine",
    "DeptName":"Meurthe-et-Moselle",
    "CityName":"Maxéville",
    "Population":9796,
    "TextPosition":"default"
    }
  },
  {
    "type": "Feature",
    "geometry": {
       "type": "Point",
       "coordinates":  [ 5.150567,43.631049 ]
    },
    "properties": {
    "RegionName":"Provence-Alpes-Côte d'Azur",
    "DeptName":"Bouches-du-Rhone",
    "CityName":"Pélissanne",
    "Population":9763,
    "TextPosition":"default"
    }
  },
  {
    "type": "Feature",
    "geometry": {
       "type": "Point",
       "coordinates":  [ 2.5193121,48.606394 ]
    },
    "properties": {
    "RegionName":"Île-de-France",
    "DeptName":"Essonne",
    "CityName":"Saint-Pierre-du-Perray",
    "Population":9758,
    "TextPosition":"default"
    }
  },
  {
    "type": "Feature",
    "geometry": {
       "type": "Point",
       "coordinates":  [ -0.59709,44.727859 ]
    },
    "properties": {
    "RegionName":"Aquitaine Limousin Poitou-Charentes",
    "DeptName":"Gironde",
    "CityName":"Léognan",
    "Population":9749,
    "TextPosition":"default"
    }
  },
  {
    "type": "Feature",
    "geometry": {
       "type": "Point",
       "coordinates":  [ 3.593407,50.448651 ]
    },
    "properties": {
    "RegionName":"Nord-Pas-de-Calais",
    "DeptName":"Nord",
    "CityName":"Condé-sur-l'Escaut",
    "Population":9741,
    "TextPosition":"default"
    }
  },
  {
    "type": "Feature",
    "geometry": {
       "type": "Point",
       "coordinates":  [ 4.884814,44.875215 ]
    },
    "properties": {
    "RegionName":"Auvergne Rhône-Alpes",
    "DeptName":"Drome",
    "CityName":"Portes-lès-Valence",
    "Population":9740,
    "TextPosition":"default"
    }
  },
  {
    "type": "Feature",
    "geometry": {
       "type": "Point",
       "coordinates":  [ 1.605232,42.964127 ]
    },
    "properties": {
    "RegionName":"Languedoc-Roussillon Midi-Pyrénées",
    "DeptName":"Ariege",
    "CityName":"Foix",
    "Population":9731,
    "TextPosition":"default"
    }
  },
  {
    "type": "Feature",
    "geometry": {
       "type": "Point",
       "coordinates":  [ 2.163977,48.696893 ]
    },
    "properties": {
    "RegionName":"Île-de-France",
    "DeptName":"Essonne",
    "CityName":"Bures-sur-Yvette",
    "Population":9725,
    "TextPosition":"default"
    }
  },
  {
    "type": "Feature",
    "geometry": {
       "type": "Point",
       "coordinates":  [ 6.2064199,48.705512 ]
    },
    "properties": {
    "RegionName":"Alsace-Champagne-Ardenne-Lorraine",
    "DeptName":"Meurthe-et-Moselle",
    "CityName":"Saint-Max",
    "Population":9719,
    "TextPosition":"default"
    }
  },
  {
    "type": "Feature",
    "geometry": {
       "type": "Point",
       "coordinates":  [ 3.110678,45.751175 ]
    },
    "properties": {
    "RegionName":"Auvergne Rhône-Alpes",
    "DeptName":"Puy-de-Dome",
    "CityName":"Aubière",
    "Population":9717,
    "TextPosition":"default"
    }
  },
  {
    "type": "Feature",
    "geometry": {
       "type": "Point",
       "coordinates":  [ 2.639274,50.642989 ]
    },
    "properties": {
    "RegionName":"Nord-Pas-de-Calais Picardie",
    "DeptName":"Nord",
    "CityName":"Merville",
    "Population":9713,
    "TextPosition":"default"
    }
  },
  {
    "type": "Feature",
    "geometry": {
       "type": "Point",
       "coordinates":  [ 2.991651,50.4636179 ]
    },
    "properties": {
    "RegionName":"Nord-Pas-de-Calais Picardie",
    "DeptName":"Pas-de-Calais",
    "CityName":"Oignies",
    "Population":9712,
    "TextPosition":"default"
    }
  },
  {
    "type": "Feature",
    "geometry": {
       "type": "Point",
       "coordinates":  [ -2.752021,48.176274 ]
    },
    "properties": {
    "RegionName":"Bretagne",
    "DeptName":"Cotes-d'Armor",
    "CityName":"Loudéac",
    "Population":9711,
    "TextPosition":"default"
    }
  },
  {
    "type": "Feature",
    "geometry": {
       "type": "Point",
       "coordinates":  [ 2.313835,45.548905 ]
    },
    "properties": {
    "RegionName":"Aquitaine Limousin Poitou-Charentes",
    "DeptName":"Correze",
    "CityName":"Ussel",
    "Population":9702,
    "TextPosition":"default"
    }
  },
  {
    "type": "Feature",
    "geometry": {
       "type": "Point",
       "coordinates":  [ 5.117044,47.312494 ]
    },
    "properties": {
    "RegionName":"Bourgogne Franche-Comté",
    "DeptName":"Côte-d'Or",
    "CityName":"Quetigny",
    "Population":9699,
    "TextPosition":"default"
    }
  },
  {
    "type": "Feature",
    "geometry": {
       "type": "Point",
       "coordinates":  [ 1.983023,48.973699 ]
    },
    "properties": {
    "RegionName":"Île-de-France",
    "DeptName":"Yvelines",
    "CityName":"Vernouillet",
    "Population":9698,
    "TextPosition":"default"
    }
  },
  {
    "type": "Feature",
    "geometry": {
       "type": "Point",
       "coordinates":  [ 1.428006,43.693262 ]
    },
    "properties": {
    "RegionName":"Languedoc-Roussillon Midi-Pyrénées",
    "DeptName":"Haute-Garonne",
    "CityName":"Castelginest",
    "Population":9691,
    "TextPosition":"default"
    }
  },
  {
    "type": "Feature",
    "geometry": {
       "type": "Point",
       "coordinates":  [ 3.398961,47.981432 ]
    },
    "properties": {
    "RegionName":"Bourgogne Franche-Comté",
    "DeptName":"Yonne",
    "CityName":"Joigny",
    "Population":9690,
    "TextPosition":"default"
    }
  },
  {
    "type": "Feature",
    "geometry": {
       "type": "Point",
       "coordinates":  [ 2.16075,44.0500339 ]
    },
    "properties": {
    "RegionName":"Languedoc-Roussillon Midi-Pyrénées",
    "DeptName":"Tarn",
    "CityName":"Carmaux",
    "Population":9688,
    "TextPosition":"default"
    }
  },
  {
    "type": "Feature",
    "geometry": {
       "type": "Point",
       "coordinates":  [ 2.5310419,48.720478 ]
    },
    "properties": {
    "RegionName":"Île-de-France",
    "DeptName":"Val-de-Marne",
    "CityName":"Villecresnes",
    "Population":9674,
    "TextPosition":"default"
    }
  },
  {
    "type": "Feature",
    "geometry": {
       "type": "Point",
       "coordinates":  [ -0.319769,49.176963 ]
    },
    "properties": {
    "RegionName":"Normandie",
    "DeptName":"Calvados",
    "CityName":"Mondeville",
    "Population":9636,
    "TextPosition":"default"
    }
  },
  {
    "type": "Feature",
    "geometry": {
       "type": "Point",
       "coordinates":  [ 6.02513,46.2437479 ]
    },
    "properties": {
    "RegionName":"Auvergne Rhône-Alpes",
    "DeptName":"Ain",
    "CityName":"Saint-Genis-Pouilly",
    "Population":9635,
    "TextPosition":"default"
    }
  },
  {
    "type": "Feature",
    "geometry": {
       "type": "Point",
       "coordinates":  [ 1.576772,50.7074209 ]
    },
    "properties": {
    "RegionName":"Nord-Pas-de-Calais Picardie",
    "DeptName":"Pas-de-Calais",
    "CityName":"Le Portel",
    "Population":9632,
    "TextPosition":"default"
    }
  },
  {
    "type": "Feature",
    "geometry": {
       "type": "Point",
       "coordinates":  [ 2.745977,48.874927 ]
    },
    "properties": {
    "RegionName":"Île-de-France",
    "DeptName":"Seine-et-Marne",
    "CityName":"Montévrain",
    "Population":9625,
    "TextPosition":"default"
    }
  },
  {
    "type": "Feature",
    "geometry": {
       "type": "Point",
       "coordinates":  [ 2.2554979,48.594204 ]
    },
    "properties": {
    "RegionName":"Île-de-France",
    "DeptName":"Essonne",
    "CityName":"Saint-Germain-lès-Arpajon",
    "Population":9624,
    "TextPosition":"default"
    }
  },
  {
    "type": "Feature",
    "geometry": {
       "type": "Point",
       "coordinates":  [ 2.284601,49.141551 ]
    },
    "properties": {
    "RegionName":"Île-de-France",
    "DeptName":"Val-d'Oise",
    "CityName":"Beaumont-sur-Oise",
    "Population":9607,
    "TextPosition":"default"
    }
  },
  {
    "type": "Feature",
    "geometry": {
       "type": "Point",
       "coordinates":  [ 2.515927,49.098699 ]
    },
    "properties": {
    "RegionName":"Île-de-France",
    "DeptName":"Val-d'Oise",
    "CityName":"Fosses",
    "Population":9591,
    "TextPosition":"default"
    }
  },
  {
    "type": "Feature",
    "geometry": {
       "type": "Point",
       "coordinates":  [ 2.946919,42.6820949 ]
    },
    "properties": {
    "RegionName":"Languedoc-Roussillon Midi-Pyrénées",
    "DeptName":"Pyrénées-Orientales",
    "CityName":"Cabestany",
    "Population":9577,
    "TextPosition":"default"
    }
  },
  {
    "type": "Feature",
    "geometry": {
       "type": "Point",
       "coordinates":  [ 2.600995,48.56225 ]
    },
    "properties": {
    "RegionName":"Île-de-France",
    "DeptName":"Seine-et-Marne",
    "CityName":"Cesson",
    "Population":9568,
    "TextPosition":"default"
    }
  },
  {
    "type": "Feature",
    "geometry": {
       "type": "Point",
       "coordinates":  [ 5.637517,45.298156 ]
    },
    "properties": {
    "RegionName":"Auvergne Rhône-Alpes",
    "DeptName":"Isere",
    "CityName":"Voreppe",
    "Population":9565,
    "TextPosition":"default"
    }
  },
  {
    "type": "Feature",
    "geometry": {
       "type": "Point",
       "coordinates":  [ -0.669405,44.904651 ]
    },
    "properties": {
    "RegionName":"Aquitaine Limousin Poitou-Charentes",
    "DeptName":"Gironde",
    "CityName":"Le Taillan-Médoc",
    "Population":9557,
    "TextPosition":"default"
    }
  },
  {
    "type": "Feature",
    "geometry": {
       "type": "Point",
       "coordinates":  [ -1.764935,47.475279 ]
    },
    "properties": {
    "RegionName":"Pays de la Loire",
    "DeptName":"Loire-Atlantique",
    "CityName":"Blain",
    "Population":9543,
    "TextPosition":"default"
    }
  },
  {
    "type": "Feature",
    "geometry": {
       "type": "Point",
       "coordinates":  [ -2.396846,47.929254 ]
    },
    "properties": {
    "RegionName":"Bretagne",
    "DeptName":"Morbihan",
    "CityName":"Ploërmel",
    "Population":9525,
    "TextPosition":"default"
    }
  },
  {
    "type": "Feature",
    "geometry": {
       "type": "Point",
       "coordinates":  [ 5.560919,43.4537819 ]
    },
    "properties": {
    "RegionName":"Provence-Alpes-Côte d'Azur",
    "DeptName":"Bouches-du-Rhone",
    "CityName":"Fuveau",
    "Population":9519,
    "TextPosition":"default"
    }
  },
  {
    "type": "Feature",
    "geometry": {
       "type": "Point",
       "coordinates":  [ 4.989187,44.383724 ]
    },
    "properties": {
    "RegionName":"Provence-Alpes-Côte d'Azur",
    "DeptName":"Vaucluse",
    "CityName":"Valréas",
    "Population":9519,
    "TextPosition":"default"
    }
  },
  {
    "type": "Feature",
    "geometry": {
       "type": "Point",
       "coordinates":  [ 1.153222,49.446786 ]
    },
    "properties": {
    "RegionName":"Haute-Normandie",
    "DeptName":"Seine-Maritime",
    "CityName":"Darnétal",
    "Population":9515,
    "TextPosition":"default"
    }
  },
  {
    "type": "Feature",
    "geometry": {
       "type": "Point",
       "coordinates":  [ 1.399535,43.528559 ]
    },
    "properties": {
    "RegionName":"Midi-Pyrénées",
    "DeptName":"Haute-Garonne",
    "CityName":"Portet-sur-Garonne",
    "Population":9510,
    "TextPosition":"default"
    }
  },
  {
    "type": "Feature",
    "geometry": {
       "type": "Point",
       "coordinates":  [ 3.8616165,43.5332397 ]
    },
    "properties": {
    "RegionName":"Languedoc-Roussillon",
    "DeptName":"Hérault",
    "CityName":"Villeneuve-lès-Maguelone",
    "Population":9506,
    "TextPosition":"default"
    }
  },
  {
    "type": "Feature",
    "geometry": {
       "type": "Point",
       "coordinates":  [ 2.857594,50.421504 ]
    },
    "properties": {
    "RegionName":"Nord-Pas-de-Calais Picardie",
    "DeptName":"Pas-de-Calais",
    "CityName":"Sallaumines",
    "Population":9505,
    "TextPosition":"default"
    }
  },
  {
    "type": "Feature",
    "geometry": {
       "type": "Point",
       "coordinates":  [ 3.130059,48.950507 ]
    },
    "properties": {
    "RegionName":"Île-de-France",
    "DeptName":"Seine-et-Marne",
    "CityName":"La Ferté-sous-Jouarre",
    "Population":9504,
    "TextPosition":"default"
    }
  },
  {
    "type": "Feature",
    "geometry": {
       "type": "Point",
       "coordinates":  [ 0.602179,44.200867 ]
    },
    "properties": {
    "RegionName":"Aquitaine Limousin Poitou-Charentes",
    "DeptName":"Lot-et-Garonne",
    "CityName":"Le Passage",
    "Population":9484,
    "TextPosition":"default"
    }
  },
  {
    "type": "Feature",
    "geometry": {
       "type": "Point",
       "coordinates":  [ 3.247033,50.679774 ]
    },
    "properties": {
    "RegionName":"Nord-Pas-de-Calais Picardie",
    "DeptName":"Nord",
    "CityName":"Leers",
    "Population":9456,
    "TextPosition":"default"
    }
  },
  {
    "type": "Feature",
    "geometry": {
       "type": "Point",
       "coordinates":  [ 3.1388543,47.0117913 ]
    },
    "properties": {
    "RegionName":"Bourgogne Franche-Comté",
    "DeptName":"Nievre",
    "CityName":"Varennes-Vauzelles",
    "Population":9440,
    "TextPosition":"default"
    }
  },
  {
    "type": "Feature",
    "geometry": {
       "type": "Point",
       "coordinates":  [ 2.360491,49.038069 ]
    },
    "properties": {
    "RegionName":"Île-de-France",
    "DeptName":"Val-d'Oise",
    "CityName":"Ézanville",
    "Population":9438,
    "TextPosition":"default"
    }
  },
  {
    "type": "Feature",
    "geometry": {
       "type": "Point",
       "coordinates":  [ 7.302206,47.768574 ]
    },
    "properties": {
    "RegionName":"Alsace-Champagne-Ardenne-Lorraine",
    "DeptName":"Haut-Rhin",
    "CityName":"Pfastatt",
    "Population":9426,
    "TextPosition":"default"
    }
  },
  {
    "type": "Feature",
    "geometry": {
       "type": "Point",
       "coordinates":  [ 3.804436,43.69208 ]
    },
    "properties": {
    "RegionName":"Languedoc-Roussillon Midi-Pyrénées",
    "DeptName":"Hérault",
    "CityName":"Saint-Gély-du-Fesc",
    "Population":9423,
    "TextPosition":"default"
    }
  },
  {
    "type": "Feature",
    "geometry": {
       "type": "Point",
       "coordinates":  [ 2.385166,48.656473 ]
    },
    "properties": {
    "RegionName":"Île-de-France",
    "DeptName":"Essonne",
    "CityName":"Grigny",
    "Population":9419,
    "TextPosition":"default"
    }
  },
  {
    "type": "Feature",
    "geometry": {
       "type": "Point",
       "coordinates":  [ 5.930146,49.470163 ]
    },
    "properties": {
    "RegionName":"Alsace-Champagne-Ardenne-Lorraine",
    "DeptName":"Meurthe-et-Moselle",
    "CityName":"Villerupt",
    "Population":9415,
    "TextPosition":"default"
    }
  },
  {
    "type": "Feature",
    "geometry": {
       "type": "Point",
       "coordinates":  [ 6.168126,49.25418 ]
    },
    "properties": {
    "RegionName":"Alsace-Champagne-Ardenne-Lorraine",
    "DeptName":"Moselle",
    "CityName":"Hagondange",
    "Population":9405,
    "TextPosition":"default"
    }
  },
  {
    "type": "Feature",
    "geometry": {
       "type": "Point",
       "coordinates":  [ 0.233079,49.502579 ]
    },
    "properties": {
    "RegionName":"Normandie",
    "DeptName":"Seine-Maritime",
    "CityName":"Gonfreville-l'Orcher",
    "Population":9378,
    "TextPosition":"default"
    }
  },
  {
    "type": "Feature",
    "geometry": {
       "type": "Point",
       "coordinates":  [ 4.859394,45.673616 ]
    },
    "properties": {
    "RegionName":"Auvergne Rhône-Alpes",
    "DeptName":"Rhône",
    "CityName":"Feyzin",
    "Population":9377,
    "TextPosition":"default"
    }
  },
  {
    "type": "Feature",
    "geometry": {
       "type": "Point",
       "coordinates":  [ 0.192981,45.641437 ]
    },
    "properties": {
    "RegionName":"Aquitaine Limousin Poitou-Charentes",
    "DeptName":"Charente",
    "CityName":"Soyaux",
    "Population":9366,
    "TextPosition":"default"
    }
  },
  {
    "type": "Feature",
    "geometry": {
       "type": "Point",
       "coordinates":  [ 2.004573,43.458611 ]
    },
    "properties": {
    "RegionName":"Languedoc-Roussillon Midi-Pyrénées",
    "DeptName":"Haute-Garonne",
    "CityName":"Revel",
    "Population":9364,
    "TextPosition":"default"
    }
  },
  {
    "type": "Feature",
    "geometry": {
       "type": "Point",
       "coordinates":  [ -1.167062,46.454772 ]
    },
    "properties": {
    "RegionName":"Pays de la Loire",
    "DeptName":"Vendee",
    "CityName":"Luçon",
    "Population":9361,
    "TextPosition":"default"
    }
  },
  {
    "type": "Feature",
    "geometry": {
       "type": "Point",
       "coordinates":  [ 4.084192,49.9200919 ]
    },
    "properties": {
    "RegionName":"Nord-Pas-de-Calais Picardie",
    "DeptName":"Aisne",
    "CityName":"Hirson",
    "Population":9346,
    "TextPosition":"default"
    }
  },
  {
    "type": "Feature",
    "geometry": {
       "type": "Point",
       "coordinates":  [ -0.5192546,43.8818198 ]
    },
    "properties": {
    "RegionName":"Aquitaine Limousin Poitou-Charentes",
    "DeptName":"Landes",
    "CityName":"Saint-Pierre-du-Mont",
    "Population":9337,
    "TextPosition":"default"
    }
  },
  {
    "type": "Feature",
    "geometry": {
       "type": "Point",
       "coordinates":  [ 5.261712,43.653995 ]
    },
    "properties": {
    "RegionName":"Provence-Alpes-Côte d'Azur",
    "DeptName":"Bouches-du-Rhone",
    "CityName":"Lambesc",
    "Population":9335,
    "TextPosition":"default"
    }
  },
  {
    "type": "Feature",
    "geometry": {
       "type": "Point",
       "coordinates":  [ -0.258658,49.276656 ]
    },
    "properties": {
    "RegionName":"Normandie",
    "DeptName":"Calvados",
    "CityName":"Ouistreham",
    "Population":9329,
    "TextPosition":"default"
    }
  },
  {
    "type": "Feature",
    "geometry": {
       "type": "Point",
       "coordinates":  [ 6.200932,48.673932 ]
    },
    "properties": {
    "RegionName":"Lorraine",
    "DeptName":"Meurthe-et-Moselle",
    "CityName":"Jarville-la-Malgrange",
    "Population":9329,
    "TextPosition":"default"
    }
  },
  {
    "type": "Feature",
    "geometry": {
       "type": "Point",
       "coordinates":  [ 6.566575,43.472036 ]
    },
    "properties": {
    "RegionName":"Provence-Alpes-Côte d'Azur",
    "DeptName":"Var",
    "CityName":"Le Muy",
    "Population":9328,
    "TextPosition":"default"
    }
  },
  {
    "type": "Feature",
    "geometry": {
       "type": "Point",
       "coordinates":  [ -1.700075,43.362402 ]
    },
    "properties": {
    "RegionName":"Aquitaine Limousin Poitou-Charentes",
    "DeptName":"Pyrénées-Atlantiques",
    "CityName":"Urrugne",
    "Population":9316,
    "TextPosition":"default"
    }
  },
  {
    "type": "Feature",
    "geometry": {
       "type": "Point",
       "coordinates":  [ 5.802294,43.198331 ]
    },
    "properties": {
    "RegionName":"Provence-Alpes-Côte d'Azur",
    "DeptName":"Var",
    "CityName":"Le Beausset",
    "Population":9310,
    "TextPosition":"default"
    }
  },
  {
    "type": "Feature",
    "geometry": {
       "type": "Point",
       "coordinates":  [ -4.011527,47.893746 ]
    },
    "properties": {
    "RegionName":"Bretagne",
    "DeptName":"Finistere",
    "CityName":"Fouesnant",
    "Population":9305,
    "TextPosition":"default"
    }
  },
  {
    "type": "Feature",
    "geometry": {
       "type": "Point",
       "coordinates":  [ -0.216803,46.976154 ]
    },
    "properties": {
    "RegionName":"Poitou-Charentes",
    "DeptName":"Deux-Sevres",
    "CityName":"Thouars",
    "Population":9302,
    "TextPosition":"default"
    }
  },
  {
    "type": "Feature",
    "geometry": {
       "type": "Point",
       "coordinates":  [ 2.680904,50.522368 ]
    },
    "properties": {
    "RegionName":"Nord-Pas-de-Calais Picardie",
    "DeptName":"Pas-de-Calais",
    "CityName":"Beuvry",
    "Population":9298,
    "TextPosition":"default"
    }
  },
  {
    "type": "Feature",
    "geometry": {
       "type": "Point",
       "coordinates":  [ 2.372956,47.099779 ]
    },
    "properties": {
    "RegionName":"Centre",
    "DeptName":"Cher",
    "CityName":"Saint-Doulchard",
    "Population":9295,
    "TextPosition":"default"
    }
  },
  {
    "type": "Feature",
    "geometry": {
       "type": "Point",
       "coordinates":  [ 4.954543,45.824508 ]
    },
    "properties": {
    "RegionName":"Auvergne Rhône-Alpes",
    "DeptName":"Ain",
    "CityName":"Miribel",
    "Population":9277,
    "TextPosition":"default"
    }
  },
  {
    "type": "Feature",
    "geometry": {
       "type": "Point",
       "coordinates":  [ 1.217292,44.890891 ]
    },
    "properties": {
    "RegionName":"Aquitaine",
    "DeptName":"Dordogne",
    "CityName":"Sarlat-la-Canéda",
    "Population":9259,
    "TextPosition":"default"
    }
  },
  {
    "type": "Feature",
    "geometry": {
       "type": "Point",
       "coordinates":  [ 1.4775069,43.352627 ]
    },
    "properties": {
    "RegionName":"Midi-Pyrénées",
    "DeptName":"Haute-Garonne",
    "CityName":"Auterive",
    "Population":9252,
    "TextPosition":"default"
    }
  },
  {
    "type": "Feature",
    "geometry": {
       "type": "Point",
       "coordinates":  [ 5.37999,43.441195 ]
    },
    "properties": {
    "RegionName":"Provence-Alpes-Côte d'Azur",
    "DeptName":"Bouches-du-Rhone",
    "CityName":"Cabriès",
    "Population":9251,
    "TextPosition":"default"
    }
  },
  {
    "type": "Feature",
    "geometry": {
       "type": "Point",
       "coordinates":  [ 2.184997,49.064451 ]
    },
    "properties": {
    "RegionName":"Île-de-France",
    "DeptName":"Val-d'Oise",
    "CityName":"Méry-sur-Oise",
    "Population":9237,
    "TextPosition":"default"
    }
  },
  {
    "type": "Feature",
    "geometry": {
       "type": "Point",
       "coordinates":  [ 6.108669,46.257632 ]
    },
    "properties": {
    "RegionName":"Rhone-Alpes",
    "DeptName":"Ain",
    "CityName":"Ferney-Voltaire",
    "Population":9236,
    "TextPosition":"default"
    }
  },
  {
    "type": "Feature",
    "geometry": {
       "type": "Point",
       "coordinates":  [ 7.491512,48.543715 ]
    },
    "properties": {
    "RegionName":"Alsace",
    "DeptName":"Bas-Rhin",
    "CityName":"Molsheim",
    "Population":9233,
    "TextPosition":"default"
    }
  },
  {
    "type": "Feature",
    "geometry": {
       "type": "Point",
       "coordinates":  [ 2.36675,48.630742 ]
    },
    "properties": {
    "RegionName":"Île-de-France",
    "DeptName":"Essonne",
    "CityName":"Fleury-Mérogis",
    "Population":9219,
    "TextPosition":"default"
    }
  },
  {
    "type": "Feature",
    "geometry": {
       "type": "Point",
       "coordinates":  [ 3.344325,50.334246 ]
    },
    "properties": {
    "RegionName":"Nord-Pas-de-Calais Picardie",
    "DeptName":"Nord",
    "CityName":"Escaudain",
    "Population":9214,
    "TextPosition":"default"
    }
  },
  {
    "type": "Feature",
    "geometry": {
       "type": "Point",
       "coordinates":  [ 2.376663,48.612707 ]
    },
    "properties": {
    "RegionName":"Île-de-France",
    "DeptName":"Essonne",
    "CityName":"Bondoufle",
    "Population":9198,
    "TextPosition":"default"
    }
  },
  {
    "type": "Feature",
    "geometry": {
       "type": "Point",
       "coordinates":  [ 6.361557,43.493236 ]
    },
    "properties": {
    "RegionName":"Provence-Alpes-Côte d'Azur",
    "DeptName":"Var",
    "CityName":"Lorgues",
    "Population":9193,
    "TextPosition":"default"
    }
  },
  {
    "type": "Feature",
    "geometry": {
       "type": "Point",
       "coordinates":  [ 2.409336,49.192878 ]
    },
    "properties": {
    "RegionName":"Nord-Pas-de-Calais Picardie",
    "DeptName":"Oise",
    "CityName":"Gouvieux",
    "Population":9179,
    "TextPosition":"default"
    }
  },
  {
    "type": "Feature",
    "geometry": {
       "type": "Point",
       "coordinates":  [ 2.712292,48.883881 ]
    },
    "properties": {
    "RegionName":"Île-de-France",
    "DeptName":"Seine-et-Marne",
    "CityName":"Thorigny-sur-Marne",
    "Population":9150,
    "TextPosition":"default"
    }
  },
  {
    "type": "Feature",
    "geometry": {
       "type": "Point",
       "coordinates":  [ 2.461891,48.720171 ]
    },
    "properties": {
    "RegionName":"Île-de-France",
    "DeptName":"Essonne",
    "CityName":"Crosne",
    "Population":9138,
    "TextPosition":"default"
    }
  },
  {
    "type": "Feature",
    "geometry": {
       "type": "Point",
       "coordinates":  [ 2.439851,49.157554 ]
    },
    "properties": {
    "RegionName":"Nord-Pas-de-Calais Picardie",
    "DeptName":"Oise",
    "CityName":"Lamorlaye",
    "Population":9136,
    "TextPosition":"default"
    }
  },
  {
    "type": "Feature",
    "geometry": {
       "type": "Point",
       "coordinates":  [ 0.655979,48.185934 ]
    },
    "properties": {
    "RegionName":"Pays de la Loire",
    "DeptName":"Sarthe",
    "CityName":"La Ferté-Bernard",
    "Population":9116,
    "TextPosition":"default"
    }
  },
  {
    "type": "Feature",
    "geometry": {
       "type": "Point",
       "coordinates":  [ -2.083938,47.650742 ]
    },
    "properties": {
    "RegionName":"Bretagne",
    "DeptName":"Ille-et-Vilaine",
    "CityName":"Redon",
    "Population":9114,
    "TextPosition":"default"
    }
  },
  {
    "type": "Feature",
    "geometry": {
       "type": "Point",
       "coordinates":  [ -4.073265,48.510131 ]
    },
    "properties": {
    "RegionName":"Bretagne",
    "DeptName":"Finistere",
    "CityName":"Landivisiau",
    "Population":9108,
    "TextPosition":"default"
    }
  },
  {
    "type": "Feature",
    "geometry": {
       "type": "Point",
       "coordinates":  [ 5.233463,43.390916 ]
    },
    "properties": {
    "RegionName":"Provence-Alpes-Côte d'Azur",
    "DeptName":"Bouches-du-Rhone",
    "CityName":"Gignac-la-Nerthe",
    "Population":9099,
    "TextPosition":"default"
    }
  },
  {
    "type": "Feature",
    "geometry": {
       "type": "Point",
       "coordinates":  [ 1.020078,49.385602 ]
    },
    "properties": {
    "RegionName":"Normandie",
    "DeptName":"Seine-Maritime",
    "CityName":"Petit-Couronne",
    "Population":9097,
    "TextPosition":"default"
    }
  },
  {
    "type": "Feature",
    "geometry": {
       "type": "Point",
       "coordinates":  [ 0.5142989,49.354883 ]
    },
    "properties": {
    "RegionName":"Normandie",
    "DeptName":"Eure",
    "CityName":"Pont-Audemer",
    "Population":9079,
    "TextPosition":"default"
    }
  },
  {
    "type": "Feature",
    "geometry": {
       "type": "Point",
       "coordinates":  [ -0.495751,47.468607 ]
    },
    "properties": {
    "RegionName":"Pays de la Loire",
    "DeptName":"Maine-et-Loire",
    "CityName":"Saint-Barthélemy-d'Anjou",
    "Population":9077,
    "TextPosition":"default"
    }
  },
  {
    "type": "Feature",
    "geometry": {
       "type": "Point",
       "coordinates":  [ 4.120665,46.452222 ]
    },
    "properties": {
    "RegionName":"Bourgogne Franche-Comté",
    "DeptName":"Saône-et-Loire",
    "CityName":"Paray-le-Monial",
    "Population":9064,
    "TextPosition":"default"
    }
  },
  {
    "type": "Feature",
    "geometry": {
       "type": "Point",
       "coordinates":  [ 2.053208,48.741829 ]
    },
    "properties": {
    "RegionName":"Île-de-France",
    "DeptName":"Yvelines",
    "CityName":"Magny-les-Hameaux",
    "Population":9063,
    "TextPosition":"default"
    }
  },
  {
    "type": "Feature",
    "geometry": {
       "type": "Point",
       "coordinates":  [ 5.022149,47.34985 ]
    },
    "properties": {
    "RegionName":"Bourgogne Franche-Comté",
    "DeptName":"Côte-d'Or",
    "CityName":"Fontaine-lès-Dijon",
    "Population":9055,
    "TextPosition":"default"
    }
  },
  {
    "type": "Feature",
    "geometry": {
       "type": "Point",
       "coordinates":  [ 2.255849,48.173423 ]
    },
    "properties": {
    "RegionName":"Centre",
    "DeptName":"Loiret",
    "CityName":"Pithiviers",
    "Population":9039,
    "TextPosition":"default"
    }
  },
  {
    "type": "Feature",
    "geometry": {
       "type": "Point",
       "coordinates":  [ 2.453039,50.624287 ]
    },
    "properties": {
    "RegionName":"Nord-Pas-de-Calais Picardie",
    "DeptName":"Pas-de-Calais",
    "CityName":"Isbergues",
    "Population":9038,
    "TextPosition":"default"
    }
  },
  {
    "type": "Feature",
    "geometry": {
       "type": "Point",
       "coordinates":  [ 2.533002,46.3609889 ]
    },
    "properties": {
    "RegionName":"Auvergne Rhône-Alpes",
    "DeptName":"Allier",
    "CityName":"Domérat",
    "Population":9033,
    "TextPosition":"default"
    }
  },
  {
    "type": "Feature",
    "geometry": {
       "type": "Point",
       "coordinates":  [ 1.916319,49.008107 ]
    },
    "properties": {
    "RegionName":"Île-de-France",
    "DeptName":"Yvelines",
    "CityName":"Meulan-en-Yvelines",
    "Population":8992,
    "TextPosition":"default"
    }
  },
  {
    "type": "Feature",
    "geometry": {
       "type": "Point",
       "coordinates":  [ -1.683146,48.153561 ]
    },
    "properties": {
    "RegionName":"Bretagne",
    "DeptName":"Ille-et-Vilaine",
    "CityName":"Saint-Grégoire",
    "Population":8989,
    "TextPosition":"default"
    }
  },
  {
    "type": "Feature",
    "geometry": {
       "type": "Point",
       "coordinates":  [ 5.06111,47.285177 ]
    },
    "properties": {
    "RegionName":"Bourgogne Franche-Comté",
    "DeptName":"Côte-d'Or",
    "CityName":"Longvic",
    "Population":8981,
    "TextPosition":"default"
    }
  },
  {
    "type": "Feature",
    "geometry": {
       "type": "Point",
       "coordinates":  [ 0.5344584,49.5188773 ]
    },
    "properties": {
    "RegionName":"Normandie",
    "DeptName":"Seine-Maritime",
    "CityName":"Lillebonne",
    "Population":8972,
    "TextPosition":"default"
    }
  },
  {
    "type": "Feature",
    "geometry": {
       "type": "Point",
       "coordinates":  [ 1.344769,43.527442 ]
    },
    "properties": {
    "RegionName":"Languedoc-Roussillon Midi-Pyrénées",
    "DeptName":"Haute-Garonne",
    "CityName":"Villeneuve-Tolosane",
    "Population":8960,
    "TextPosition":"default"
    }
  },
  {
    "type": "Feature",
    "geometry": {
       "type": "Point",
       "coordinates":  [ -1.4452609,49.047808 ]
    },
    "properties": {
    "RegionName":"Normandie",
    "DeptName":"Manche",
    "CityName":"Coutances",
    "Population":8951,
    "TextPosition":"default"
    }
  },
  {
    "type": "Feature",
    "geometry": {
       "type": "Point",
       "coordinates":  [ 4.839978,44.76828 ]
    },
    "properties": {
    "RegionName":"Auvergne Rhône-Alpes",
    "DeptName":"Drome",
    "CityName":"Livron-sur-Drôme",
    "Population":8945,
    "TextPosition":"default"
    }
  },
  {
    "type": "Feature",
    "geometry": {
       "type": "Point",
       "coordinates":  [ 3.954211,43.563782 ]
    },
    "properties": {
    "RegionName":"Languedoc-Roussillon Midi-Pyrénées",
    "DeptName":"Hérault",
    "CityName":"Pérols",
    "Population":8939,
    "TextPosition":"default"
    }
  },
  {
    "type": "Feature",
    "geometry": {
       "type": "Point",
       "coordinates":  [ 5.253467,43.523013 ]
    },
    "properties": {
    "RegionName":"Provence-Alpes-Côte d'Azur",
    "DeptName":"Bouches-du-Rhone",
    "CityName":"Velaux",
    "Population":8930,
    "TextPosition":"default"
    }
  },
  {
    "type": "Feature",
    "geometry": {
       "type": "Point",
       "coordinates":  [ 1.175713,43.510619 ]
    },
    "properties": {
    "RegionName":"Languedoc-Roussillon Midi-Pyrénées",
    "DeptName":"Haute-Garonne",
    "CityName":"Saint-Lys",
    "Population":8917,
    "TextPosition":"default"
    }
  },
  {
    "type": "Feature",
    "geometry": {
       "type": "Point",
       "coordinates":  [ 0.308179,44.391183 ]
    },
    "properties": {
    "RegionName":"Aquitaine Limousin Poitou-Charentes",
    "DeptName":"Lot-et-Garonne",
    "CityName":"Tonneins",
    "Population":8914,
    "TextPosition":"default"
    }
  },
  {
    "type": "Feature",
    "geometry": {
       "type": "Point",
       "coordinates":  [ 5.686346,45.76096 ]
    },
    "properties": {
    "RegionName":"Rhone-Alpes",
    "DeptName":"Ain",
    "CityName":"Belley",
    "Population":8909,
    "TextPosition":"default"
    }
  },
  {
    "type": "Feature",
    "geometry": {
       "type": "Point",
       "coordinates":  [ 6.869433,45.923697 ]
    },
    "properties": {
    "RegionName":"Auvergne Rhône-Alpes",
    "DeptName":"Haute-Savoie",
    "CityName":"Chamonix-Mont-Blanc",
    "Population":8897,
    "TextPosition":"default"
    }
  },
  {
    "type": "Feature",
    "geometry": {
       "type": "Point",
       "coordinates":  [ 4.768295,44.348678 ]
    },
    "properties": {
    "RegionName":"Rhone-Alpes",
    "DeptName":"Drome",
    "CityName":"Saint-Paul-Trois-Châteaux",
    "Population":8851,
    "TextPosition":"default"
    }
  },
  {
    "type": "Feature",
    "geometry": {
       "type": "Point",
       "coordinates":  [ -1.113732,46.134424 ]
    },
    "properties": {
    "RegionName":"Aquitaine Limousin Poitou-Charentes",
    "DeptName":"Charente-Maritime",
    "CityName":"Aytré",
    "Population":8844,
    "TextPosition":"default"
    }
  },
  {
    "type": "Feature",
    "geometry": {
       "type": "Point",
       "coordinates":  [ 4.815205,45.178291 ]
    },
    "properties": {
    "RegionName":"Auvergne Rhône-Alpes",
    "DeptName":"Drome",
    "CityName":"Saint-Vallier",
    "Population":8824,
    "TextPosition":"default"
    }
  },
  {
    "type": "Feature",
    "geometry": {
       "type": "Point",
       "coordinates":  [ -0.727409,47.210107 ]
    },
    "properties": {
    "RegionName":"Pays de la Loire",
    "DeptName":"Maine-et-Loire",
    "CityName":"Chemillé-Melay",
    "Population":8822,
    "TextPosition":"default"
    }
  },
  {
    "type": "Feature",
    "geometry": {
       "type": "Point",
       "coordinates":  [ 4.268712,45.40582 ]
    },
    "properties": {
    "RegionName":"Auvergne Rhône-Alpes",
    "DeptName":"Loire",
    "CityName":"Unieux",
    "Population":8821,
    "TextPosition":"default"
    }
  },
  {
    "type": "Feature",
    "geometry": {
       "type": "Point",
       "coordinates":  [ -2.737159,47.619804 ]
    },
    "properties": {
    "RegionName":"Bretagne",
    "DeptName":"Morbihan",
    "CityName":"Séné",
    "Population":8821,
    "TextPosition":"default"
    }
  },
  {
    "type": "Feature",
    "geometry": {
       "type": "Point",
       "coordinates":  [ 3.831173,50.201182 ]
    },
    "properties": {
    "RegionName":"Nord-Pas-de-Calais Picardie",
    "DeptName":"Nord",
    "CityName":"Aulnoye-Aymeries",
    "Population":8816,
    "TextPosition":"default"
    }
  },
  {
    "type": "Feature",
    "geometry": {
       "type": "Point",
       "coordinates":  [ 2.1624469,48.84389 ]
    },
    "properties": {
    "RegionName":"Île-de-France",
    "DeptName":"Hauts-de-Seine",
    "CityName":"Vaucresson",
    "Population":8816,
    "TextPosition":"default"
    }
  },
  {
    "type": "Feature",
    "geometry": {
       "type": "Point",
       "coordinates":  [ 2.191521,49.015751 ]
    },
    "properties": {
    "RegionName":"Île-de-France",
    "DeptName":"Val-d'Oise",
    "CityName":"Beauchamp",
    "Population":8792,
    "TextPosition":"default"
    }
  },
  {
    "type": "Feature",
    "geometry": {
       "type": "Point",
       "coordinates":  [ 4.172183,45.292432 ]
    },
    "properties": {
    "RegionName":"Auvergne Rhône-Alpes",
    "DeptName":"Haute-Loire",
    "CityName":"Monistrol-sur-Loire",
    "Population":8788,
    "TextPosition":"default"
    }
  },
  {
    "type": "Feature",
    "geometry": {
       "type": "Point",
       "coordinates":  [ 5.603996,43.349537 ]
    },
    "properties": {
    "RegionName":"Provence-Alpes-Côte d'Azur",
    "DeptName":"Bouches-du-Rhone",
    "CityName":"Roquevaire",
    "Population":8776,
    "TextPosition":"default"
    }
  },
  {
    "type": "Feature",
    "geometry": {
       "type": "Point",
       "coordinates":  [ 1.238798,45.877448 ]
    },
    "properties": {
    "RegionName":"Aquitaine Limousin Poitou-Charentes",
    "DeptName":"Haute-Vienne",
    "CityName":"Couzeix",
    "Population":8763,
    "TextPosition":"default"
    }
  },
  {
    "type": "Feature",
    "geometry": {
       "type": "Point",
       "coordinates":  [ 6.13604,46.358168 ]
    },
    "properties": {
    "RegionName":"Auvergne Rhône-Alpes",
    "DeptName":"Ain",
    "CityName":"Divonne-les-Bains",
    "Population":8762,
    "TextPosition":"default"
    }
  },
  {
    "type": "Feature",
    "geometry": {
       "type": "Point",
       "coordinates":  [ 2.025287,47.891459 ]
    },
    "properties": {
    "RegionName":"Centre",
    "DeptName":"Loiret",
    "CityName":"Chécy",
    "Population":8756,
    "TextPosition":"default"
    }
  },
  {
    "type": "Feature",
    "geometry": {
       "type": "Point",
       "coordinates":  [ -1.4403729,47.267411 ]
    },
    "properties": {
    "RegionName":"Pays de la Loire",
    "DeptName":"Loire-Atlantique",
    "CityName":"Thouaré-sur-Loire",
    "Population":8750,
    "TextPosition":"default"
    }
  },
  {
    "type": "Feature",
    "geometry": {
       "type": "Point",
       "coordinates":  [ -1.608569,46.739235 ]
    },
    "properties": {
    "RegionName":"Pays de la Loire",
    "DeptName":"Vendee",
    "CityName":"Aizenay",
    "Population":8741,
    "TextPosition":"default"
    }
  },
  {
    "type": "Feature",
    "geometry": {
       "type": "Point",
       "coordinates":  [ 2.138909,48.862754 ]
    },
    "properties": {
    "RegionName":"Île-de-France",
    "DeptName":"Yvelines",
    "CityName":"Bougival",
    "Population":8729,
    "TextPosition":"default"
    }
  },
  {
    "type": "Feature",
    "geometry": {
       "type": "Point",
       "coordinates":  [ 6.043222,43.168653 ]
    },
    "properties": {
    "RegionName":"Provence-Alpes-Côte d'Azur",
    "DeptName":"Var",
    "CityName":"La Farlède",
    "Population":8719,
    "TextPosition":"default"
    }
  },
  {
    "type": "Feature",
    "geometry": {
       "type": "Point",
       "coordinates":  [ 3.600438,50.386711 ]
    },
    "properties": {
    "RegionName":"Nord-Pas-de-Calais Picardie",
    "DeptName":"Nord",
    "CityName":"Onnaing",
    "Population":8710,
    "TextPosition":"default"
    }
  },
  {
    "type": "Feature",
    "geometry": {
       "type": "Point",
       "coordinates":  [ 2.350813,48.9857609 ]
    },
    "properties": {
    "RegionName":"Île-de-France",
    "DeptName":"Val-d'Oise",
    "CityName":"Groslay",
    "Population":8706,
    "TextPosition":"default"
    }
  },
  {
    "type": "Feature",
    "geometry": {
       "type": "Point",
       "coordinates":  [ 4.278078,45.561668 ]
    },
    "properties": {
    "RegionName":"Auvergne Rhône-Alpes",
    "DeptName":"Loire",
    "CityName":"Veauche",
    "Population":8698,
    "TextPosition":"default"
    }
  },
  {
    "type": "Feature",
    "geometry": {
       "type": "Point",
       "coordinates":  [ 3.936612,43.644825 ]
    },
    "properties": {
    "RegionName":"Languedoc-Roussillon Midi-Pyrénées",
    "DeptName":"Hérault",
    "CityName":"Le Crès",
    "Population":8693,
    "TextPosition":"default"
    }
  },
  {
    "type": "Feature",
    "geometry": {
       "type": "Point",
       "coordinates":  [ 1.234389,43.600077 ]
    },
    "properties": {
    "RegionName":"Languedoc-Roussillon Midi-Pyrénées",
    "DeptName":"Haute-Garonne",
    "CityName":"Léguevin",
    "Population":8692,
    "TextPosition":"default"
    }
  },
  {
    "type": "Feature",
    "geometry": {
       "type": "Point",
       "coordinates":  [ -3.418031,47.787647 ]
    },
    "properties": {
    "RegionName":"Bretagne",
    "DeptName":"Morbihan",
    "CityName":"Quéven",
    "Population":8677,
    "TextPosition":"default"
    }
  },
  {
    "type": "Feature",
    "geometry": {
       "type": "Point",
       "coordinates":  [ 6.590949,46.401488 ]
    },
    "properties": {
    "RegionName":"Rhone-Alpes",
    "DeptName":"Haute-Savoie",
    "CityName":"Évian-les-Bains",
    "Population":8675,
    "TextPosition":"default"
    }
  },
  {
    "type": "Feature",
    "geometry": {
       "type": "Point",
       "coordinates":  [ 5.126824,43.591912 ]
    },
    "properties": {
    "RegionName":"Provence-Alpes-Côte d'Azur",
    "DeptName":"Bouches-du-Rhone",
    "CityName":"Lançon-Provence",
    "Population":8671,
    "TextPosition":"default"
    }
  },
  {
    "type": "Feature",
    "geometry": {
       "type": "Point",
       "coordinates":  [ 2.683399,49.054824 ]
    },
    "properties": {
    "RegionName":"Île-de-France",
    "DeptName":"Seine-et-Marne",
    "CityName":"Dammartin-en-Goële",
    "Population":8669,
    "TextPosition":"default"
    }
  },
  {
    "type": "Feature",
    "geometry": {
       "type": "Point",
       "coordinates":  [ 6.2345499,48.708013 ]
    },
    "properties": {
    "RegionName":"Alsace-Champagne-Ardenne-Lorraine",
    "DeptName":"Meurthe-et-Moselle",
    "CityName":"Essey-lès-Nancy",
    "Population":8667,
    "TextPosition":"default"
    }
  },
  {
    "type": "Feature",
    "geometry": {
       "type": "Point",
       "coordinates":  [ -1.265138,47.160929 ]
    },
    "properties": {
    "RegionName":"Pays de la Loire",
    "DeptName":"Loire-Atlantique",
    "CityName":"Vallet",
    "Population":8625,
    "TextPosition":"default"
    }
  },
  {
    "type": "Feature",
    "geometry": {
       "type": "Point",
       "coordinates":  [ 1.321622,43.514707 ]
    },
    "properties": {
    "RegionName":"Midi-Pyrénées",
    "DeptName":"Haute-Garonne",
    "CityName":"Frouzins",
    "Population":8620,
    "TextPosition":"default"
    }
  },
  {
    "type": "Feature",
    "geometry": {
       "type": "Point",
       "coordinates":  [ -1.642905,47.036878 ]
    },
    "properties": {
    "RegionName":"Pays de la Loire",
    "DeptName":"Loire-Atlantique",
    "CityName":"Saint-Philbert-de-Grand-Lieu",
    "Population":8619,
    "TextPosition":"default"
    }
  },
  {
    "type": "Feature",
    "geometry": {
       "type": "Point",
       "coordinates":  [ 4.4331055,43.862772 ]
    },
    "properties": {
    "RegionName":"Languedoc-Roussillon Midi-Pyrénées",
    "DeptName":"Gard",
    "CityName":"Marguerittes",
    "Population":8608,
    "TextPosition":"default"
    }
  },
  {
    "type": "Feature",
    "geometry": {
       "type": "Point",
       "coordinates":  [ 2.90375,50.393268 ]
    },
    "properties": {
    "RegionName":"Nord-Pas-de-Calais Picardie",
    "DeptName":"Pas-de-Calais",
    "CityName":"Rouvroy",
    "Population":8604,
    "TextPosition":"default"
    }
  },
  {
    "type": "Feature",
    "geometry": {
       "type": "Point",
       "coordinates":  [ 4.419946,44.01211 ]
    },
    "properties": {
    "RegionName":"Languedoc-Roussillon Midi-Pyrénées",
    "DeptName":"Gard",
    "CityName":"Uzès",
    "Population":8573,
    "TextPosition":"default"
    }
  },
  {
    "type": "Feature",
    "geometry": {
       "type": "Point",
       "coordinates":  [ 2.8987654,50.6633622 ]
    },
    "properties": {
    "RegionName":"Nord-Pas-de-Calais Picardie",
    "DeptName":"Nord",
    "CityName":"La Chapelle-d'Armentières",
    "Population":8570,
    "TextPosition":"default"
    }
  },
  {
    "type": "Feature",
    "geometry": {
       "type": "Point",
       "coordinates":  [ 3.826215,43.5752669 ]
    },
    "properties": {
    "RegionName":"Languedoc-Roussillon Midi-Pyrénées",
    "DeptName":"Hérault",
    "CityName":"Saint-Jean-de-Védas",
    "Population":8567,
    "TextPosition":"default"
    }
  },
  {
    "type": "Feature",
    "geometry": {
       "type": "Point",
       "coordinates":  [ 3.402355,46.117638 ]
    },
    "properties": {
    "RegionName":"Auvergne",
    "DeptName":"Allier",
    "CityName":"Bellerive-sur-Allier",
    "Population":8565,
    "TextPosition":"default"
    }
  },
  {
    "type": "Feature",
    "geometry": {
       "type": "Point",
       "coordinates":  [ 4.803225,43.387847 ]
    },
    "properties": {
    "RegionName":"Provence-Alpes-Côte d'Azur",
    "DeptName":"Bouches-du-Rhone",
    "CityName":"Port-Saint-Louis-du-Rhône",
    "Population":8565,
    "TextPosition":"default"
    }
  },
  {
    "type": "Feature",
    "geometry": {
       "type": "Point",
       "coordinates":  [ 5.161867,45.7462329 ]
    },
    "properties": {
    "RegionName":"Auvergne Rhône-Alpes",
    "DeptName":"Isere",
    "CityName":"Charvieu-Chavagneux",
    "Population":8544,
    "TextPosition":"default"
    }
  },
  {
    "type": "Feature",
    "geometry": {
       "type": "Point",
       "coordinates":  [ 4.753184,45.805587 ]
    },
    "properties": {
    "RegionName":"Auvergne Rhône-Alpes",
    "DeptName":"Rhône",
    "CityName":"Dardilly",
    "Population":8538,
    "TextPosition":"default"
    }
  },
  {
    "type": "Feature",
    "geometry": {
       "type": "Point",
       "coordinates":  [ 3.003076,50.483457 ]
    },
    "properties": {
    "RegionName":"Nord-Pas-de-Calais Picardie",
    "DeptName":"Pas-de-Calais",
    "CityName":"Libercourt",
    "Population":8534,
    "TextPosition":"default"
    }
  },
  {
    "type": "Feature",
    "geometry": {
       "type": "Point",
       "coordinates":  [ 4.994709,43.929721 ]
    },
    "properties": {
    "RegionName":"Provence-Alpes-Côte d'Azur",
    "DeptName":"Vaucluse",
    "CityName":"Le Thor",
    "Population":8532,
    "TextPosition":"default"
    }
  },
  {
    "type": "Feature",
    "geometry": {
       "type": "Point",
       "coordinates":  [ 4.086072,43.560704 ]
    },
    "properties": {
    "RegionName":"Languedoc-Roussillon Midi-Pyrénées",
    "DeptName":"Hérault",
    "CityName":"La Grande-Motte",
    "Population":8505,
    "TextPosition":"default"
    }
  },
  {
    "type": "Feature",
    "geometry": {
       "type": "Point",
       "coordinates":  [ 1.6867836,43.771216 ]
    },
    "properties": {
    "RegionName":"Languedoc-Roussillon Midi-Pyrénées",
    "DeptName":"Tarn",
    "CityName":"Saint-Sulpice-la-Pointe",
    "Population":8484,
    "TextPosition":"default"
    }
  },
  {
    "type": "Feature",
    "geometry": {
       "type": "Point",
       "coordinates":  [ -0.4271,44.916735 ]
    },
    "properties": {
    "RegionName":"Aquitaine Limousin Poitou-Charentes",
    "DeptName":"Gironde",
    "CityName":"Saint-Loubès",
    "Population":8467,
    "TextPosition":"default"
    }
  },
  {
    "type": "Feature",
    "geometry": {
       "type": "Point",
       "coordinates":  [ 2.17112,48.566131 ]
    },
    "properties": {
    "RegionName":"Île-de-France",
    "DeptName":"Essonne",
    "CityName":"Breuillet",
    "Population":8454,
    "TextPosition":"default"
    }
  },
  {
    "type": "Feature",
    "geometry": {
       "type": "Point",
       "coordinates":  [ 4.1925869,43.567172 ]
    },
    "properties": {
    "RegionName":"Languedoc-Roussillon",
    "DeptName":"Gard",
    "CityName":"Aigues-Mortes",
    "Population":8450,
    "TextPosition":"default"
    }
  },
  {
    "type": "Feature",
    "geometry": {
       "type": "Point",
       "coordinates":  [ 2.970433,42.600336 ]
    },
    "properties": {
    "RegionName":"Languedoc-Roussillon Midi-Pyrénées",
    "DeptName":"Pyrénées-Orientales",
    "CityName":"Elne",
    "Population":8450,
    "TextPosition":"default"
    }
  },
  {
    "type": "Feature",
    "geometry": {
       "type": "Point",
       "coordinates":  [ 3.013535,48.554611 ]
    },
    "properties": {
    "RegionName":"Île-de-France",
    "DeptName":"Seine-et-Marne",
    "CityName":"Nangis",
    "Population":8445,
    "TextPosition":"default"
    }
  },
  {
    "type": "Feature",
    "geometry": {
       "type": "Point",
       "coordinates":  [ 2.540747,48.671191 ]
    },
    "properties": {
    "RegionName":"Île-de-France",
    "DeptName":"Essonne",
    "CityName":"Quincy-sous-Sénart",
    "Population":8444,
    "TextPosition":"default"
    }
  },
  {
    "type": "Feature",
    "geometry": {
       "type": "Point",
       "coordinates":  [ 2.7657824,48.7398899 ]
    },
    "properties": {
    "RegionName":"Île-de-France",
    "DeptName":"Seine-et-Marne",
    "CityName":"Tournan-en-Brie",
    "Population":8439,
    "TextPosition":"default"
    }
  },
  {
    "type": "Feature",
    "geometry": {
       "type": "Point",
       "coordinates":  [ 6.440425,48.197368 ]
    },
    "properties": {
    "RegionName":"Alsace-Champagne-Ardenne-Lorraine",
    "DeptName":"Vosges",
    "CityName":"Golbey",
    "Population":8436,
    "TextPosition":"default"
    }
  },
  {
    "type": "Feature",
    "geometry": {
       "type": "Point",
       "coordinates":  [ 1.295412,43.769894 ]
    },
    "properties": {
    "RegionName":"Languedoc-Roussillon Midi-Pyrénées",
    "DeptName":"Haute-Garonne",
    "CityName":"Grenade",
    "Population":8430,
    "TextPosition":"default"
    }
  },
  {
    "type": "Feature",
    "geometry": {
       "type": "Point",
       "coordinates":  [ 2.871763,42.768583 ]
    },
    "properties": {
    "RegionName":"Languedoc-Roussillon Midi-Pyrénées",
    "DeptName":"Pyrénées-Orientales",
    "CityName":"Rivesaltes",
    "Population":8422,
    "TextPosition":"default"
    }
  },
  {
    "type": "Feature",
    "geometry": {
       "type": "Point",
       "coordinates":  [ 4.137918,43.537476 ]
    },
    "properties": {
    "RegionName":"Languedoc-Roussillon Midi-Pyrénées",
    "DeptName":"Gard",
    "CityName":"Le Grau-du-Roi",
    "Population":8421,
    "TextPosition":"default"
    }
  },
  {
    "type": "Feature",
    "geometry": {
       "type": "Point",
       "coordinates":  [ -0.750806,46.922909 ]
    },
    "properties": {
    "RegionName":"Aquitaine Limousin Poitou-Charentes",
    "DeptName":"Deux-Sevres",
    "CityName":"Mauléon",
    "Population":8414,
    "TextPosition":"default"
    }
  },
  {
    "type": "Feature",
    "geometry": {
       "type": "Point",
       "coordinates":  [ 2.7366419,48.7402749 ]
    },
    "properties": {
    "RegionName":"Île-de-France",
    "DeptName":"Seine-et-Marne",
    "CityName":"Gretz-Armainvilliers",
    "Population":8408,
    "TextPosition":"default"
    }
  },
  {
    "type": "Feature",
    "geometry": {
       "type": "Point",
       "coordinates":  [ -1.420939,43.637844 ]
    },
    "properties": {
    "RegionName":"Aquitaine Limousin Poitou-Charentes",
    "DeptName":"Landes",
    "CityName":"Capbreton",
    "Population":8396,
    "TextPosition":"default"
    }
  },
  {
    "type": "Feature",
    "geometry": {
       "type": "Point",
       "coordinates":  [ 6.494274,47.686417 ]
    },
    "properties": {
    "RegionName":"Bourgogne Franche-Comté",
    "DeptName":"Haute-Saône",
    "CityName":"Lure",
    "Population":8394,
    "TextPosition":"default"
    }
  },
  {
    "type": "Feature",
    "geometry": {
       "type": "Point",
       "coordinates":  [ 5.8858499,49.151784 ]
    },
    "properties": {
    "RegionName":"Lorraine",
    "DeptName":"Meurthe-et-Moselle",
    "CityName":"Jarny",
    "Population":8383,
    "TextPosition":"default"
    }
  },
  {
    "type": "Feature",
    "geometry": {
       "type": "Point",
       "coordinates":  [ 2.788231,48.84432 ]
    },
    "properties": {
    "RegionName":"Île-de-France",
    "DeptName":"Seine-et-Marne",
    "CityName":"Serris",
    "Population":8369,
    "TextPosition":"default"
    }
  },
  {
    "type": "Feature",
    "geometry": {
       "type": "Point",
       "coordinates":  [ 6.09208,45.915603 ]
    },
    "properties": {
    "RegionName":"Rhone-Alpes",
    "DeptName":"Haute-Savoie",
    "CityName":"Meythet",
    "Population":8368,
    "TextPosition":"default"
    }
  },
  {
    "type": "Feature",
    "geometry": {
       "type": "Point",
       "coordinates":  [ 2.073585,42.5772819 ]
    },
    "properties": {
    "RegionName":"Languedoc-Roussillon Midi-Pyrénées",
    "DeptName":"Pyrénées-Orientales",
    "CityName":"Les Angles",
    "Population":8362,
    "TextPosition":"default"
    }
  },
  {
    "type": "Feature",
    "geometry": {
       "type": "Point",
       "coordinates":  [ -1.466088,47.215267 ]
    },
    "properties": {
    "RegionName":"Pays de la Loire",
    "DeptName":"Loire-Atlantique",
    "CityName":"Basse-Goulaine",
    "Population":8361,
    "TextPosition":"default"
    }
  },
  {
    "type": "Feature",
    "geometry": {
       "type": "Point",
       "coordinates":  [ 4.814016,45.67497 ]
    },
    "properties": {
    "RegionName":"Auvergne Rhône-Alpes",
    "DeptName":"Rhône",
    "CityName":"Irigny",
    "Population":8361,
    "TextPosition":"default"
    }
  },
  {
    "type": "Feature",
    "geometry": {
       "type": "Point",
       "coordinates":  [ 6.2471439,46.2016149 ]
    },
    "properties": {
    "RegionName":"Rhone-Alpes",
    "DeptName":"Haute-Savoie",
    "CityName":"Ville-la-Grand",
    "Population":8351,
    "TextPosition":"default"
    }
  },
  {
    "type": "Feature",
    "geometry": {
       "type": "Point",
       "coordinates":  [ -2.0617863,46.793464 ]
    },
    "properties": {
    "RegionName":"Pays de la Loire",
    "DeptName":"Vendee",
    "CityName":"Saint-Jean-de-Monts",
    "Population":8349,
    "TextPosition":"default"
    }
  },
  {
    "type": "Feature",
    "geometry": {
       "type": "Point",
       "coordinates":  [ 5.4847245,43.598546 ]
    },
    "properties": {
    "RegionName":"Provence-Alpes-Côte d'Azur",
    "DeptName":"Bouches-du-Rhone",
    "CityName":"Venelles",
    "Population":8347,
    "TextPosition":"default"
    }
  },
  {
    "type": "Feature",
    "geometry": {
       "type": "Point",
       "coordinates":  [ -0.201956,48.893548 ]
    },
    "properties": {
    "RegionName":"Normandie",
    "DeptName":"Calvados",
    "CityName":"Falaise",
    "Population":8343,
    "TextPosition":"default"
    }
  },
  {
    "type": "Feature",
    "geometry": {
       "type": "Point",
       "coordinates":  [ 3.429495,43.62759 ]
    },
    "properties": {
    "RegionName":"Languedoc-Roussillon Midi-Pyrénées",
    "DeptName":"Hérault",
    "CityName":"Clermont-l'Hérault",
    "Population":8322,
    "TextPosition":"default"
    }
  },
  {
    "type": "Feature",
    "geometry": {
       "type": "Point",
       "coordinates":  [ 1.040517,49.276751 ]
    },
    "properties": {
    "RegionName":"Normandie",
    "DeptName":"Seine-Maritime",
    "CityName":"Saint-Pierre-lès-Elbeuf",
    "Population":8311,
    "TextPosition":"default"
    }
  },
  {
    "type": "Feature",
    "geometry": {
       "type": "Point",
       "coordinates":  [ 3.197437,45.769843 ]
    },
    "properties": {
    "RegionName":"Auvergne Rhône-Alpes",
    "DeptName":"Puy-de-Dome",
    "CityName":"Lempdes",
    "Population":8308,
    "TextPosition":"default"
    }
  },
  {
    "type": "Feature",
    "geometry": {
       "type": "Point",
       "coordinates":  [ 4.599039,44.735269 ]
    },
    "properties": {
    "RegionName":"Rhone-Alpes",
    "DeptName":"Ardeche",
    "CityName":"Privas",
    "Population":8305,
    "TextPosition":"default"
    }
  },
  {
    "type": "Feature",
    "geometry": {
       "type": "Point",
       "coordinates":  [ -4.222298,47.866915 ]
    },
    "properties": {
    "RegionName":"Bretagne",
    "DeptName":"Finistere",
    "CityName":"Pont-l'Abbé",
    "Population":8304,
    "TextPosition":"default"
    }
  },
  {
    "type": "Feature",
    "geometry": {
       "type": "Point",
       "coordinates":  [ -1.508806,46.767746 ]
    },
    "properties": {
    "RegionName":"Pays de la Loire",
    "DeptName":"Vendee",
    "CityName":"Le Poiré-sur-Vie",
    "Population":8298,
    "TextPosition":"default"
    }
  },
  {
    "type": "Feature",
    "geometry": {
       "type": "Point",
       "coordinates":  [ 4.683794,44.55061 ]
    },
    "properties": {
    "RegionName":"Auvergne Rhône-Alpes",
    "DeptName":"Ardeche",
    "CityName":"Le Teil",
    "Population":8292,
    "TextPosition":"default"
    }
  },
  {
    "type": "Feature",
    "geometry": {
       "type": "Point",
       "coordinates":  [ 2.169007,48.764545 ]
    },
    "properties": {
    "RegionName":"Île-de-France",
    "DeptName":"Yvelines",
    "CityName":"Jouy-en-Josas",
    "Population":8291,
    "TextPosition":"default"
    }
  },
  {
    "type": "Feature",
    "geometry": {
       "type": "Point",
       "coordinates":  [ 3.2428,50.4745 ]
    },
    "properties": {
    "RegionName":"Nord-Pas-de-Calais Picardie",
    "DeptName":"Nord",
    "CityName":"Orchies",
    "Population":8284,
    "TextPosition":"default"
    }
  },
  {
    "type": "Feature",
    "geometry": {
       "type": "Point",
       "coordinates":  [ 2.916621,42.746371 ]
    },
    "properties": {
    "RegionName":"Languedoc-Roussillon Midi-Pyrénées",
    "DeptName":"Pyrénées-Orientales",
    "CityName":"Pia",
    "Population":8284,
    "TextPosition":"default"
    }
  },
  {
    "type": "Feature",
    "geometry": {
       "type": "Point",
       "coordinates":  [ 6.877292,48.070081 ]
    },
    "properties": {
    "RegionName":"Alsace-Champagne-Ardenne-Lorraine",
    "DeptName":"Vosges",
    "CityName":"Gérardmer",
    "Population":8284,
    "TextPosition":"default"
    }
  },
  {
    "type": "Feature",
    "geometry": {
       "type": "Point",
       "coordinates":  [ 1.830401,47.921704 ]
    },
    "properties": {
    "RegionName":"Centre",
    "DeptName":"Loiret",
    "CityName":"Ingré",
    "Population":8282,
    "TextPosition":"default"
    }
  },
  {
    "type": "Feature",
    "geometry": {
       "type": "Point",
       "coordinates":  [ -4.418542,48.498961 ]
    },
    "properties": {
    "RegionName":"Bretagne",
    "DeptName":"Finistere",
    "CityName":"Plabennec",
    "Population":8276,
    "TextPosition":"default"
    }
  },
  {
    "type": "Feature",
    "geometry": {
       "type": "Point",
       "coordinates":  [ -0.129361,45.04067 ]
    },
    "properties": {
    "RegionName":"Aquitaine",
    "DeptName":"Gironde",
    "CityName":"Coutras",
    "Population":8276,
    "TextPosition":"default"
    }
  },
  {
    "type": "Feature",
    "geometry": {
       "type": "Point",
       "coordinates":  [ 2.972993,50.6683189 ]
    },
    "properties": {
    "RegionName":"Nord-Pas-de-Calais Picardie",
    "DeptName":"Nord",
    "CityName":"Pérenchies",
    "Population":8275,
    "TextPosition":"default"
    }
  },
  {
    "type": "Feature",
    "geometry": {
       "type": "Point",
       "coordinates":  [ -1.5009189,47.439552 ]
    },
    "properties": {
    "RegionName":"Pays de la Loire",
    "DeptName":"Loire-Atlantique",
    "CityName":"Nort-sur-Erdre",
    "Population":8272,
    "TextPosition":"default"
    }
  },
  {
    "type": "Feature",
    "geometry": {
       "type": "Point",
       "coordinates":  [ -1.050176,46.6870819 ]
    },
    "properties": {
    "RegionName":"Pays de la Loire",
    "DeptName":"Vendee",
    "CityName":"Chantonnay",
    "Population":8271,
    "TextPosition":"default"
    }
  },
  {
    "type": "Feature",
    "geometry": {
       "type": "Point",
       "coordinates":  [ 2.852404,50.494578 ]
    },
    "properties": {
    "RegionName":"Nord-Pas-de-Calais Picardie",
    "DeptName":"Pas-de-Calais",
    "CityName":"Wingles",
    "Population":8268,
    "TextPosition":"default"
    }
  },
  {
    "type": "Feature",
    "geometry": {
       "type": "Point",
       "coordinates":  [ -0.939625,44.605389 ]
    },
    "properties": {
    "RegionName":"Aquitaine Limousin Poitou-Charentes",
    "DeptName":"Gironde",
    "CityName":"Mios",
    "Population":8256,
    "TextPosition":"default"
    }
  },
  {
    "type": "Feature",
    "geometry": {
       "type": "Point",
       "coordinates":  [ 1.283406,43.618937 ]
    },
    "properties": {
    "RegionName":"Languedoc-Roussillon Midi-Pyrénées",
    "DeptName":"Haute-Garonne",
    "CityName":"Pibrac",
    "Population":8252,
    "TextPosition":"default"
    }
  },
  {
    "type": "Feature",
    "geometry": {
       "type": "Point",
       "coordinates":  [ 2.887126,43.95819 ]
    },
    "properties": {
    "RegionName":"Languedoc-Roussillon Midi-Pyrénées",
    "DeptName":"Aveyron",
    "CityName":"Saint-Affrique",
    "Population":8251,
    "TextPosition":"default"
    }
  },
  {
    "type": "Feature",
    "geometry": {
       "type": "Point",
       "coordinates":  [ 1.121401,49.455768 ]
    },
    "properties": {
    "RegionName":"Normandie",
    "DeptName":"Seine-Maritime",
    "CityName":"Bihorel",
    "Population":8251,
    "TextPosition":"default"
    }
  },
  {
    "type": "Feature",
    "geometry": {
       "type": "Point",
       "coordinates":  [ 3.423193,43.461531 ]
    },
    "properties": {
    "RegionName":"Languedoc-Roussillon Midi-Pyrénées",
    "DeptName":"Hérault",
    "CityName":"Pézenas",
    "Population":8244,
    "TextPosition":"default"
    }
  },
  {
    "type": "Feature",
    "geometry": {
       "type": "Point",
       "coordinates":  [ -1.498302,47.959272 ]
    },
    "properties": {
    "RegionName":"Bretagne",
    "DeptName":"Ille-et-Vilaine",
    "CityName":"Janzé",
    "Population":8232,
    "TextPosition":"default"
    }
  },
  {
    "type": "Feature",
    "geometry": {
       "type": "Point",
       "coordinates":  [ -1.620486,47.329348 ]
    },
    "properties": {
    "RegionName":"Pays de la Loire",
    "DeptName":"Loire-Atlantique",
    "CityName":"Treillières",
    "Population":8226,
    "TextPosition":"default"
    }
  },
  {
    "type": "Feature",
    "geometry": {
       "type": "Point",
       "coordinates":  [ 2.906792,50.415238 ]
    },
    "properties": {
    "RegionName":"Nord-Pas-de-Calais Picardie",
    "DeptName":"Pas-de-Calais",
    "CityName":"Billy-Montigny",
    "Population":8213,
    "TextPosition":"default"
    }
  },
  {
    "type": "Feature",
    "geometry": {
       "type": "Point",
       "coordinates":  [ 5.882983,45.284906 ]
    },
    "properties": {
    "RegionName":"Auvergne Rhône-Alpes",
    "DeptName":"Isere",
    "CityName":"Crolles",
    "Population":8212,
    "TextPosition":"default"
    }
  },
  {
    "type": "Feature",
    "geometry": {
       "type": "Point",
       "coordinates":  [ -3.383522,47.705772 ]
    },
    "properties": {
    "RegionName":"Bretagne",
    "DeptName":"Morbihan",
    "CityName":"Larmor-Plage",
    "Population":8204,
    "TextPosition":"default"
    }
  },
  {
    "type": "Feature",
    "geometry": {
       "type": "Point",
       "coordinates":  [ 1.4192,49.246568 ]
    },
    "properties": {
    "RegionName":"Normandie",
    "DeptName":"Eure",
    "CityName":"Les Andelys",
    "Population":8201,
    "TextPosition":"default"
    }
  },
  {
    "type": "Feature",
    "geometry": {
       "type": "Point",
       "coordinates":  [ 3.080101,50.739197 ]
    },
    "properties": {
    "RegionName":"Nord-Pas-de-Calais Picardie",
    "DeptName":"Nord",
    "CityName":"Linselles",
    "Population":8192,
    "TextPosition":"default"
    }
  },
  {
    "type": "Feature",
    "geometry": {
       "type": "Point",
       "coordinates":  [ 2.1547299,49.022697 ]
    },
    "properties": {
    "RegionName":"Île-de-France",
    "DeptName":"Val-d'Oise",
    "CityName":"Pierrelaye",
    "Population":8186,
    "TextPosition":"default"
    }
  },
  {
    "type": "Feature",
    "geometry": {
       "type": "Point",
       "coordinates":  [ 5.024072,44.7282749 ]
    },
    "properties": {
    "RegionName":"Rhone-Alpes",
    "DeptName":"Drome",
    "CityName":"Crest",
    "Population":8181,
    "TextPosition":"default"
    }
  },
  {
    "type": "Feature",
    "geometry": {
       "type": "Point",
       "coordinates":  [ -2.737011,48.489828 ]
    },
    "properties": {
    "RegionName":"Bretagne",
    "DeptName":"Cotes-d'Armor",
    "CityName":"Trégueux",
    "Population":8172,
    "TextPosition":"default"
    }
  },
  {
    "type": "Feature",
    "geometry": {
       "type": "Point",
       "coordinates":  [ 0.198015,49.511788 ]
    },
    "properties": {
    "RegionName":"Normandie",
    "DeptName":"Seine-Maritime",
    "CityName":"Harfleur",
    "Population":8167,
    "TextPosition":"default"
    }
  },
  {
    "type": "Feature",
    "geometry": {
       "type": "Point",
       "coordinates":  [ 1.012997,49.299076 ]
    },
    "properties": {
    "RegionName":"Haute-Normandie",
    "DeptName":"Seine-Maritime",
    "CityName":"Saint-Aubin-lès-Elbeuf",
    "Population":8167,
    "TextPosition":"default"
    }
  },
  {
    "type": "Feature",
    "geometry": {
       "type": "Point",
       "coordinates":  [ 0.567624,49.489108 ]
    },
    "properties": {
    "RegionName":"Normandie",
    "DeptName":"Seine-Maritime",
    "CityName":"Notre-Dame-de-Gravenchon",
    "Population":8138,
    "TextPosition":"default"
    }
  },
  {
    "type": "Feature",
    "geometry": {
       "type": "Point",
       "coordinates":  [ -4.027388,47.996387 ]
    },
    "properties": {
    "RegionName":"Bretagne",
    "DeptName":"Finistere",
    "CityName":"Ergué-Gabéric",
    "Population":8136,
    "TextPosition":"default"
    }
  },
  {
    "type": "Feature",
    "geometry": {
       "type": "Point",
       "coordinates":  [ 6.235208,43.138622 ]
    },
    "properties": {
    "RegionName":"Provence-Alpes-Côte d'Azur",
    "DeptName":"Var",
    "CityName":"La Londe-les-Maures",
    "Population":8134,
    "TextPosition":"default"
    }
  },
  {
    "type": "Feature",
    "geometry": {
       "type": "Point",
       "coordinates":  [ 4.9259579,44.003485 ]
    },
    "properties": {
    "RegionName":"Provence-Alpes-Côte d'Azur",
    "DeptName":"Vaucluse",
    "CityName":"Entraigues-sur-la-Sorgue",
    "Population":8134,
    "TextPosition":"default"
    }
  },
  {
    "type": "Feature",
    "geometry": {
       "type": "Point",
       "coordinates":  [ 1.429713,43.669074 ]
    },
    "properties": {
    "RegionName":"Languedoc-Roussillon Midi-Pyrénées",
    "DeptName":"Haute-Garonne",
    "CityName":"Aucamville",
    "Population":8126,
    "TextPosition":"default"
    }
  },
  {
    "type": "Feature",
    "geometry": {
       "type": "Point",
       "coordinates":  [ 4.745161,46.109457 ]
    },
    "properties": {
    "RegionName":"Auvergne Rhône-Alpes",
    "DeptName":"Rhône",
    "CityName":"Belleville",
    "Population":8123,
    "TextPosition":"default"
    }
  },
  {
    "type": "Feature",
    "geometry": {
       "type": "Point",
       "coordinates":  [ 3.979376,46.480798 ]
    },
    "properties": {
    "RegionName":"Bourgogne Franche-Comté",
    "DeptName":"Saône-et-Loire",
    "CityName":"Digoin",
    "Population":8117,
    "TextPosition":"default"
    }
  },
  {
    "type": "Feature",
    "geometry": {
       "type": "Point",
       "coordinates":  [ 2.2298809,48.642446 ]
    },
    "properties": {
    "RegionName":"Île-de-France",
    "DeptName":"Essonne",
    "CityName":"Marcoussis",
    "Population":8111,
    "TextPosition":"default"
    }
  },
  {
    "type": "Feature",
    "geometry": {
       "type": "Point",
       "coordinates":  [ 0.6906113,45.1567262 ]
    },
    "properties": {
    "RegionName":"Aquitaine Limousin Poitou-Charentes",
    "DeptName":"Dordogne",
    "CityName":"Coulounieix-Chamiers",
    "Population":8108,
    "TextPosition":"default"
    }
  },
  {
    "type": "Feature",
    "geometry": {
       "type": "Point",
       "coordinates":  [ -1.147783,44.795454 ]
    },
    "properties": {
    "RegionName":"Aquitaine Limousin Poitou-Charentes",
    "DeptName":"Gironde",
    "CityName":"Lège-Cap-Ferret",
    "Population":8106,
    "TextPosition":"default"
    }
  },
  {
    "type": "Feature",
    "geometry": {
       "type": "Point",
       "coordinates":  [ 1.915628,47.893057 ]
    },
    "properties": {
    "RegionName":"Centre",
    "DeptName":"Loiret",
    "CityName":"Saint-Jean-le-Blanc",
    "Population":8104,
    "TextPosition":"default"
    }
  },
  {
    "type": "Feature",
    "geometry": {
       "type": "Point",
       "coordinates":  [ 5.292936,43.902293 ]
    },
    "properties": {
    "RegionName":"Provence-Alpes-Côte d'Azur",
    "DeptName":"Vaucluse",
    "CityName":"Roussillon",
    "Population":8102,
    "TextPosition":"default"
    }
  },
  {
    "type": "Feature",
    "geometry": {
       "type": "Point",
       "coordinates":  [ -1.944482,47.358852 ]
    },
    "properties": {
    "RegionName":"Pays de la Loire",
    "DeptName":"Loire-Atlantique",
    "CityName":"Savenay",
    "Population":8100,
    "TextPosition":"default"
    }
  },
  {
    "type": "Feature",
    "geometry": {
       "type": "Point",
       "coordinates":  [ 4.744282,45.710755 ]
    },
    "properties": {
    "RegionName":"Auvergne Rhône-Alpes",
    "DeptName":"Rhône",
    "CityName":"Chaponost",
    "Population":8099,
    "TextPosition":"default"
    }
  },
  {
    "type": "Feature",
    "geometry": {
       "type": "Point",
       "coordinates":  [ -1.796747,47.966038 ]
    },
    "properties": {
    "RegionName":"Bretagne",
    "DeptName":"Ille-et-Vilaine",
    "CityName":"Guichen",
    "Population":8095,
    "TextPosition":"default"
    }
  },
  {
    "type": "Feature",
    "geometry": {
       "type": "Point",
       "coordinates":  [ 4.352633,45.467654 ]
    },
    "properties": {
    "RegionName":"Rhone-Alpes",
    "DeptName":"Loire",
    "CityName":"Villars",
    "Population":8090,
    "TextPosition":"default"
    }
  },
  {
    "type": "Feature",
    "geometry": {
       "type": "Point",
       "coordinates":  [ 5.3199379,45.154119 ]
    },
    "properties": {
    "RegionName":"Auvergne Rhône-Alpes",
    "DeptName":"Isere",
    "CityName":"Saint-Marcellin",
    "Population":8086,
    "TextPosition":"default"
    }
  },
  {
    "type": "Feature",
    "geometry": {
       "type": "Point",
       "coordinates":  [ 5.034508,43.550669 ]
    },
    "properties": {
    "RegionName":"Provence-Alpes-Côte d'Azur",
    "DeptName":"Bouches-du-Rhone",
    "CityName":"Saint-Chamas",
    "Population":8069,
    "TextPosition":"default"
    }
  },
  {
    "type": "Feature",
    "geometry": {
       "type": "Point",
       "coordinates":  [ 3.812357,43.611297 ]
    },
    "properties": {
    "RegionName":"Languedoc-Roussillon",
    "DeptName":"Hérault",
    "CityName":"Juvignac",
    "Population":8062,
    "TextPosition":"default"
    }
  },
  {
    "type": "Feature",
    "geometry": {
       "type": "Point",
       "coordinates":  [ 0.240385,47.167296 ]
    },
    "properties": {
    "RegionName":"Centre",
    "DeptName":"Indre-et-Loire",
    "CityName":"Chinon",
    "Population":8044,
    "TextPosition":"default"
    }
  },
  {
    "type": "Feature",
    "geometry": {
       "type": "Point",
       "coordinates":  [ 6.221307,48.683482 ]
    },
    "properties": {
    "RegionName":"Alsace-Champagne-Ardenne-Lorraine",
    "DeptName":"Meurthe-et-Moselle",
    "CityName":"Tomblaine",
    "Population":8041,
    "TextPosition":"default"
    }
  },
  {
    "type": "Feature",
    "geometry": {
       "type": "Point",
       "coordinates":  [ 2.234035,49.003807 ]
    },
    "properties": {
    "RegionName":"Île-de-France",
    "DeptName":"Val-d'Oise",
    "CityName":"Le Plessis-Bouchard",
    "Population":8040,
    "TextPosition":"default"
    }
  },
  {
    "type": "Feature",
    "geometry": {
       "type": "Point",
       "coordinates":  [ 5.971688,45.556935 ]
    },
    "properties": {
    "RegionName":"Rhone-Alpes",
    "DeptName":"Savoie",
    "CityName":"La Ravoire",
    "Population":8019,
    "TextPosition":"default"
    }
  },
  {
    "type": "Feature",
    "geometry": {
       "type": "Point",
       "coordinates":  [ 1.081741,43.6138369 ]
    },
    "properties": {
    "RegionName":"Midi-Pyrénées",
    "DeptName":"Gers",
    "CityName":"L'Isle-Jourdain",
    "Population":8012,
    "TextPosition":"default"
    }
  },
  {
    "type": "Feature",
    "geometry": {
       "type": "Point",
       "coordinates":  [ 6.875682,43.643116 ]
    },
    "properties": {
    "RegionName":"Provence-Alpes-Côte d'Azur",
    "DeptName":"Alpes-Maritimes",
    "CityName":"Peymeinade",
    "Population":8005,
    "TextPosition":"default"
    }
  },
  {
    "type": "Feature",
    "geometry": {
       "type": "Point",
       "coordinates":  [ 4.910072,43.939025 ]
    },
    "properties": {
    "RegionName":"Provence-Alpes-Côte d'Azur",
    "DeptName":"Vaucluse",
    "CityName":"Morières-lès-Avignon",
    "Population":7999,
    "TextPosition":"default"
    }
  },
  {
    "type": "Feature",
    "geometry": {
       "type": "Point",
       "coordinates":  [ 9.424047,42.554742 ]
    },
    "properties": {
    "RegionName":"Corse",
    "DeptName":"Haute-Corse",
    "CityName":"Borgo",
    "Population":7997,
    "TextPosition":"default"
    }
  },
  {
    "type": "Feature",
    "geometry": {
       "type": "Point",
       "coordinates":  [ 3.103759,45.732446 ]
    },
    "properties": {
    "RegionName":"Auvergne Rhône-Alpes",
    "DeptName":"Puy-de-Dome",
    "CityName":"Romagnat",
    "Population":7997,
    "TextPosition":"default"
    }
  },
  {
    "type": "Feature",
    "geometry": {
       "type": "Point",
       "coordinates":  [ 6.183463,48.708323 ]
    },
    "properties": {
    "RegionName":"Alsace-Champagne-Ardenne-Lorraine",
    "DeptName":"Meurthe-et-Moselle",
    "CityName":"Malzéville",
    "Population":7993,
    "TextPosition":"default"
    }
  },
  {
    "type": "Feature",
    "geometry": {
       "type": "Point",
       "coordinates":  [ 5.66912,45.056206 ]
    },
    "properties": {
    "RegionName":"Auvergne Rhône-Alpes",
    "DeptName":"Isere",
    "CityName":"Vif",
    "Population":7991,
    "TextPosition":"default"
    }
  },
  {
    "type": "Feature",
    "geometry": {
       "type": "Point",
       "coordinates":  [ 0.6132689,47.3415 ]
    },
    "properties": {
    "RegionName":"Centre",
    "DeptName":"Indre-et-Loire",
    "CityName":"Ballan-Miré",
    "Population":7987,
    "TextPosition":"default"
    }
  },
  {
    "type": "Feature",
    "geometry": {
       "type": "Point",
       "coordinates":  [ 0.628715,48.764651 ]
    },
    "properties": {
    "RegionName":"Normandie",
    "DeptName":"Orne",
    "CityName":"L'Aigle",
    "Population":7983,
    "TextPosition":"default"
    }
  },
  {
    "type": "Feature",
    "geometry": {
       "type": "Point",
       "coordinates":  [ 5.194541,43.550993 ]
    },
    "properties": {
    "RegionName":"Provence-Alpes-Côte d'Azur",
    "DeptName":"Bouches-du-Rhone",
    "CityName":"La Fare-les-Oliviers",
    "Population":7980,
    "TextPosition":"default"
    }
  },
  {
    "type": "Feature",
    "geometry": {
       "type": "Point",
       "coordinates":  [ 2.819166,49.423944 ]
    },
    "properties": {
    "RegionName":"Nord-Pas-de-Calais Picardie",
    "DeptName":"Oise",
    "CityName":"Margny-lès-Compiègne",
    "Population":7979,
    "TextPosition":"default"
    }
  },
  {
    "type": "Feature",
    "geometry": {
       "type": "Point",
       "coordinates":  [ 6.344886,45.275403 ]
    },
    "properties": {
    "RegionName":"Auvergne Rhône-Alpes",
    "DeptName":"Savoie",
    "CityName":"Saint-Jean-de-Maurienne",
    "Population":7968,
    "TextPosition":"default"
    }
  },
  {
    "type": "Feature",
    "geometry": {
       "type": "Point",
       "coordinates":  [ 0.096065,43.242573 ]
    },
    "properties": {
    "RegionName":"Languedoc-Roussillon Midi-Pyrénées",
    "DeptName":"Hautes-Pyrénées",
    "CityName":"Aureilhan",
    "Population":7959,
    "TextPosition":"default"
    }
  },
  {
    "type": "Feature",
    "geometry": {
       "type": "Point",
       "coordinates":  [ -1.602986,48.046029 ]
    },
    "properties": {
    "RegionName":"Bretagne",
    "DeptName":"Ille-et-Vilaine",
    "CityName":"Vern-sur-Seiche",
    "Population":7957,
    "TextPosition":"default"
    }
  },
  {
    "type": "Feature",
    "geometry": {
       "type": "Point",
       "coordinates":  [ 1.310822,43.498596 ]
    },
    "properties": {
    "RegionName":"Midi-Pyrénées",
    "DeptName":"Haute-Garonne",
    "CityName":"Seysses",
    "Population":7954,
    "TextPosition":"default"
    }
  },
  {
    "type": "Feature",
    "geometry": {
       "type": "Point",
       "coordinates":  [ 2.374221,50.9987629 ]
    },
    "properties": {
    "RegionName":"Nord-Pas-de-Calais Picardie",
    "DeptName":"Nord",
    "CityName":"Cappelle-la-Grande",
    "Population":7948,
    "TextPosition":"default"
    }
  },
  {
    "type": "Feature",
    "geometry": {
       "type": "Point",
       "coordinates":  [ 5.78719,49.546625 ]
    },
    "properties": {
    "RegionName":"Lorraine",
    "DeptName":"Meurthe-et-Moselle",
    "CityName":"Mont-Saint-Martin",
    "Population":7946,
    "TextPosition":"default"
    }
  },
  {
    "type": "Feature",
    "geometry": {
       "type": "Point",
       "coordinates":  [ -1.795384,48.101097 ]
    },
    "properties": {
    "RegionName":"Bretagne",
    "DeptName":"Ille-et-Vilaine",
    "CityName":"Le Rheu",
    "Population":7940,
    "TextPosition":"default"
    }
  },
  {
    "type": "Feature",
    "geometry": {
       "type": "Point",
       "coordinates":  [ 4.2232365,45.7436262 ]
    },
    "properties": {
    "RegionName":"Auvergne Rhône-Alpes",
    "DeptName":"Loire",
    "CityName":"Feurs",
    "Population":7937,
    "TextPosition":"default"
    }
  },
  {
    "type": "Feature",
    "geometry": {
       "type": "Point",
       "coordinates":  [ 4.449389,45.490467 ]
    },
    "properties": {
    "RegionName":"Rhone-Alpes",
    "DeptName":"Loire",
    "CityName":"Sorbiers",
    "Population":7937,
    "TextPosition":"default"
    }
  },
  {
    "type": "Feature",
    "geometry": {
       "type": "Point",
       "coordinates":  [ 7.102382,47.810702 ]
    },
    "properties": {
    "RegionName":"Alsace-Champagne-Ardenne-Lorraine",
    "DeptName":"Haut-Rhin",
    "CityName":"Thann",
    "Population":7933,
    "TextPosition":"default"
    }
  },
  {
    "type": "Feature",
    "geometry": {
       "type": "Point",
       "coordinates":  [ -0.604926,44.947674 ]
    },
    "properties": {
    "RegionName":"Aquitaine Limousin Poitou-Charentes",
    "DeptName":"Gironde",
    "CityName":"Parempuyre",
    "Population":7922,
    "TextPosition":"default"
    }
  },
  {
    "type": "Feature",
    "geometry": {
       "type": "Point",
       "coordinates":  [ 5.445327,45.564026 ]
    },
    "properties": {
    "RegionName":"Auvergne Rhône-Alpes",
    "DeptName":"Isere",
    "CityName":"La Tour-du-Pin",
    "Population":7922,
    "TextPosition":"default"
    }
  },
  {
    "type": "Feature",
    "geometry": {
       "type": "Point",
       "coordinates":  [ 5.564722,45.326168 ]
    },
    "properties": {
    "RegionName":"Auvergne Rhône-Alpes",
    "DeptName":"Isere",
    "CityName":"Moirans",
    "Population":7917,
    "TextPosition":"default"
    }
  },
  {
    "type": "Feature",
    "geometry": {
       "type": "Point",
       "coordinates":  [ -0.891574,45.943621 ]
    },
    "properties": {
    "RegionName":"Aquitaine Limousin Poitou-Charentes",
    "DeptName":"Charente-Maritime",
    "CityName":"Tonnay-Charente",
    "Population":7914,
    "TextPosition":"default"
    }
  },
  {
    "type": "Feature",
    "geometry": {
       "type": "Point",
       "coordinates":  [ 6.045199,49.25133 ]
    },
    "properties": {
    "RegionName":"Alsace-Champagne-Ardenne-Lorraine",
    "DeptName":"Moselle",
    "CityName":"Moyeuvre-Grande",
    "Population":7907,
    "TextPosition":"default"
    }
  },
  {
    "type": "Feature",
    "geometry": {
       "type": "Point",
       "coordinates":  [ 2.219056,47.865635 ]
    },
    "properties": {
    "RegionName":"Centre",
    "DeptName":"Loiret",
    "CityName":"Châteauneuf-sur-Loire",
    "Population":7906,
    "TextPosition":"default"
    }
  },
  {
    "type": "Feature",
    "geometry": {
       "type": "Point",
       "coordinates":  [ 2.865986,50.475517 ]
    },
    "properties": {
    "RegionName":"Nord-Pas-de-Calais Picardie",
    "DeptName":"Pas-de-Calais",
    "CityName":"Vendin-le-Vieil",
    "Population":7905,
    "TextPosition":"default"
    }
  },
  {
    "type": "Feature",
    "geometry": {
       "type": "Point",
       "coordinates":  [ 5.905725,46.746091 ]
    },
    "properties": {
    "RegionName":"Bourgogne Franche-Comté",
    "DeptName":"Jura",
    "CityName":"Champagnole",
    "Population":7901,
    "TextPosition":"default"
    }
  },
  {
    "type": "Feature",
    "geometry": {
       "type": "Point",
       "coordinates":  [ 6.419186,48.250554 ]
    },
    "properties": {
    "RegionName":"Alsace-Champagne-Ardenne-Lorraine",
    "DeptName":"Vosges",
    "CityName":"Thaon-les-Vosges",
    "Population":7895,
    "TextPosition":"default"
    }
  },
  {
    "type": "Feature",
    "geometry": {
       "type": "Point",
       "coordinates":  [ -1.36166,48.686843 ]
    },
    "properties": {
    "RegionName":"Basse-Normandie",
    "DeptName":"Manche",
    "CityName":"Avranches",
    "Population":7890,
    "TextPosition":"default"
    }
  },
  {
    "type": "Feature",
    "geometry": {
       "type": "Point",
       "coordinates":  [ 1.700974,46.825648 ]
    },
    "properties": {
    "RegionName":"Centre",
    "DeptName":"Indre",
    "CityName":"Déols",
    "Population":7889,
    "TextPosition":"default"
    }
  },
  {
    "type": "Feature",
    "geometry": {
       "type": "Point",
       "coordinates":  [ 4.372446,45.404462 ]
    },
    "properties": {
    "RegionName":"Auvergne Rhône-Alpes",
    "DeptName":"Loire",
    "CityName":"La Ricamarie",
    "Population":7889,
    "TextPosition":"default"
    }
  },
  {
    "type": "Feature",
    "geometry": {
       "type": "Point",
       "coordinates":  [ -4.558241,48.424843 ]
    },
    "properties": {
    "RegionName":"Bretagne",
    "DeptName":"Finistere",
    "CityName":"Guilers",
    "Population":7886,
    "TextPosition":"default"
    }
  },
  {
    "type": "Feature",
    "geometry": {
       "type": "Point",
       "coordinates":  [ -1.348446,47.2378209 ]
    },
    "properties": {
    "RegionName":"Pays de la Loire",
    "DeptName":"Loire-Atlantique",
    "CityName":"Le Loroux-Bottereau",
    "Population":7879,
    "TextPosition":"default"
    }
  },
  {
    "type": "Feature",
    "geometry": {
       "type": "Point",
       "coordinates":  [ 5.334297,47.86683 ]
    },
    "properties": {
    "RegionName":"Alsace-Champagne-Ardenne-Lorraine",
    "DeptName":"Haute-Marne",
    "CityName":"Langres",
    "Population":7877,
    "TextPosition":"default"
    }
  },
  {
    "type": "Feature",
    "geometry": {
       "type": "Point",
       "coordinates":  [ 6.549936,46.0567179 ]
    },
    "properties": {
    "RegionName":"Auvergne Rhône-Alpes",
    "DeptName":"Haute-Savoie",
    "CityName":"Scionzier",
    "Population":7876,
    "TextPosition":"default"
    }
  },
  {
    "type": "Feature",
    "geometry": {
       "type": "Point",
       "coordinates":  [ 2.915396,50.69533 ]
    },
    "properties": {
    "RegionName":"Nord-Pas-de-Calais",
    "DeptName":"Nord",
    "CityName":"Houplines",
    "Population":7870,
    "TextPosition":"default"
    }
  },
  {
    "type": "Feature",
    "geometry": {
       "type": "Point",
       "coordinates":  [ 2.758115,50.273623 ]
    },
    "properties": {
    "RegionName":"Nord-Pas-de-Calais",
    "DeptName":"Pas-de-Calais",
    "CityName":"Achicourt",
    "Population":7852,
    "TextPosition":"default"
    }
  },
  {
    "type": "Feature",
    "geometry": {
       "type": "Point",
       "coordinates":  [ 3.527539,43.355966 ]
    },
    "properties": {
    "RegionName":"Languedoc-Roussillon",
    "DeptName":"Hérault",
    "CityName":"Marseillan",
    "Population":7848,
    "TextPosition":"default"
    }
  },
  {
    "type": "Feature",
    "geometry": {
       "type": "Point",
       "coordinates":  [ 6.342202,43.151682 ]
    },
    "properties": {
    "RegionName":"Provence-Alpes-Côte d'Azur",
    "DeptName":"Var",
    "CityName":"Bormes-les-Mimosas",
    "Population":7847,
    "TextPosition":"default"
    }
  },
  {
    "type": "Feature",
    "geometry": {
       "type": "Point",
       "coordinates":  [ -1.4858579,43.523153 ]
    },
    "properties": {
    "RegionName":"Aquitaine Limousin Poitou-Charentes",
    "DeptName":"Pyrénées-Atlantiques",
    "CityName":"Boucau",
    "Population":7837,
    "TextPosition":"default"
    }
  },
  {
    "type": "Feature",
    "geometry": {
       "type": "Point",
       "coordinates":  [ 5.672925,45.1199439 ]
    },
    "properties": {
    "RegionName":"Auvergne Rhône-Alpes",
    "DeptName":"Isere",
    "CityName":"Claix",
    "Population":7828,
    "TextPosition":"default"
    }
  },
  {
    "type": "Feature",
    "geometry": {
       "type": "Point",
       "coordinates":  [ -0.4927134,44.8635218 ]
    },
    "properties": {
    "RegionName":"Aquitaine Limousin Poitou-Charentes",
    "DeptName":"Gironde",
    "CityName":"Artigues-près-Bordeaux",
    "Population":7821,
    "TextPosition":"default"
    }
  },
  {
    "type": "Feature",
    "geometry": {
       "type": "Point",
       "coordinates":  [ 5.388925,47.193543 ]
    },
    "properties": {
    "RegionName":"Bourgogne Franche-Comté",
    "DeptName":"Côte-d'Or",
    "CityName":"Auxonne",
    "Population":7819,
    "TextPosition":"default"
    }
  },
  {
    "type": "Feature",
    "geometry": {
       "type": "Point",
       "coordinates":  [ 1.456733,43.674268 ]
    },
    "properties": {
    "RegionName":"Languedoc-Roussillon Midi-Pyrénées",
    "DeptName":"Haute-Garonne",
    "CityName":"Launaguet",
    "Population":7817,
    "TextPosition":"default"
    }
  },
  {
    "type": "Feature",
    "geometry": {
       "type": "Point",
       "coordinates":  [ 7.10342,43.686732 ]
    },
    "properties": {
    "RegionName":"Provence-Alpes-Côte d'Azur",
    "DeptName":"Alpes-Maritimes",
    "CityName":"La Colle-sur-Loup",
    "Population":7815,
    "TextPosition":"default"
    }
  },
  {
    "type": "Feature",
    "geometry": {
       "type": "Point",
       "coordinates":  [ -4.628738,48.4323369 ]
    },
    "properties": {
    "RegionName":"Bretagne",
    "DeptName":"Finistere",
    "CityName":"Saint-Renan",
    "Population":7815,
    "TextPosition":"default"
    }
  },
  {
    "type": "Feature",
    "geometry": {
       "type": "Point",
       "coordinates":  [ -1.093788,46.152744 ]
    },
    "properties": {
    "RegionName":"Poitou-Charentes",
    "DeptName":"Charente-Maritime",
    "CityName":"Périgny",
    "Population":7811,
    "TextPosition":"default"
    }
  },
  {
    "type": "Feature",
    "geometry": {
       "type": "Point",
       "coordinates":  [ 6.258241,46.174611 ]
    },
    "properties": {
    "RegionName":"Auvergne Rhône-Alpes",
    "DeptName":"Haute-Savoie",
    "CityName":"Vétraz-Monthoux",
    "Population":7781,
    "TextPosition":"default"
    }
  },
  {
    "type": "Feature",
    "geometry": {
       "type": "Point",
       "coordinates":  [ 6.591716,48.015589 ]
    },
    "properties": {
    "RegionName":"Alsace-Champagne-Ardenne-Lorraine",
    "DeptName":"Vosges",
    "CityName":"Remiremont",
    "Population":7774,
    "TextPosition":"default"
    }
  },
  {
    "type": "Feature",
    "geometry": {
       "type": "Point",
       "coordinates":  [ -1.301187,43.6587109 ]
    },
    "properties": {
    "RegionName":"Aquitaine Limousin Poitou-Charentes",
    "DeptName":"Landes",
    "CityName":"Saint-Vincent-de-Tyrosse",
    "Population":7773,
    "TextPosition":"default"
    }
  },
  {
    "type": "Feature",
    "geometry": {
       "type": "Point",
       "coordinates":  [ 9.4450439,42.6198894 ]
    },
    "properties": {
    "RegionName":"Corse",
    "DeptName":"Haute-Corse",
    "CityName":"Biguglia",
    "Population":7772,
    "TextPosition":"default"
    }
  },